This is a test project 0 !!
$GPGGA,084312.260,3117.8078,N,12125.9329,E,1,,,-49.5,M,,M,,*76
$GPRMC,084312.260,A,3117.8078,N,12125.9329,E,0.6,,210610,,,A*4D
$GPGGA,084313.260,3117.8068,N,12125.9336,E,1,,,-48.4,M,,M,,*78
$GPRMC,084313.260,A,3117.8068,N,12125.9336,E,1.1,,210610,,,A*45
$GPGGA,084314.260,3117.8062,N,12125.9344,E,1,,,-44.8,M,,M,,*70
$GPRMC,084314.260,A,3117.8062,N,12125.9344,E,1.7,,210610,,,A*4B
$GPGGA,084315.260,3117.8059,N,12125.9354,E,1,,,-41.1,M,,M,,*74
$GPRMC,084315.260,A,3117.8059,N,12125.9354,E,1.6,,210610,,,A*42
$GPGGA,084316.260,3117.8056,N,12125.9364,E,1,,,-37.7,M,,M,,*7C
$GPRMC,084316.260,A,3117.8056,N,12125.9364,E,0.4,,210610,,,A*4E
$GPGGA,084317.260,3117.8048,N,12125.9370,E,1,,,-36.9,M,,M,,*78
$GPRMC,084317.260,A,3117.8048,N,12125.9370,E,2.1,,210610,,,A*42
$GPGGA,084318.260,3117.8040,N,12125.9373,E,1,,,-37.0,M,,M,,*74
$GPRMC,084318.260,A,3117.8040,N,12125.9373,E,1.4,,210610,,,A*40
$GPGGA,084319.260,3117.8035,N,12125.9380,E,1,,,-36.9,M,,M,,*73
$GPRMC,084319.260,A,3117.8035,N,12125.9380,E,1.1,,210610,,,A*4A
$GPGGA,084320.260,3117.8033,N,12125.9387,E,1,,,-37.2,M,,M,,*72
$GPRMC,084320.260,A,3117.8033,N,12125.9387,E,1.1,,210610,,,A*41
$GPGGA,084321.260,3117.8027,N,12125.9397,E,1,,,-37.0,M,,M,,*75
$GPRMC,084321.260,A,3117.8027,N,12125.9397,E,1.3,,210610,,,A*46
$GPGGA,084322.260,3117.8023,N,12125.9402,E,1,,,-37.2,M,,M,,*7B
$GPRMC,084322.260,A,3117.8023,N,12125.9402,E,0.9,,210610,,,A*41
$GPGGA,084323.260,3117.8018,N,12125.9402,E,1,,,-38.1,M,,M,,*7E
$GPRMC,084323.260,A,3117.8018,N,12125.9402,E,1.7,,210610,,,A*47
$GPGGA,084324.260,3117.8014,N,12125.9404,E,1,,,-39.3,M,,M,,*70
$GPRMC,084324.260,A,3117.8014,N,12125.9404,E,1.0,,210610,,,A*4D
$GPGGA,084325.260,3117.8010,N,12125.9407,E,1,,,-39.8,M,,M,,*7D
$GPRMC,084325.260,A,3117.8010,N,12125.9407,E,0.3,,210610,,,A*49
$GPGGA,084326.260,3117.8011,N,12125.9410,E,1,,,-39.8,M,,M,,*79
$GPRMC,084326.260,A,3117.8011,N,12125.9410,E,0.3,,210610,,,A*4D
$GPGGA,084327.260,3117.8012,N,12125.9412,E,1,,,-38.8,M,,M,,*78
$GPRMC,084327.260,A,3117.8012,N,12125.9412,E,0.4,,210610,,,A*4A
$GPGGA,084328.260,3117.8010,N,12125.9417,E,1,,,-40.1,M,,M,,*76
$GPRMC,084328.260,A,3117.8010,N,12125.9417,E,1.3,,210610,,,A*44
$GPGGA,084329.260,3117.8010,N,12125.9422,E,1,,,-40.3,M,,M,,*73
$GPRMC,084329.260,A,3117.8010,N,12125.9422,E,1.7,,210610,,,A*47
$GPGGA,084330.260,3117.8021,N,12125.9428,E,1,,,-39.4,M,,M,,*7A
$GPRMC,084330.260,A,3117.8021,N,12125.9428,E,4.1,,210610,,,A*44
$GPGGA,084331.260,3117.8029,N,12125.9432,E,1,,,-40.4,M,,M,,*76
$GPRMC,084331.260,A,3117.8029,N,12125.9432,E,5.0,,210610,,,A*46
$GPGGA,084332.260,3117.8034,N,12125.9434,E,1,,,-41.1,M,,M,,*7B
$GPRMC,084332.260,A,3117.8034,N,12125.9434,E,4.1,,210610,,,A*4F
$GPGGA,084333.260,3117.8039,N,12125.9433,E,1,,,-43.4,M,,M,,*77
$GPRMC,084333.260,A,3117.8039,N,12125.9433,E,3.8,,210610,,,A*4A
$GPGGA,084334.260,3117.8041,N,12125.9435,E,1,,,-45.3,M,,M,,*78
$GPRMC,084334.260,A,3117.8041,N,12125.9435,E,3.4,,210610,,,A*48
$GPGGA,084335.260,3117.8047,N,12125.9442,E,1,,,-46.1,M,,M,,*7E
$GPRMC,084335.260,A,3117.8047,N,12125.9442,E,3.3,,210610,,,A*48
$GPGGA,084336.260,3117.8047,N,12125.9449,E,1,,,-47.6,M,,M,,*70
$GPRMC,084336.260,A,3117.8047,N,12125.9449,E,2.5,,210610,,,A*47
$GPGGA,084337.260,3117.8030,N,12125.9454,E,1,,,-50.1,M,,M,,*7C
$GPRMC,084337.260,A,3117.8030,N,12125.9454,E,2.0,,210610,,,A*4F
$GPGGA,084338.260,3117.8016,N,12125.9461,E,1,,,-51.6,M,,M,,*77
$GPRMC,084338.260,A,3117.8016,N,12125.9461,E,1.8,,210610,,,A*49
$GPGGA,084339.260,3117.7994,N,12125.9472,E,1,,,-54.3,M,,M,,*78
$GPRMC,084339.260,A,3117.7994,N,12125.9472,E,3.0,,210610,,,A*4C
$GPGGA,084340.260,3117.7972,N,12125.9488,E,1,,,-56.5,M,,M,,*7F
$GPRMC,084340.260,A,3117.7972,N,12125.9488,E,4.2,,210610,,,A*4A
$GPGGA,084341.260,3117.7957,N,12125.9501,E,1,,,-56.7,M,,M,,*7B
$GPRMC,084341.260,A,3117.7957,N,12125.9501,E,3.1,,210610,,,A*48
$GPGGA,084342.260,3117.7947,N,12125.9514,E,1,,,-57.2,M,,M,,*79
$GPRMC,084342.260,A,3117.7947,N,12125.9514,E,3.0,,210610,,,A*4F
$GPGGA,084343.260,3117.7937,N,12125.9524,E,1,,,-57.5,M,,M,,*7B
$GPRMC,084343.260,A,3117.7937,N,12125.9524,E,1.6,,210610,,,A*4E
$GPGGA,084344.260,3117.7929,N,12125.9531,E,1,,,-58.1,M,,M,,*7C
$GPRMC,084344.260,A,3117.7929,N,12125.9531,E,0.5,,210610,,,A*40
$GPGGA,084345.260,3117.7925,N,12125.9537,E,1,,,-56.7,M,,M,,*7F
$GPRMC,084345.260,A,3117.7925,N,12125.9537,E,0.7,,210610,,,A*49
$GPGGA,084346.260,3117.7921,N,12125.9542,E,1,,,-55.7,M,,M,,*79
$GPRMC,084346.260,A,3117.7921,N,12125.9542,E,1.3,,210610,,,A*49
$GPGGA,084347.260,3117.7915,N,12125.9547,E,1,,,-54.9,M,,M,,*75
$GPRMC,084347.260,A,3117.7915,N,12125.9547,E,1.1,,210610,,,A*48
$GPGGA,084348.260,3117.7910,N,12125.9554,E,1,,,-52.7,M,,M,,*75
$GPRMC,084348.260,A,3117.7910,N,12125.9554,E,0.3,,210610,,,A*43
$GPGGA,084349.260,3117.7906,N,12125.9562,E,1,,,-50.4,M,,M,,*77
$GPRMC,084349.260,A,3117.7906,N,12125.9562,E,0.2,,210610,,,A*41
$GPGGA,084350.260,3117.7894,N,12125.9576,E,1,,,-50.3,M,,M,,*77
$GPRMC,084350.260,A,3117.7894,N,12125.9576,E,1.9,,210610,,,A*4C
$GPGGA,084351.260,3117.7881,N,12125.9584,E,1,,,-51.4,M,,M,,*79
$GPRMC,084351.260,A,3117.7881,N,12125.9584,E,2.2,,210610,,,A*4C
$GPGGA,084352.260,3117.7867,N,12125.9594,E,1,,,-51.6,M,,M,,*71
$GPRMC,084352.260,A,3117.7867,N,12125.9594,E,1.8,,210610,,,A*4F
$GPGGA,084353.260,3117.7855,N,12125.9605,E,1,,,-51.5,M,,M,,*79
$GPRMC,084353.260,A,3117.7855,N,12125.9605,E,1.8,,210610,,,A*44
$GPGGA,084354.260,3117.7846,N,12125.9615,E,1,,,-51.0,M,,M,,*78
$GPRMC,084354.260,A,3117.7846,N,12125.9615,E,2.0,,210610,,,A*4B
$GPGGA,084355.260,3117.7836,N,12125.9628,E,1,,,-51.2,M,,M,,*72
$GPRMC,084355.260,A,3117.7836,N,12125.9628,E,1.7,,210610,,,A*47
$GPGGA,084356.260,3117.7830,N,12125.9638,E,1,,,-49.3,M,,M,,*7E
$GPRMC,084356.260,A,3117.7830,N,12125.9638,E,1.5,,210610,,,A*41
$GPGGA,084357.260,3117.7824,N,12125.9651,E,1,,,-47.1,M,,M,,*79
$GPRMC,084357.260,A,3117.7824,N,12125.9651,E,1.7,,210610,,,A*48
$GPGGA,084358.260,3117.7814,N,12125.9664,E,1,,,-46.0,M,,M,,*73
$GPRMC,084358.260,A,3117.7814,N,12125.9664,E,1.6,,210610,,,A*43
$GPGGA,084359.260,3117.7806,N,12125.9677,E,1,,,-46.0,M,,M,,*73
$GPRMC,084359.260,A,3117.7806,N,12125.9677,E,1.3,,210610,,,A*46
$GPGGA,084400.260,3117.7799,N,12125.9691,E,1,,,-44.7,M,,M,,*7C
$GPRMC,084400.260,A,3117.7799,N,12125.9691,E,1.4,,210610,,,A*4B
$GPGGA,084401.260,3117.7798,N,12125.9703,E,1,,,-42.2,M,,M,,*75
$GPRMC,084401.260,A,3117.7798,N,12125.9703,E,1.7,,210610,,,A*42
$GPGGA,084402.260,3117.7803,N,12125.9709,E,1,,,-41.7,M,,M,,*77
$GPRMC,084402.260,A,3117.7803,N,12125.9709,E,2.4,,210610,,,A*46
$GPGGA,084403.260,3117.7811,N,12125.9708,E,1,,,-43.0,M,,M,,*71
$GPRMC,084403.260,A,3117.7811,N,12125.9708,E,1.4,,210610,,,A*46
$GPGGA,084404.260,3117.7819,N,12125.9702,E,1,,,-44.4,M,,M,,*77
$GPRMC,084404.260,A,3117.7819,N,12125.9702,E,1.0,,210610,,,A*47
$GPGGA,084405.260,3117.7824,N,12125.9701,E,1,,,-44.7,M,,M,,*78
$GPRMC,084405.260,A,3117.7824,N,12125.9701,E,0.8,,210610,,,A*42
$GPGGA,084406.260,3117.7827,N,12125.9700,E,1,,,-44.9,M,,M,,*77
$GPRMC,084406.260,A,3117.7827,N,12125.9700,E,0.3,,210610,,,A*48
$GPGGA,084407.260,3117.7830,N,12125.9696,E,1,,,-46.5,M,,M,,*70
$GPRMC,084407.260,A,3117.7830,N,12125.9696,E,1.3,,210610,,,A*40
$GPGGA,084408.260,3117.7837,N,12125.9694,E,1,,,-47.0,M,,M,,*7E
$GPRMC,084408.260,A,3117.7837,N,12125.9694,E,1.9,,210610,,,A*40
$GPGGA,084409.260,3117.7848,N,12125.9695,E,1,,,-47.6,M,,M,,*70
$GPRMC,084409.260,A,3117.7848,N,12125.9695,E,1.9,,210610,,,A*48
$GPGGA,084410.260,3117.7858,N,12125.9690,E,1,,,-49.9,M,,M,,*7D
$GPRMC,084410.260,A,3117.7858,N,12125.9690,E,2.2,,210610,,,A*4C
$GPGGA,084411.260,3117.7869,N,12125.9684,E,1,,,-52.0,M,,M,,*78
$GPRMC,084411.260,A,3117.7869,N,12125.9684,E,2.2,,210610,,,A*4A
$GPGGA,084412.260,3117.7878,N,12125.9679,E,1,,,-54.0,M,,M,,*7F
$GPRMC,084412.260,A,3117.7878,N,12125.9679,E,2.0,,210610,,,A*49
$GPGGA,084413.260,3117.7882,N,12125.9680,E,1,,,-55.5,M,,M,,*79
$GPRMC,084413.260,A,3117.7882,N,12125.9680,E,0.7,,210610,,,A*4E
$GPGGA,084414.260,3117.7884,N,12125.9678,E,1,,,-56.5,M,,M,,*7C
$GPRMC,084414.260,A,3117.7884,N,12125.9678,E,1.9,,210610,,,A*47
$GPGGA,084415.260,3117.7880,N,12125.9680,E,1,,,-58.9,M,,M,,*7C
$GPRMC,084415.260,A,3117.7880,N,12125.9680,E,0.7,,210610,,,A*4A
$GPGGA,084416.260,3117.7878,N,12125.9687,E,1,,,-60.1,M,,M,,*7C
$GPRMC,084416.260,A,3117.7878,N,12125.9687,E,0.3,,210610,,,A*4D
$GPGGA,084417.260,3117.7875,N,12125.9696,E,1,,,-60.7,M,,M,,*76
$GPRMC,084417.260,A,3117.7875,N,12125.9696,E,1.0,,210610,,,A*43
$GPGGA,084418.260,3117.7868,N,12125.9702,E,1,,,-60.5,M,,M,,*7B
$GPRMC,084418.260,A,3117.7868,N,12125.9702,E,1.1,,210610,,,A*4D
$GPGGA,084419.260,3117.7861,N,12125.9709,E,1,,,-59.9,M,,M,,*7E
$GPRMC,084419.260,A,3117.7861,N,12125.9709,E,1.7,,210610,,,A*48
$GPGGA,084420.260,3117.7855,N,12125.9717,E,1,,,-59.5,M,,M,,*70
$GPRMC,084420.260,A,3117.7855,N,12125.9717,E,1.8,,210610,,,A*45
$GPGGA,084421.260,3117.7852,N,12125.9727,E,1,,,-58.6,M,,M,,*77
$GPRMC,084421.260,A,3117.7852,N,12125.9727,E,1.0,,210610,,,A*48
$GPGGA,084422.260,3117.7855,N,12125.9735,E,1,,,-58.1,M,,M,,*77
$GPRMC,084422.260,A,3117.7855,N,12125.9735,E,1.2,,210610,,,A*4D
$GPGGA,084423.260,3117.7856,N,12125.9744,E,1,,,-58.0,M,,M,,*72
$GPRMC,084423.260,A,3117.7856,N,12125.9744,E,1.9,,210610,,,A*42
$GPGGA,084424.260,3117.7859,N,12125.9749,E,1,,,-58.9,M,,M,,*7E
$GPRMC,084424.260,A,3117.7859,N,12125.9749,E,0.5,,210610,,,A*4A
$GPGGA,084425.260,3117.7859,N,12125.9749,E,1,,,-60.1,M,,M,,*7C
$GPRMC,084425.260,A,3117.7859,N,12125.9749,E,0.9,,210610,,,A*47
$GPGGA,084426.260,3117.7857,N,12125.9749,E,1,,,-59.3,M,,M,,*79
$GPRMC,084426.260,A,3117.7857,N,12125.9749,E,0.6,,210610,,,A*45
$GPGGA,084427.260,3117.7857,N,12125.9748,E,1,,,-58.4,M,,M,,*7F
$GPRMC,084427.260,A,3117.7857,N,12125.9748,E,1.4,,210610,,,A*46
$GPGGA,084428.260,3117.7858,N,12125.9747,E,1,,,-57.5,M,,M,,*7E
$GPRMC,084428.260,A,3117.7858,N,12125.9747,E,2.0,,210610,,,A*4E
$GPGGA,084429.260,3117.7857,N,12125.9746,E,1,,,-56.1,M,,M,,*74
$GPRMC,084429.260,A,3117.7857,N,12125.9746,E,1.7,,210610,,,A*45
$GPGGA,084430.260,3117.7857,N,12125.9745,E,1,,,-54.3,M,,M,,*7F
$GPRMC,084430.260,A,3117.7857,N,12125.9745,E,2.4,,210610,,,A*4E
$GPGGA,084431.260,3117.7862,N,12125.9743,E,1,,,-52.5,M,,M,,*7E
$GPRMC,084431.260,A,3117.7862,N,12125.9743,E,3.1,,210610,,,A*4B
$GPGGA,084432.260,3117.7869,N,12125.9740,E,1,,,-51.6,M,,M,,*75
$GPRMC,084432.260,A,3117.7869,N,12125.9740,E,2.9,,210610,,,A*49
$GPGGA,084433.260,3117.7877,N,12125.9739,E,1,,,-50.5,M,,M,,*77
$GPRMC,084433.260,A,3117.7877,N,12125.9739,E,3.0,,210610,,,A*41
$GPGGA,084434.000,3117.7882,N,12125.9737,E,1,,,-49.5,M,,M,,*78
$GPRMC,084434.000,A,3117.7882,N,12125.9737,E,2.3,,210610,,,A*44
$GPGGA,084435.000,3117.7887,N,12125.9733,E,1,,,-47.9,M,,M,,*7A
$GPRMC,084435.000,A,3117.7887,N,12125.9733,E,2.2,,210610,,,A*45
$GPGGA,084436.000,3117.7891,N,12125.9732,E,1,,,-46.3,M,,M,,*74
$GPRMC,084436.000,A,3117.7891,N,12125.9732,E,1.5,,210610,,,A*44
$GPGGA,084437.000,3117.7897,N,12125.9729,E,1,,,-44.8,M,,M,,*70
$GPRMC,084437.000,A,3117.7897,N,12125.9729,E,1.9,,210610,,,A*45
$GPGGA,084438.000,3117.7906,N,12125.9727,E,1,,,-43.2,M,,M,,*75
$GPRMC,084438.000,A,3117.7906,N,12125.9727,E,2.9,,210610,,,A*4E
$GPGGA,084439.000,3117.7914,N,12125.9723,E,1,,,-41.9,M,,M,,*7A
$GPRMC,084439.000,A,3117.7914,N,12125.9723,E,2.7,,210610,,,A*46
$GPGGA,084440.000,3117.7919,N,12125.9719,E,1,,,-40.6,M,,M,,*7E
$GPRMC,084440.000,A,3117.7919,N,12125.9719,E,2.1,,210610,,,A*4A
$GPGGA,084441.000,3117.7923,N,12125.9717,E,1,,,-39.4,M,,M,,*74
$GPRMC,084441.000,A,3117.7923,N,12125.9717,E,1.1,,210610,,,A*4F
$GPGGA,084442.000,3117.7928,N,12125.9714,E,1,,,-38.3,M,,M,,*79
$GPRMC,084442.000,A,3117.7928,N,12125.9714,E,1.7,,210610,,,A*42
$GPGGA,084443.000,3117.7938,N,12125.9711,E,1,,,-37.2,M,,M,,*72
$GPRMC,084443.000,A,3117.7938,N,12125.9711,E,3.1,,210610,,,A*43
$GPGGA,084444.000,3117.7951,N,12125.9709,E,1,,,-36.2,M,,M,,*72
$GPRMC,084444.000,A,3117.7951,N,12125.9709,E,4.1,,210610,,,A*45
$GPGGA,084445.000,3117.7965,N,12125.9706,E,1,,,-35.3,M,,M,,*79
$GPRMC,084445.000,A,3117.7965,N,12125.9706,E,4.6,,210610,,,A*4B
$GPGGA,084446.000,3117.7980,N,12125.9701,E,1,,,-34.5,M,,M,,*71
$GPRMC,084446.000,A,3117.7980,N,12125.9701,E,5.2,,210610,,,A*41
$GPGGA,084447.000,3117.7996,N,12125.9695,E,1,,,-33.8,M,,M,,*71
$GPRMC,084447.000,A,3117.7996,N,12125.9695,E,5.9,,210610,,,A*40
$GPGGA,084448.000,3117.8011,N,12125.9687,E,1,,,-33.3,M,,M,,*7F
$GPRMC,084448.000,A,3117.8011,N,12125.9687,E,5.9,,210610,,,A*45
$GPGGA,084449.000,3117.8024,N,12125.9674,E,1,,,-32.9,M,,M,,*7F
$GPRMC,084449.000,A,3117.8024,N,12125.9674,E,6.6,,210610,,,A*42
$GPGGA,084450.000,3117.8031,N,12125.9661,E,1,,,-32.7,M,,M,,*79
$GPRMC,084450.000,A,3117.8031,N,12125.9661,E,5.6,,210610,,,A*49
$GPGGA,084451.000,3117.8032,N,12125.9652,E,1,,,-32.7,M,,M,,*7B
$GPRMC,084451.000,A,3117.8032,N,12125.9652,E,3.9,,210610,,,A*42
$GPGGA,084452.000,3117.8027,N,12125.9647,E,1,,,-32.5,M,,M,,*7A
$GPRMC,084452.000,A,3117.8027,N,12125.9647,E,3.1,,210610,,,A*49
$GPGGA,084453.000,3117.8022,N,12125.9649,E,1,,,-32.6,M,,M,,*73
$GPRMC,084453.000,A,3117.8022,N,12125.9649,E,1.3,,210610,,,A*43
$GPGGA,084454.000,3117.8018,N,12125.9655,E,1,,,-32.8,M,,M,,*7E
$GPRMC,084454.000,A,3117.8018,N,12125.9655,E,0.8,,210610,,,A*4A
$GPGGA,084455.000,3117.8015,N,12125.9662,E,1,,,-33.2,M,,M,,*7D
$GPRMC,084455.000,A,3117.8015,N,12125.9662,E,0.6,,210610,,,A*4C
$GPGGA,084456.000,3117.8010,N,12125.9671,E,1,,,-33.8,M,,M,,*73
$GPRMC,084456.000,A,3117.8010,N,12125.9671,E,1.2,,210610,,,A*4D
$GPGGA,084457.000,3117.7997,N,12125.9682,E,1,,,-34.5,M,,M,,*7D
$GPRMC,084457.000,A,3117.7997,N,12125.9682,E,3.2,,210610,,,A*4B
$GPGGA,084458.000,3117.7980,N,12125.9695,E,1,,,-35.4,M,,M,,*72
$GPRMC,084458.000,A,3117.7980,N,12125.9695,E,4.5,,210610,,,A*44
$GPGGA,084459.000,3117.7960,N,12125.9709,E,1,,,-36.5,M,,M,,*7B
$GPRMC,084459.000,A,3117.7960,N,12125.9709,E,5.2,,210610,,,A*49
$GPGGA,084500.000,3117.7939,N,12125.9724,E,1,,,-37.7,M,,M,,*76
$GPRMC,084500.000,A,3117.7939,N,12125.9724,E,5.7,,210610,,,A*42
$GPGGA,084501.000,3117.7919,N,12125.9739,E,1,,,-38.7,M,,M,,*76
$GPRMC,084501.000,A,3117.7919,N,12125.9739,E,5.2,,210610,,,A*48
$GPGGA,084502.000,3117.7901,N,12125.9753,E,1,,,-39.4,M,,M,,*72
$GPRMC,084502.000,A,3117.7901,N,12125.9753,E,4.5,,210610,,,A*48
$GPGGA,084503.000,3117.7885,N,12125.9768,E,1,,,-39.8,M,,M,,*7A
$GPRMC,084503.000,A,3117.7885,N,12125.9768,E,4.1,,210610,,,A*48
$GPGGA,084504.000,3117.7874,N,12125.9780,E,1,,,-40.0,M,,M,,*73
$GPRMC,084504.000,A,3117.7874,N,12125.9780,E,2.4,,210610,,,A*44
$GPGGA,084505.000,3117.7866,N,12125.9790,E,1,,,-40.1,M,,M,,*71
$GPRMC,084505.000,A,3117.7866,N,12125.9790,E,1.6,,210610,,,A*46
$GPGGA,084506.000,3117.7856,N,12125.9801,E,1,,,-40.2,M,,M,,*75
$GPRMC,084506.000,A,3117.7856,N,12125.9801,E,2.3,,210610,,,A*47
$GPGGA,084507.000,3117.7843,N,12125.9814,E,1,,,-40.0,M,,M,,*76
$GPRMC,084507.000,A,3117.7843,N,12125.9814,E,3.7,,210610,,,A*43
$GPGGA,084508.000,3117.7830,N,12125.9827,E,1,,,-39.6,M,,M,,*75
$GPRMC,084508.000,A,3117.7830,N,12125.9827,E,3.5,,210610,,,A*4A
$GPGGA,084509.000,3117.7817,N,12125.9840,E,1,,,-39.1,M,,M,,*77
$GPRMC,084509.000,A,3117.7817,N,12125.9840,E,3.8,,210610,,,A*42
$GPGGA,084510.000,3117.7806,N,12125.9848,E,1,,,-38.6,M,,M,,*71
$GPRMC,084510.000,A,3117.7806,N,12125.9848,E,2.9,,210610,,,A*42
$GPGGA,084511.000,3117.7799,N,12125.9855,E,1,,,-38.2,M,,M,,*71
$GPRMC,084511.000,A,3117.7799,N,12125.9855,E,1.7,,210610,,,A*4B
$GPGGA,084512.000,3117.7796,N,12125.9858,E,1,,,-37.7,M,,M,,*7A
$GPRMC,084512.000,A,3117.7796,N,12125.9858,E,0.5,,210610,,,A*49
$GPGGA,084513.000,3117.7796,N,12125.9860,E,1,,,-37.3,M,,M,,*74
$GPRMC,084513.000,A,3117.7796,N,12125.9860,E,0.2,,210610,,,A*44
$GPGGA,084514.000,3117.7798,N,12125.9860,E,1,,,-36.9,M,,M,,*76
$GPRMC,084514.000,A,3117.7798,N,12125.9860,E,0.6,,210610,,,A*49
$GPGGA,084515.000,3117.7803,N,12125.9859,E,1,,,-36.5,M,,M,,*7C
$GPRMC,084515.000,A,3117.7803,N,12125.9859,E,1.1,,210610,,,A*49
$GPGGA,084516.000,3117.7808,N,12125.9858,E,1,,,-36.3,M,,M,,*73
$GPRMC,084516.000,A,3117.7808,N,12125.9858,E,1.2,,210610,,,A*43
$GPGGA,084517.000,3117.7815,N,12125.9857,E,1,,,-35.9,M,,M,,*78
$GPRMC,084517.000,A,3117.7815,N,12125.9857,E,1.7,,210610,,,A*44
$GPGGA,084518.000,3117.7820,N,12125.9857,E,1,,,-35.5,M,,M,,*7D
$GPRMC,084518.000,A,3117.7820,N,12125.9857,E,1.3,,210610,,,A*49
$GPGGA,084519.000,3117.7827,N,12125.9857,E,1,,,-35.2,M,,M,,*7C
$GPRMC,084519.000,A,3117.7827,N,12125.9857,E,1.8,,210610,,,A*44
$GPGGA,084520.000,3117.7827,N,12125.9857,E,1,,,-35.2,M,,M,,*76
$GPRMC,084520.000,A,3117.7827,N,12125.9857,E,0.0,,210610,,,A*47
$GPGGA,084521.000,3117.7827,N,12125.9857,E,1,,,-35.2,M,,M,,*77
$GPRMC,084521.000,A,3117.7827,N,12125.9857,E,0.0,,210610,,,A*46
$GPGGA,084522.000,3117.7839,N,12125.9850,E,1,,,-34.1,M,,M,,*7E
$GPRMC,084522.000,A,3117.7839,N,12125.9850,E,1.9,,210610,,,A*45
$GPGGA,084523.000,3117.7833,N,12125.9848,E,1,,,-33.9,M,,M,,*73
$GPRMC,084523.000,A,3117.7833,N,12125.9848,E,2.1,,210610,,,A*4C
$GPGGA,084524.000,3117.7825,N,12125.9848,E,1,,,-33.7,M,,M,,*7D
$GPRMC,084524.000,A,3117.7825,N,12125.9848,E,2.5,,210610,,,A*48
$GPGGA,084525.000,3117.7814,N,12125.9849,E,1,,,-33.6,M,,M,,*7E
$GPRMC,084525.000,A,3117.7814,N,12125.9849,E,3.1,,210610,,,A*4F
$GPGGA,084526.000,3117.7808,N,12125.9854,E,1,,,-33.6,M,,M,,*7C
$GPRMC,084526.000,A,3117.7808,N,12125.9854,E,1.5,,210610,,,A*4B
$GPGGA,084527.000,3117.7802,N,12125.9859,E,1,,,-33.6,M,,M,,*7A
$GPRMC,084527.000,A,3117.7802,N,12125.9859,E,1.7,,210610,,,A*4F
$GPGGA,084528.000,3117.7793,N,12125.9866,E,1,,,-33.7,M,,M,,*7F
$GPRMC,084528.000,A,3117.7793,N,12125.9866,E,3.2,,210610,,,A*4C
$GPGGA,084529.000,3117.7784,N,12125.9876,E,1,,,-33.9,M,,M,,*77
$GPRMC,084529.000,A,3117.7784,N,12125.9876,E,4.0,,210610,,,A*4F
$GPGGA,084530.000,3117.7773,N,12125.9882,E,1,,,-34.0,M,,M,,*72
$GPRMC,084530.000,A,3117.7773,N,12125.9882,E,4.3,,210610,,,A*47
$GPGGA,084531.000,3117.7764,N,12125.9887,E,1,,,-34.3,M,,M,,*73
$GPRMC,084531.000,A,3117.7764,N,12125.9887,E,3.8,,210610,,,A*49
$GPGGA,084532.000,3117.7757,N,12125.9894,E,1,,,-34.5,M,,M,,*74
$GPRMC,084532.000,A,3117.7757,N,12125.9894,E,2.9,,210610,,,A*48
$GPGGA,084533.000,3117.7752,N,12125.9902,E,1,,,-34.8,M,,M,,*73
$GPRMC,084533.000,A,3117.7752,N,12125.9902,E,2.0,,210610,,,A*4B
$GPGGA,084534.000,3117.7746,N,12125.9909,E,1,,,-35.1,M,,M,,*72
$GPRMC,084534.000,A,3117.7746,N,12125.9909,E,2.2,,210610,,,A*40
$GPGGA,084535.000,3117.7743,N,12125.9917,E,1,,,-35.2,M,,M,,*7A
$GPRMC,084535.000,A,3117.7743,N,12125.9917,E,1.3,,210610,,,A*49
$GPGGA,084536.000,3117.7744,N,12125.9923,E,1,,,-35.2,M,,M,,*79
$GPRMC,084536.000,A,3117.7744,N,12125.9923,E,1.0,,210610,,,A*49
$GPGGA,084537.000,3117.7745,N,12125.9923,E,1,,,-34.9,M,,M,,*73
$GPRMC,084537.000,A,3117.7745,N,12125.9923,E,1.4,,210610,,,A*4D
$GPGGA,084538.000,3117.7747,N,12125.9922,E,1,,,-34.3,M,,M,,*75
$GPRMC,084538.000,A,3117.7747,N,12125.9922,E,2.0,,210610,,,A*46
$GPGGA,084539.000,3117.7746,N,12125.9921,E,1,,,-33.9,M,,M,,*7B
$GPRMC,084539.000,A,3117.7746,N,12125.9921,E,1.2,,210610,,,A*44
$GPGGA,084540.000,3117.7744,N,12125.9922,E,1,,,-33.8,M,,M,,*75
$GPRMC,084540.000,A,3117.7744,N,12125.9922,E,0.9,,210610,,,A*41
$GPGGA,084541.000,3117.7743,N,12125.9924,E,1,,,-33.6,M,,M,,*7B
$GPRMC,084541.000,A,3117.7743,N,12125.9924,E,0.4,,210610,,,A*4C
$GPGGA,084542.000,3117.7744,N,12125.9924,E,1,,,-33.7,M,,M,,*7E
$GPRMC,084542.000,A,3117.7744,N,12125.9924,E,1.4,,210610,,,A*49
$GPGGA,084543.000,3117.7745,N,12125.9924,E,1,,,-33.6,M,,M,,*7F
$GPRMC,084543.000,A,3117.7745,N,12125.9924,E,1.5,,210610,,,A*48
$GPGGA,084544.000,3117.7747,N,12125.9926,E,1,,,-33.3,M,,M,,*7D
$GPRMC,084544.000,A,3117.7747,N,12125.9926,E,1.4,,210610,,,A*4E
$GPGGA,084545.000,3117.7750,N,12125.9929,E,1,,,-32.7,M,,M,,*70
$GPRMC,084545.000,A,3117.7750,N,12125.9929,E,1.6,,210610,,,A*44
$GPGGA,084546.000,3117.7753,N,12125.9930,E,1,,,-31.7,M,,M,,*7B
$GPRMC,084546.000,A,3117.7753,N,12125.9930,E,1.5,,210610,,,A*4F
$GPGGA,084547.000,3117.7757,N,12125.9928,E,1,,,-30.6,M,,M,,*77
$GPRMC,084547.000,A,3117.7757,N,12125.9928,E,1.7,,210610,,,A*41
$GPGGA,084548.000,3117.7761,N,12125.9929,E,1,,,-29.3,M,,M,,*71
$GPRMC,084548.000,A,3117.7761,N,12125.9929,E,2.0,,210610,,,A*4E
$GPGGA,084549.000,3117.7763,N,12125.9929,E,1,,,-27.7,M,,M,,*78
$GPRMC,084549.000,A,3117.7763,N,12125.9929,E,1.0,,210610,,,A*4E
$GPGGA,084550.000,3117.7765,N,12125.9927,E,1,,,-26.1,M,,M,,*7F
$GPRMC,084550.000,A,3117.7765,N,12125.9927,E,1.6,,210610,,,A*48
$GPGGA,084551.000,3117.7771,N,12125.9926,E,1,,,-24.3,M,,M,,*7A
$GPRMC,084551.000,A,3117.7771,N,12125.9926,E,2.0,,210610,,,A*48
$GPGGA,084552.000,3117.7782,N,12125.9927,E,1,,,-22.4,M,,M,,*75
$GPRMC,084552.000,A,3117.7782,N,12125.9927,E,3.9,,210610,,,A*4E
$GPGGA,084553.000,3117.7799,N,12125.9928,E,1,,,-20.7,M,,M,,*70
$GPRMC,084553.000,A,3117.7799,N,12125.9928,E,5.5,,210610,,,A*40
$GPGGA,084554.000,3117.7819,N,12125.9928,E,1,,,-19.1,M,,M,,*7C
$GPRMC,084554.000,A,3117.7819,N,12125.9928,E,6.6,,210610,,,A*40
$GPGGA,084555.000,3117.7835,N,12125.9926,E,1,,,-17.7,M,,M,,*75
$GPRMC,084555.000,A,3117.7835,N,12125.9926,E,5.5,,210610,,,A*41
$GPGGA,084556.000,3117.7846,N,12125.9920,E,1,,,-16.3,M,,M,,*71
$GPRMC,084556.000,A,3117.7846,N,12125.9920,E,4.3,,210610,,,A*47
$GPGGA,084557.000,3117.7851,N,12125.9917,E,1,,,-14.8,M,,M,,*7B
$GPRMC,084557.000,A,3117.7851,N,12125.9917,E,2.0,,210610,,,A*41
$GPGGA,084558.000,3117.7855,N,12125.9919,E,1,,,-13.4,M,,M,,*75
$GPRMC,084558.000,A,3117.7855,N,12125.9919,E,1.0,,210610,,,A*47
$GPGGA,084559.000,3117.7860,N,12125.9923,E,1,,,-12.0,M,,M,,*7E
$GPRMC,084559.000,A,3117.7860,N,12125.9923,E,1.9,,210610,,,A*40
$GPGGA,084600.000,3117.7869,N,12125.9926,E,1,,,-10.4,M,,M,,*7B
$GPRMC,084600.000,A,3117.7869,N,12125.9926,E,2.4,,210610,,,A*4D
$GPGGA,084601.000,3117.7877,N,12125.9929,E,1,,,-8.8,M,,M,,*4F
$GPRMC,084601.000,A,3117.7877,N,12125.9929,E,2.5,,210610,,,A*4D
$GPGGA,084602.000,3117.7885,N,12125.9933,E,1,,,-7.2,M,,M,,*4F
$GPRMC,084602.000,A,3117.7885,N,12125.9933,E,2.2,,210610,,,A*4F
$GPGGA,084603.000,3117.7891,N,12125.9937,E,1,,,-5.5,M,,M,,*4A
$GPRMC,084603.000,A,3117.7891,N,12125.9937,E,1.6,,210610,,,A*48
$GPGGA,084604.000,3117.7896,N,12125.9939,E,1,,,-3.9,M,,M,,*4E
$GPRMC,084604.000,A,3117.7896,N,12125.9939,E,1.0,,210610,,,A*40
$GPGGA,084605.000,3117.7906,N,12125.9940,E,1,,,-2.2,M,,M,,*43
$GPRMC,084605.000,A,3117.7906,N,12125.9940,E,2.1,,210610,,,A*45
$GPGGA,084606.000,3117.7918,N,12125.9940,E,1,,,-0.8,M,,M,,*47
$GPRMC,084606.000,A,3117.7918,N,12125.9940,E,3.5,,210610,,,A*4C
$GPGGA,084607.000,3117.7933,N,12125.9939,E,1,,,0.7,M,,M,,*63
$GPRMC,084607.000,A,3117.7933,N,12125.9939,E,4.4,,210610,,,A*4C
$GPGGA,084608.000,3117.7950,N,12125.9941,E,1,,,2.3,M,,M,,*60
$GPRMC,084608.000,A,3117.7950,N,12125.9941,E,4.8,,210610,,,A*45
$GPGGA,084609.000,3117.7966,N,12125.9942,E,1,,,3.9,M,,M,,*6C
$GPRMC,084609.000,A,3117.7966,N,12125.9942,E,4.5,,210610,,,A*4F
$GPGGA,084610.000,3117.7981,N,12125.9944,E,1,,,5.5,M,,M,,*61
$GPRMC,084610.000,A,3117.7981,N,12125.9944,E,3.6,,210610,,,A*4C
$GPGGA,084611.000,3117.7993,N,12125.9947,E,1,,,7.2,M,,M,,*65
$GPRMC,084611.000,A,3117.7993,N,12125.9947,E,2.6,,210610,,,A*4C
$GPGGA,084612.000,3117.8006,N,12125.9952,E,1,,,8.9,M,,M,,*6C
$GPRMC,084612.000,A,3117.8006,N,12125.9952,E,2.8,,210610,,,A*4F
$GPGGA,084613.000,3117.8018,N,12125.9956,E,1,,,10.7,M,,M,,*51
$GPRMC,084613.000,A,3117.8018,N,12125.9956,E,2.4,,210610,,,A*49
$GPGGA,084614.000,3117.8029,N,12125.9959,E,1,,,12.6,M,,M,,*58
$GPRMC,084614.000,A,3117.8029,N,12125.9959,E,1.6,,210610,,,A*42
$GPGGA,084615.000,3117.8039,N,12125.9962,E,1,,,14.9,M,,M,,*59
$GPRMC,084615.000,A,3117.8039,N,12125.9962,E,1.0,,210610,,,A*4C
$GPGGA,084616.000,3117.8051,N,12125.9963,E,1,,,17.3,M,,M,,*5C
$GPRMC,084616.000,A,3117.8051,N,12125.9963,E,1.1,,210610,,,A*41
$GPGGA,084617.000,3117.8065,N,12125.9964,E,1,,,19.7,M,,M,,*57
$GPRMC,084617.000,A,3117.8065,N,12125.9964,E,2.3,,210610,,,A*41
$GPGGA,084618.000,3117.8081,N,12125.9967,E,1,,,22.4,M,,M,,*5A
$GPRMC,084618.000,A,3117.8081,N,12125.9967,E,2.4,,210610,,,A*40
$GPGGA,084619.000,3117.8099,N,12125.9970,E,1,,,25.5,M,,M,,*52
$GPRMC,084619.000,A,3117.8099,N,12125.9970,E,2.4,,210610,,,A*4E
$GPGGA,084620.000,3117.8118,N,12125.9973,E,1,,,28.6,M,,M,,*5D
$GPRMC,084620.000,A,3117.8118,N,12125.9973,E,2.8,,210610,,,A*43
$GPGGA,084621.000,3117.8132,N,12125.9976,E,1,,,31.4,M,,M,,*5B
$GPRMC,084621.000,A,3117.8132,N,12125.9976,E,1.7,,210610,,,A*43
$GPGGA,084622.000,3117.8143,N,12125.9978,E,1,,,33.8,M,,M,,*5E
$GPRMC,084622.000,A,3117.8143,N,12125.9978,E,0.9,,210610,,,A*47
$GPGGA,084623.000,3117.8154,N,12125.9979,E,1,,,36.1,M,,M,,*54
$GPRMC,084623.000,A,3117.8154,N,12125.9979,E,0.7,,210610,,,A*4F
$GPGGA,084624.000,3117.8165,N,12125.9978,E,1,,,38.4,M,,M,,*5B
$GPRMC,084624.000,A,3117.8165,N,12125.9978,E,1.5,,210610,,,A*48
$GPGGA,084625.000,3117.8172,N,12125.9980,E,1,,,40.5,M,,M,,*55
$GPRMC,084625.000,A,3117.8172,N,12125.9980,E,0.3,,210610,,,A*4F
$GPGGA,084626.000,3117.8178,N,12125.9981,E,1,,,42.2,M,,M,,*58
$GPRMC,084626.000,A,3117.8178,N,12125.9981,E,0.5,,210610,,,A*41
$GPGGA,084627.000,3117.8185,N,12125.9982,E,1,,,43.5,M,,M,,*5E
$GPRMC,084627.000,A,3117.8185,N,12125.9982,E,0.6,,210610,,,A*42
$GPGGA,084628.000,3117.8192,N,12125.9982,E,1,,,44.6,M,,M,,*53
$GPRMC,084628.000,A,3117.8192,N,12125.9982,E,1.3,,210610,,,A*4F
$GPGGA,084629.000,3117.8197,N,12125.9982,E,1,,,45.4,M,,M,,*54
$GPRMC,084629.000,A,3117.8197,N,12125.9982,E,0.5,,210610,,,A*4C
$GPGGA,084630.000,3117.8198,N,12125.9982,E,1,,,45.9,M,,M,,*5E
$GPRMC,084630.000,A,3117.8198,N,12125.9982,E,1.1,,210610,,,A*4E
$GPGGA,084631.000,3117.8200,N,12125.9982,E,1,,,45.9,M,,M,,*5D
$GPRMC,084631.000,A,3117.8200,N,12125.9982,E,0.5,,210610,,,A*48
$GPGGA,084632.000,3117.8199,N,12125.9982,E,1,,,45.5,M,,M,,*51
$GPRMC,084632.000,A,3117.8199,N,12125.9982,E,0.6,,210610,,,A*4B
$GPGGA,084633.000,3117.8195,N,12125.9983,E,1,,,44.5,M,,M,,*5C
$GPRMC,084633.000,A,3117.8195,N,12125.9983,E,0.9,,210610,,,A*48
$GPGGA,084634.000,3117.8190,N,12125.9985,E,1,,,43.0,M,,M,,*5A
$GPRMC,084634.000,A,3117.8190,N,12125.9985,E,1.0,,210610,,,A*44
$GPGGA,084635.000,3117.8184,N,12125.9989,E,1,,,41.0,M,,M,,*50
$GPRMC,084635.000,A,3117.8184,N,12125.9989,E,1.3,,210610,,,A*4F
$GPGGA,084636.000,3117.8177,N,12125.9995,E,1,,,39.0,M,,M,,*5D
$GPRMC,084636.000,A,3117.8177,N,12125.9995,E,1.8,,210610,,,A*46
$GPGGA,084637.000,3117.8170,N,12125.9997,E,1,,,36.9,M,,M,,*5F
$GPRMC,084637.000,A,3117.8170,N,12125.9997,E,0.9,,210610,,,A*42
$GPGGA,084638.000,3117.8161,N,12126.0000,E,1,,,35.0,M,,M,,*57
$GPRMC,084638.000,A,3117.8161,N,12126.0000,E,1.3,,210610,,,A*4B
$GPGGA,084639.000,3117.8151,N,12126.0001,E,1,,,33.1,M,,M,,*53
$GPRMC,084639.000,A,3117.8151,N,12126.0001,E,1.5,,210610,,,A*4E
$GPGGA,084640.000,3117.8141,N,12126.0001,E,1,,,31.6,M,,M,,*59
$GPRMC,084640.000,A,3117.8141,N,12126.0001,E,1.4,,210610,,,A*40
$GPGGA,084641.000,3117.8132,N,12125.9999,E,1,,,30.3,M,,M,,*5A
$GPRMC,084641.000,A,3117.8132,N,12125.9999,E,1.0,,210610,,,A*43
$GPGGA,084642.000,3117.8120,N,12125.9997,E,1,,,29.3,M,,M,,*5C
$GPRMC,084642.000,A,3117.8120,N,12125.9997,E,1.7,,210610,,,A*4A
$GPGGA,084643.000,3117.8110,N,12125.9995,E,1,,,28.5,M,,M,,*5B
$GPRMC,084643.000,A,3117.8110,N,12125.9995,E,1.1,,210610,,,A*4C
$GPGGA,084644.000,3117.8104,N,12125.9991,E,1,,,27.6,M,,M,,*51
$GPRMC,084644.000,A,3117.8104,N,12125.9991,E,0.8,,210610,,,A*42
$GPGGA,084645.000,3117.8097,N,12125.9989,E,1,,,26.9,M,,M,,*5C
$GPRMC,084645.000,A,3117.8097,N,12125.9989,E,0.3,,210610,,,A*4A
$GPGGA,084646.000,3117.8088,N,12125.9987,E,1,,,26.5,M,,M,,*53
$GPRMC,084646.000,A,3117.8088,N,12125.9987,E,0.7,,210610,,,A*4D
$GPGGA,084647.000,3117.8078,N,12125.9985,E,1,,,26.0,M,,M,,*5A
$GPRMC,084647.000,A,3117.8078,N,12125.9985,E,0.6,,210610,,,A*40
$GPGGA,084648.000,3117.8067,N,12125.9983,E,1,,,25.4,M,,M,,*5A
$GPRMC,084648.000,A,3117.8067,N,12125.9983,E,0.8,,210610,,,A*49
$GPGGA,084649.000,3117.8057,N,12125.9981,E,1,,,24.7,M,,M,,*58
$GPRMC,084649.000,A,3117.8057,N,12125.9981,E,0.3,,210610,,,A*42
$GPGGA,084701.000,3117.7946,N,12126.0000,E,1,,,20.6,M,,M,,*5C
$GPRMC,084701.000,A,3117.7946,N,12126.0000,E,0.3,,210610,,,A*43
$GPGGA,084702.000,3117.7940,N,12125.9999,E,1,,,19.9,M,,M,,*5F
$GPRMC,084702.000,A,3117.7940,N,12125.9999,E,0.7,,210610,,,A*41
$GPGGA,084703.000,3117.7933,N,12125.9999,E,1,,,19.5,M,,M,,*56
$GPRMC,084703.000,A,3117.7933,N,12125.9999,E,0.9,,210610,,,A*4A
$GPGGA,084704.000,3117.7928,N,12125.9998,E,1,,,19.1,M,,M,,*5E
$GPRMC,084704.000,A,3117.7928,N,12125.9998,E,0.8,,210610,,,A*47
$GPGGA,084705.000,3117.7927,N,12125.9999,E,1,,,18.8,M,,M,,*59
$GPRMC,084705.000,A,3117.7927,N,12125.9999,E,0.5,,210610,,,A*45
$GPGGA,084706.000,3117.7926,N,12126.0001,E,1,,,18.5,M,,M,,*54
$GPRMC,084706.000,A,3117.7926,N,12126.0001,E,0.9,,210610,,,A*49
$GPGGA,084707.000,3117.7925,N,12126.0001,E,1,,,18.2,M,,M,,*51
$GPRMC,084707.000,A,3117.7925,N,12126.0001,E,0.0,,210610,,,A*42
$GPGGA,084708.000,3117.7925,N,12126.0001,E,1,,,17.9,M,,M,,*5A
$GPRMC,084708.000,A,3117.7925,N,12126.0001,E,0.2,,210610,,,A*4F
$GPGGA,084709.000,3117.7923,N,12126.0001,E,1,,,17.5,M,,M,,*51
$GPRMC,084709.000,A,3117.7923,N,12126.0001,E,0.8,,210610,,,A*42
$GPGGA,084710.000,3117.7923,N,12126.0002,E,1,,,17.1,M,,M,,*5E
$GPRMC,084710.000,A,3117.7923,N,12126.0002,E,0.4,,210610,,,A*45
$GPGGA,084711.000,3117.7923,N,12126.0003,E,1,,,16.7,M,,M,,*59
$GPRMC,084711.000,A,3117.7923,N,12126.0003,E,0.4,,210610,,,A*45
$GPGGA,084712.000,3117.7926,N,12126.0002,E,1,,,16.3,M,,M,,*5A
$GPRMC,084712.000,A,3117.7926,N,12126.0002,E,1.0,,210610,,,A*47
$GPGGA,084713.000,3117.7928,N,12126.0000,E,1,,,15.8,M,,M,,*5F
$GPRMC,084713.000,A,3117.7928,N,12126.0000,E,0.9,,210610,,,A*42
$GPGGA,084714.000,3117.7924,N,12125.9996,E,1,,,15.2,M,,M,,*52
$GPRMC,084714.000,A,3117.7924,N,12125.9996,E,1.5,,210610,,,A*48
$GPGGA,084715.000,3117.7918,N,12125.9992,E,1,,,14.6,M,,M,,*5D
$GPRMC,084715.000,A,3117.7918,N,12125.9992,E,2.1,,210610,,,A*45
$GPGGA,084716.000,3117.7913,N,12125.9988,E,1,,,14.0,M,,M,,*58
$GPRMC,084716.000,A,3117.7913,N,12125.9988,E,1.9,,210610,,,A*4D
$GPGGA,084717.000,3117.7904,N,12125.9987,E,1,,,13.6,M,,M,,*51
$GPRMC,084717.000,A,3117.7904,N,12125.9987,E,3.1,,210610,,,A*4F
$GPGGA,084718.000,3117.7898,N,12125.9983,E,1,,,12.9,M,,M,,*50
$GPRMC,084718.000,A,3117.7898,N,12125.9983,E,2.1,,210610,,,A*41
$GPGGA,084719.000,3117.7898,N,12125.9980,E,1,,,12.0,M,,M,,*5B
$GPRMC,084719.000,A,3117.7898,N,12125.9980,E,0.5,,210610,,,A*45
$GPGGA,084720.000,3117.7902,N,12125.9975,E,1,,,11.1,M,,M,,*5B
$GPRMC,084720.000,A,3117.7902,N,12125.9975,E,1.8,,210610,,,A*4B
$GPGGA,084721.000,3117.7904,N,12125.9972,E,1,,,10.1,M,,M,,*5A
$GPRMC,084721.000,A,3117.7904,N,12125.9972,E,0.9,,210610,,,A*4B
$GPGGA,084722.000,3117.7902,N,12125.9969,E,1,,,9.1,M,,M,,*6D
$GPRMC,084722.000,A,3117.7902,N,12125.9969,E,0.3,,210610,,,A*4E
$GPGGA,084723.000,3117.7902,N,12125.9966,E,1,,,8.0,M,,M,,*63
$GPRMC,084723.000,A,3117.7902,N,12125.9966,E,0.2,,210610,,,A*41
$GPGGA,084724.000,3117.7902,N,12125.9962,E,1,,,7.0,M,,M,,*6F
$GPRMC,084724.000,A,3117.7902,N,12125.9962,E,0.5,,210610,,,A*45
$GPGGA,084725.000,3117.7897,N,12125.9959,E,1,,,6.1,M,,M,,*6B
$GPRMC,084725.000,A,3117.7897,N,12125.9959,E,1.4,,210610,,,A*41
$GPGGA,084726.000,3117.7891,N,12125.9959,E,1,,,5.5,M,,M,,*69
$GPRMC,084726.000,A,3117.7891,N,12125.9959,E,1.7,,210610,,,A*47
$GPGGA,084727.000,3117.7890,N,12125.9954,E,1,,,4.8,M,,M,,*68
$GPRMC,084727.000,A,3117.7890,N,12125.9954,E,0.8,,210610,,,A*44
$GPGGA,084728.000,3117.7887,N,12125.9950,E,1,,,4.0,M,,M,,*6D
$GPRMC,084728.000,A,3117.7887,N,12125.9950,E,0.5,,210610,,,A*44
$GPGGA,084729.000,3117.7882,N,12125.9949,E,1,,,3.2,M,,M,,*64
$GPRMC,084729.000,A,3117.7882,N,12125.9949,E,0.8,,210610,,,A*45
$GPGGA,084730.000,3117.7877,N,12125.9947,E,1,,,2.5,M,,M,,*6E
$GPRMC,084730.000,A,3117.7877,N,12125.9947,E,1.0,,210610,,,A*40
$GPGGA,084731.000,3117.7869,N,12125.9945,E,1,,,1.9,M,,M,,*6D
$GPRMC,084731.000,A,3117.7869,N,12125.9945,E,1.9,,210610,,,A*45
$GPGGA,084732.000,3117.7861,N,12125.9943,E,1,,,1.6,M,,M,,*6F
$GPRMC,084732.000,A,3117.7861,N,12125.9943,E,1.7,,210610,,,A*46
$GPGGA,084733.000,3117.7853,N,12125.9945,E,1,,,1.5,M,,M,,*6A
$GPRMC,084733.000,A,3117.7853,N,12125.9945,E,1.7,,210610,,,A*40
$GPGGA,084734.000,3117.7843,N,12125.9946,E,1,,,1.1,M,,M,,*6B
$GPRMC,084734.000,A,3117.7843,N,12125.9946,E,2.4,,210610,,,A*45
$GPGGA,084735.000,3117.7836,N,12125.9947,E,1,,,0.5,M,,M,,*6C
$GPRMC,084735.000,A,3117.7836,N,12125.9947,E,1.2,,210610,,,A*42
$GPGGA,084736.000,3117.7831,N,12125.9947,E,1,,,0.1,M,,M,,*6C
$GPRMC,084736.000,A,3117.7831,N,12125.9947,E,0.7,,210610,,,A*42
$GPGGA,084737.000,3117.7826,N,12125.9947,E,1,,,-0.3,M,,M,,*44
$GPRMC,084737.000,A,3117.7826,N,12125.9947,E,0.6,,210610,,,A*44
$GPGGA,084738.000,3117.7820,N,12125.9948,E,1,,,-0.7,M,,M,,*46
$GPRMC,084738.000,A,3117.7820,N,12125.9948,E,1.1,,210610,,,A*44
$GPGGA,084739.000,3117.7818,N,12125.9954,E,1,,,-0.9,M,,M,,*4F
$GPRMC,084739.000,A,3117.7818,N,12125.9954,E,1.8,,210610,,,A*4A
$GPGGA,084740.000,3117.7818,N,12125.9956,E,1,,,-1.0,M,,M,,*4B
$GPRMC,084740.000,A,3117.7818,N,12125.9956,E,1.7,,210610,,,A*49
$GPGGA,084741.000,3117.7815,N,12125.9959,E,1,,,-0.9,M,,M,,*40
$GPRMC,084741.000,A,3117.7815,N,12125.9959,E,0.9,,210610,,,A*45
$GPGGA,084742.000,3117.7808,N,12125.9962,E,1,,,-0.6,M,,M,,*48
$GPRMC,084742.000,A,3117.7808,N,12125.9962,E,1.8,,210610,,,A*42
$GPGGA,084743.000,3117.7802,N,12125.9965,E,1,,,-0.3,M,,M,,*41
$GPRMC,084743.000,A,3117.7802,N,12125.9965,E,1.4,,210610,,,A*42
$GPGGA,084744.000,3117.7796,N,12125.9967,E,1,,,-0.3,M,,M,,*46
$GPRMC,084744.000,A,3117.7796,N,12125.9967,E,1.3,,210610,,,A*42
$GPGGA,084745.000,3117.7789,N,12125.9965,E,1,,,-0.5,M,,M,,*4D
$GPRMC,084745.000,A,3117.7789,N,12125.9965,E,1.4,,210610,,,A*48
$GPGGA,084746.000,3117.7784,N,12125.9962,E,1,,,-1.0,M,,M,,*40
$GPRMC,084746.000,A,3117.7784,N,12125.9962,E,1.3,,210610,,,A*46
$GPGGA,084747.000,3117.7780,N,12125.9954,E,1,,,-1.8,M,,M,,*48
$GPRMC,084747.000,A,3117.7780,N,12125.9954,E,2.2,,210610,,,A*44
$GPGGA,084748.000,3117.7779,N,12125.9946,E,1,,,-3.0,M,,M,,*48
$GPRMC,084748.000,A,3117.7779,N,12125.9946,E,2.2,,210610,,,A*4E
$GPGGA,084749.000,3117.7774,N,12125.9939,E,1,,,-4.4,M,,M,,*4F
$GPRMC,084749.000,A,3117.7774,N,12125.9939,E,2.1,,210610,,,A*49
$GPGGA,084750.000,3117.7767,N,12125.9935,E,1,,,-6.2,M,,M,,*4D
$GPRMC,084750.000,A,3117.7767,N,12125.9935,E,2.3,,210610,,,A*4D
$GPGGA,084751.000,3117.7761,N,12125.9934,E,1,,,-8.2,M,,M,,*45
$GPRMC,084751.000,A,3117.7761,N,12125.9934,E,1.9,,210610,,,A*42
$GPGGA,084752.000,3117.7759,N,12125.9933,E,1,,,-10.5,M,,M,,*74
$GPRMC,084752.000,A,3117.7759,N,12125.9933,E,0.3,,210610,,,A*46
$GPGGA,084753.000,3117.7756,N,12125.9934,E,1,,,-12.8,M,,M,,*72
$GPRMC,084753.000,A,3117.7756,N,12125.9934,E,1.2,,210610,,,A*4F
$GPGGA,084754.000,3117.7749,N,12125.9937,E,1,,,-15.2,M,,M,,*75
$GPRMC,084754.000,A,3117.7749,N,12125.9937,E,2.5,,210610,,,A*41
$GPGGA,084755.000,3117.7743,N,12125.9939,E,1,,,-17.6,M,,M,,*76
$GPRMC,084755.000,A,3117.7743,N,12125.9939,E,2.3,,210610,,,A*42
$GPGGA,084756.000,3117.7741,N,12125.9942,E,1,,,-19.9,M,,M,,*7A
$GPRMC,084756.000,A,3117.7741,N,12125.9942,E,1.5,,210610,,,A*4A
$GPGGA,084757.000,3117.7738,N,12125.9945,E,1,,,-22.1,M,,M,,*72
$GPRMC,084757.000,A,3117.7738,N,12125.9945,E,1.6,,210610,,,A*41
$GPGGA,084758.000,3117.7735,N,12125.9949,E,1,,,-24.3,M,,M,,*78
$GPRMC,084758.000,A,3117.7735,N,12125.9949,E,1.8,,210610,,,A*41
$GPGGA,084759.000,3117.7734,N,12125.9953,E,1,,,-26.5,M,,M,,*77
$GPRMC,084759.000,A,3117.7734,N,12125.9953,E,1.7,,210610,,,A*45
$GPGGA,084800.000,3117.7736,N,12125.9954,E,1,,,-28.6,M,,M,,*7C
$GPRMC,084800.000,A,3117.7736,N,12125.9954,E,0.3,,210610,,,A*46
$GPGGA,084801.000,3117.7740,N,12125.9950,E,1,,,-30.8,M,,M,,*7F
$GPRMC,084801.000,A,3117.7740,N,12125.9950,E,1.0,,210610,,,A*40
$GPGGA,084802.000,3117.7744,N,12125.9947,E,1,,,-33.2,M,,M,,*77
$GPRMC,084802.000,A,3117.7744,N,12125.9947,E,0.6,,210610,,,A*46
$GPGGA,084803.000,3117.7744,N,12125.9948,E,1,,,-35.8,M,,M,,*75
$GPRMC,084803.000,A,3117.7744,N,12125.9948,E,1.7,,210610,,,A*48
$GPGGA,084804.000,3117.7743,N,12125.9950,E,1,,,-38.5,M,,M,,*7C
$GPRMC,084804.000,A,3117.7743,N,12125.9950,E,2.2,,210610,,,A*47
$GPGGA,084805.000,3117.7744,N,12125.9951,E,1,,,-41.4,M,,M,,*74
$GPRMC,084805.000,A,3117.7744,N,12125.9951,E,1.7,,210610,,,A*46
$GPGGA,084806.000,3117.7748,N,12125.9952,E,1,,,-44.3,M,,M,,*7A
$GPRMC,084806.000,A,3117.7748,N,12125.9952,E,1.0,,210610,,,A*4D
$GPGGA,084807.000,3117.7750,N,12125.9954,E,1,,,-46.8,M,,M,,*7D
$GPRMC,084807.000,A,3117.7750,N,12125.9954,E,1.4,,210610,,,A*47
$GPGGA,084808.000,3117.7754,N,12125.9956,E,1,,,-49.2,M,,M,,*71
$GPRMC,084808.000,A,3117.7754,N,12125.9956,E,0.9,,210610,,,A*42
$GPGGA,084809.000,3117.7759,N,12125.9958,E,1,,,-51.4,M,,M,,*7C
$GPRMC,084809.000,A,3117.7759,N,12125.9958,E,0.7,,210610,,,A*4E
$GPGGA,084810.000,3117.7765,N,12125.9960,E,1,,,-53.5,M,,M,,*73
$GPRMC,084810.000,A,3117.7765,N,12125.9960,E,0.6,,210610,,,A*43
$GPGGA,084811.000,3117.7769,N,12125.9965,E,1,,,-55.6,M,,M,,*7E
$GPRMC,084811.000,A,3117.7769,N,12125.9965,E,1.6,,210610,,,A*4A
$GPGGA,084812.000,3117.7774,N,12125.9971,E,1,,,-57.7,M,,M,,*77
$GPRMC,084812.000,A,3117.7774,N,12125.9971,E,1.4,,210610,,,A*42
$GPGGA,084813.000,3117.7779,N,12125.9971,E,1,,,-59.8,M,,M,,*7A
$GPRMC,084813.000,A,3117.7779,N,12125.9971,E,0.5,,210610,,,A*4E
$GPGGA,084814.000,3117.7781,N,12125.9973,E,1,,,-62.0,M,,M,,*78
$GPRMC,084814.000,A,3117.7781,N,12125.9973,E,0.8,,210610,,,A*41
$GPGGA,084815.000,3117.7783,N,12125.9976,E,1,,,-64.4,M,,M,,*7C
$GPRMC,084815.000,A,3117.7783,N,12125.9976,E,1.1,,210610,,,A*4F
$GPGGA,084816.000,3117.7787,N,12125.9979,E,1,,,-67.1,M,,M,,*72
$GPRMC,084816.000,A,3117.7787,N,12125.9979,E,0.1,,210610,,,A*46
$GPGGA,084817.000,3117.7788,N,12125.9983,E,1,,,-70.0,M,,M,,*7E
$GPRMC,084817.000,A,3117.7788,N,12125.9983,E,0.6,,210610,,,A*4A
$GPGGA,084818.000,3117.7787,N,12125.9993,E,1,,,-73.0,M,,M,,*7C
$GPRMC,084818.000,A,3117.7787,N,12125.9993,E,2.1,,210610,,,A*4E
$GPGGA,084819.000,3117.7784,N,12126.0002,E,1,,,-75.7,M,,M,,*74
$GPRMC,084819.000,A,3117.7784,N,12126.0002,E,2.5,,210610,,,A*43
$GPGGA,084820.000,3117.7781,N,12126.0011,E,1,,,-78.5,M,,M,,*76
$GPRMC,084820.000,A,3117.7781,N,12126.0011,E,2.5,,210610,,,A*4E
$GPGGA,084821.000,3117.7778,N,12126.0019,E,1,,,-81.5,M,,M,,*7F
$GPRMC,084821.000,A,3117.7778,N,12126.0019,E,1.8,,210610,,,A*4F
$GPGGA,084822.000,3117.7774,N,12126.0027,E,1,,,-84.8,M,,M,,*75
$GPRMC,084822.000,A,3117.7774,N,12126.0027,E,2.2,,210610,,,A*44
$GPGGA,084823.000,3117.7772,N,12126.0034,E,1,,,-88.2,M,,M,,*76
$GPRMC,084823.000,A,3117.7772,N,12126.0034,E,1.5,,210610,,,A*45
$GPGGA,084824.000,3117.7771,N,12126.0044,E,1,,,-91.7,M,,M,,*78
$GPRMC,084824.000,A,3117.7771,N,12126.0044,E,2.0,,210610,,,A*40
$GPGGA,084825.000,3117.7768,N,12126.0054,E,1,,,-95.2,M,,M,,*71
$GPRMC,084825.000,A,3117.7768,N,12126.0054,E,2.2,,210610,,,A*4A
$GPGGA,084826.000,3117.7765,N,12126.0065,E,1,,,-98.8,M,,M,,*7A
$GPRMC,084826.000,A,3117.7765,N,12126.0065,E,2.7,,210610,,,A*43
$GPGGA,084827.000,3117.7764,N,12126.0075,E,1,,,-102.4,M,,M,,*45
$GPRMC,084827.000,A,3117.7764,N,12126.0075,E,2.4,,210610,,,A*41
$GPGGA,084828.000,3117.7759,N,12126.0082,E,1,,,-105.8,M,,M,,*47
$GPRMC,084828.000,A,3117.7759,N,12126.0082,E,3.3,,210610,,,A*4E
$GPGGA,084829.000,3117.7755,N,12126.0089,E,1,,,-109.2,M,,M,,*47
$GPRMC,084829.000,A,3117.7755,N,12126.0089,E,2.8,,210610,,,A*42
$GPGGA,084830.000,3117.7755,N,12126.0093,E,1,,,-112.6,M,,M,,*4A
$GPRMC,084830.000,A,3117.7755,N,12126.0093,E,1.5,,210610,,,A*4F
$GPGGA,084831.000,3117.7758,N,12126.0095,E,1,,,-115.9,M,,M,,*48
$GPRMC,084831.000,A,3117.7758,N,12126.0095,E,0.3,,210610,,,A*42
$GPGGA,084832.000,3117.7762,N,12126.0095,E,1,,,-119.1,M,,M,,*46
$GPRMC,084832.000,A,3117.7762,N,12126.0095,E,0.7,,210610,,,A*4C
$GPGGA,084833.000,3117.7764,N,12126.0094,E,1,,,-122.3,M,,M,,*4A
$GPRMC,084833.000,A,3117.7764,N,12126.0094,E,1.6,,210610,,,A*4A
$GPGGA,084834.000,3117.7766,N,12126.0094,E,1,,,-125.7,M,,M,,*4C
$GPRMC,084834.000,A,3117.7766,N,12126.0094,E,1.3,,210610,,,A*4A
$GPGGA,084835.000,3117.7766,N,12126.0097,E,1,,,-128.8,M,,M,,*4C
$GPRMC,084835.000,A,3117.7766,N,12126.0097,E,1.7,,210610,,,A*4C
$GPGGA,084836.000,3117.7765,N,12126.0105,E,1,,,-131.9,M,,M,,*4F
$GPRMC,084836.000,A,3117.7765,N,12126.0105,E,2.3,,210610,,,A*41
$GPGGA,084837.000,3117.7767,N,12126.0114,E,1,,,-134.9,M,,M,,*49
$GPRMC,084837.000,A,3117.7767,N,12126.0114,E,1.7,,210610,,,A*45
$GPGGA,084838.000,3117.7770,N,12126.0122,E,1,,,-137.7,M,,M,,*48
$GPRMC,084838.000,A,3117.7770,N,12126.0122,E,1.5,,210610,,,A*4B
$GPGGA,084839.000,3117.7772,N,12126.0130,E,1,,,-140.6,M,,M,,*49
$GPRMC,084839.000,A,3117.7772,N,12126.0130,E,1.4,,210610,,,A*4A
$GPGGA,084840.000,3117.7773,N,12126.0138,E,1,,,-143.2,M,,M,,*49
$GPRMC,084840.000,A,3117.7773,N,12126.0138,E,1.7,,210610,,,A*4E
$GPGGA,084841.000,3117.7772,N,12126.0144,E,1,,,-145.6,M,,M,,*40
$GPRMC,084841.000,A,3117.7772,N,12126.0144,E,2.1,,210610,,,A*40
$GPGGA,084842.000,3117.7774,N,12126.0149,E,1,,,-147.8,M,,M,,*44
$GPRMC,084842.000,A,3117.7774,N,12126.0149,E,0.6,,210610,,,A*4D
$GPGGA,084843.000,3117.7775,N,12126.0151,E,1,,,-150.0,M,,M,,*43
$GPRMC,084843.000,A,3117.7775,N,12126.0151,E,1.4,,210610,,,A*47
$GPGGA,084844.000,3117.7778,N,12126.0151,E,1,,,-152.1,M,,M,,*4A
$GPRMC,084844.000,A,3117.7778,N,12126.0151,E,1.3,,210610,,,A*4A
$GPGGA,084845.000,3117.7785,N,12126.0151,E,1,,,-153.8,M,,M,,*41
$GPRMC,084845.000,A,3117.7785,N,12126.0151,E,1.6,,210610,,,A*4C
$GPGGA,084846.000,3117.7794,N,12126.0153,E,1,,,-155.2,M,,M,,*4C
$GPRMC,084846.000,A,3117.7794,N,12126.0153,E,1.8,,210610,,,A*43
$GPGGA,084847.000,3117.7800,N,12126.0155,E,1,,,-156.0,M,,M,,*48
$GPRMC,084847.000,A,3117.7800,N,12126.0155,E,0.6,,210610,,,A*49
$GPGGA,084848.000,3117.7800,N,12126.0159,E,1,,,-156.3,M,,M,,*48
$GPRMC,084848.000,A,3117.7800,N,12126.0159,E,1.6,,210610,,,A*4B
$GPGGA,084849.000,3117.7799,N,12126.0170,E,1,,,-156.4,M,,M,,*4A
$GPRMC,084849.000,A,3117.7799,N,12126.0170,E,3.0,,210610,,,A*4A
$GPGGA,084850.000,3117.7802,N,12126.0184,E,1,,,-156.2,M,,M,,*42
$GPRMC,084850.000,A,3117.7802,N,12126.0184,E,3.3,,210610,,,A*47
$GPGGA,084851.000,3117.7809,N,12126.0193,E,1,,,-155.8,M,,M,,*47
$GPRMC,084851.000,A,3117.7809,N,12126.0193,E,1.8,,210610,,,A*42
$GPGGA,084852.000,3117.7814,N,12126.0200,E,1,,,-155.2,M,,M,,*4B
$GPRMC,084852.000,A,3117.7814,N,12126.0200,E,1.2,,210610,,,A*4E
$GPGGA,084853.000,3117.7814,N,12126.0205,E,1,,,-154.5,M,,M,,*49
$GPRMC,084853.000,A,3117.7814,N,12126.0205,E,1.4,,210610,,,A*4C
$GPGGA,084854.000,3117.7814,N,12126.0214,E,1,,,-153.6,M,,M,,*4A
$GPRMC,084854.000,A,3117.7814,N,12126.0214,E,1.9,,210610,,,A*46
$GPGGA,084855.000,3117.7812,N,12126.0222,E,1,,,-152.7,M,,M,,*48
$GPRMC,084855.000,A,3117.7812,N,12126.0222,E,2.4,,210610,,,A*4A
$GPGGA,084856.000,3117.7805,N,12126.0229,E,1,,,-151.6,M,,M,,*44
$GPRMC,084856.000,A,3117.7805,N,12126.0229,E,3.6,,210610,,,A*47
$GPGGA,084857.000,3117.7800,N,12126.0235,E,1,,,-150.3,M,,M,,*49
$GPRMC,084857.000,A,3117.7800,N,12126.0235,E,3.1,,210610,,,A*49
$GPGGA,084858.000,3117.7796,N,12126.0241,E,1,,,-148.8,M,,M,,*47
$GPRMC,084858.000,A,3117.7796,N,12126.0241,E,2.8,,210610,,,A*4D
$GPGGA,084859.000,3117.7792,N,12126.0248,E,1,,,-146.9,M,,M,,*44
$GPRMC,084859.000,A,3117.7792,N,12126.0248,E,2.6,,210610,,,A*4F
$GPGGA,084900.000,3117.7792,N,12126.0251,E,1,,,-144.8,M,,M,,*42
$GPRMC,084900.000,A,3117.7792,N,12126.0251,E,1.2,,210610,,,A*4D
$GPGGA,084901.000,3117.7796,N,12126.0253,E,1,,,-142.3,M,,M,,*48
$GPRMC,084901.000,A,3117.7796,N,12126.0253,E,0.6,,210610,,,A*4F
$GPGGA,084902.000,3117.7802,N,12126.0252,E,1,,,-139.9,M,,M,,*4E
$GPRMC,084902.000,A,3117.7802,N,12126.0252,E,1.0,,210610,,,A*48
$GPGGA,084903.000,3117.7812,N,12126.0249,E,1,,,-137.7,M,,M,,*44
$GPRMC,084903.000,A,3117.7812,N,12126.0249,E,2.2,,210610,,,A*43
$GPGGA,084904.000,3117.7825,N,12126.0246,E,1,,,-135.5,M,,M,,*48
$GPRMC,084904.000,A,3117.7825,N,12126.0246,E,3.0,,210610,,,A*4C
$GPGGA,084905.000,3117.7835,N,12126.0241,E,1,,,-133.6,M,,M,,*4A
$GPRMC,084905.000,A,3117.7835,N,12126.0241,E,2.8,,210610,,,A*42
$GPGGA,084906.000,3117.7844,N,12126.0236,E,1,,,-132.0,M,,M,,*48
$GPRMC,084906.000,A,3117.7844,N,12126.0236,E,2.4,,210610,,,A*4B
$GPGGA,084907.000,3117.7855,N,12126.0233,E,1,,,-130.5,M,,M,,*4B
$GPRMC,084907.000,A,3117.7855,N,12126.0233,E,2.5,,210610,,,A*4E
$GPGGA,084908.000,3117.7861,N,12126.0233,E,1,,,-129.1,M,,M,,*4F
$GPRMC,084908.000,A,3117.7861,N,12126.0233,E,0.3,,210610,,,A*42
$GPGGA,084909.000,3117.7863,N,12126.0236,E,1,,,-127.9,M,,M,,*4F
$GPRMC,084909.000,A,3117.7863,N,12126.0236,E,1.1,,210610,,,A*47
$GPGGA,084910.000,3117.7869,N,12126.0236,E,1,,,-127.0,M,,M,,*44
$GPRMC,084910.000,A,3117.7869,N,12126.0236,E,0.7,,210610,,,A*42
$GPGGA,084911.000,3117.7880,N,12126.0236,E,1,,,-126.3,M,,M,,*40
$GPRMC,084911.000,A,3117.7880,N,12126.0236,E,2.1,,210610,,,A*40
$GPGGA,084912.000,3117.7888,N,12126.0234,E,1,,,-126.0,M,,M,,*4A
$GPRMC,084912.000,A,3117.7888,N,12126.0234,E,1.3,,210610,,,A*48
$GPGGA,084913.000,3117.7895,N,12126.0231,E,1,,,-126.1,M,,M,,*43
$GPRMC,084913.000,A,3117.7895,N,12126.0231,E,1.4,,210610,,,A*47
$GPGGA,084914.000,3117.7903,N,12126.0226,E,1,,,-126.5,M,,M,,*48
$GPRMC,084914.000,A,3117.7903,N,12126.0226,E,2.1,,210610,,,A*4E
$GPGGA,084915.000,3117.7910,N,12126.0225,E,1,,,-127.1,M,,M,,*4D
$GPRMC,084915.000,A,3117.7910,N,12126.0225,E,0.8,,210610,,,A*45
$GPGGA,084916.000,3117.7917,N,12126.0223,E,1,,,-128.0,M,,M,,*41
$GPRMC,084916.000,A,3117.7917,N,12126.0223,E,0.7,,210610,,,A*48
$GPGGA,084917.000,3117.7923,N,12126.0221,E,1,,,-129.3,M,,M,,*47
$GPRMC,084917.000,A,3117.7923,N,12126.0221,E,0.7,,210610,,,A*4C
$GPGGA,084918.000,3117.7928,N,12126.0223,E,1,,,-130.8,M,,M,,*42
$GPRMC,084918.000,A,3117.7928,N,12126.0223,E,0.9,,210610,,,A*44
$GPGGA,084919.000,3117.7931,N,12126.0226,E,1,,,-132.4,M,,M,,*40
$GPRMC,084919.000,A,3117.7931,N,12126.0226,E,1.4,,210610,,,A*44
$GPGGA,084920.000,3117.7936,N,12126.0227,E,1,,,-134.2,M,,M,,*4C
$GPRMC,084920.000,A,3117.7936,N,12126.0227,E,0.7,,210610,,,A*4A
$GPGGA,084921.000,3117.7940,N,12126.0226,E,1,,,-136.1,M,,M,,*4C
$GPRMC,084921.000,A,3117.7940,N,12126.0226,E,0.9,,210610,,,A*45
$GPGGA,084922.000,3117.7944,N,12126.0224,E,1,,,-138.0,M,,M,,*46
$GPRMC,084922.000,A,3117.7944,N,12126.0224,E,1.0,,210610,,,A*48
$GPGGA,084923.000,3117.7951,N,12126.0220,E,1,,,-139.9,M,,M,,*4F
$GPRMC,084923.000,A,3117.7951,N,12126.0220,E,0.2,,210610,,,A*4A
$GPGGA,084924.000,3117.7957,N,12126.0213,E,1,,,-141.6,M,,M,,*4E
$GPRMC,084924.000,A,3117.7957,N,12126.0213,E,0.9,,210610,,,A*40
$GPGGA,084925.000,3117.7965,N,12126.0206,E,1,,,-143.4,M,,M,,*4A
$GPRMC,084925.000,A,3117.7965,N,12126.0206,E,1.0,,210610,,,A*4C
$GPGGA,084926.000,3117.7975,N,12126.0199,E,1,,,-145.2,M,,M,,*4D
$GPRMC,084926.000,A,3117.7975,N,12126.0199,E,1.5,,210610,,,A*4E
$GPGGA,084927.000,3117.7985,N,12126.0189,E,1,,,-146.9,M,,M,,*4A
$GPRMC,084927.000,A,3117.7985,N,12126.0189,E,2.1,,210610,,,A*46
$GPGGA,084928.000,3117.7997,N,12126.0178,E,1,,,-148.6,M,,M,,*49
$GPRMC,084928.000,A,3117.7997,N,12126.0178,E,2.8,,210610,,,A*4D
$GPGGA,084929.000,3117.8011,N,12126.0169,E,1,,,-150.3,M,,M,,*4C
$GPRMC,084929.000,A,3117.8011,N,12126.0169,E,3.3,,210610,,,A*4E
$GPGGA,084930.000,3117.8027,N,12126.0160,E,1,,,-152.0,M,,M,,*49
$GPRMC,084930.000,A,3117.8027,N,12126.0160,E,3.6,,210610,,,A*4F
$GPGGA,084931.000,3117.8042,N,12126.0153,E,1,,,-153.7,M,,M,,*4D
$GPRMC,084931.000,A,3117.8042,N,12126.0153,E,3.2,,210610,,,A*49
$GPGGA,084932.000,3117.8055,N,12126.0145,E,1,,,-155.4,M,,M,,*4A
$GPRMC,084932.000,A,3117.8055,N,12126.0145,E,2.8,,210610,,,A*40
$GPGGA,084933.000,3117.8069,N,12126.0139,E,1,,,-157.1,M,,M,,*48
$GPRMC,084933.000,A,3117.8069,N,12126.0139,E,2.7,,210610,,,A*4A
$GPGGA,084934.000,3117.8082,N,12126.0134,E,1,,,-158.7,M,,M,,*4E
$GPRMC,084934.000,A,3117.8082,N,12126.0134,E,2.2,,210610,,,A*40
$GPGGA,084935.000,3117.8095,N,12126.0127,E,1,,,-160.2,M,,M,,*45
$GPRMC,084935.000,A,3117.8095,N,12126.0127,E,2.5,,210610,,,A*42
$GPGGA,084936.000,3117.8108,N,12126.0118,E,1,,,-161.5,M,,M,,*49
$GPRMC,084936.000,A,3117.8108,N,12126.0118,E,3.0,,210610,,,A*4C
$GPGGA,084937.000,3117.8123,N,12126.0109,E,1,,,-162.9,M,,M,,*4E
$GPRMC,084937.000,A,3117.8123,N,12126.0109,E,3.0,,210610,,,A*44
$GPGGA,084938.000,3117.8137,N,12126.0102,E,1,,,-164.3,M,,M,,*43
$GPRMC,084938.000,A,3117.8137,N,12126.0102,E,2.7,,210610,,,A*43
$GPGGA,084939.000,3117.8149,N,12126.0099,E,1,,,-165.8,M,,M,,*42
$GPRMC,084939.000,A,3117.8149,N,12126.0099,E,1.4,,210610,,,A*48
$GPGGA,084940.000,3117.8159,N,12126.0097,E,1,,,-167.2,M,,M,,*4B
$GPRMC,084940.000,A,3117.8159,N,12126.0097,E,1.2,,210610,,,A*4F
$GPGGA,084941.000,3117.8167,N,12126.0095,E,1,,,-168.6,M,,M,,*4E
$GPRMC,084941.000,A,3117.8167,N,12126.0095,E,0.6,,210610,,,A*44
$GPGGA,084942.000,3117.8172,N,12126.0090,E,1,,,-169.9,M,,M,,*42
$GPRMC,084942.000,A,3117.8172,N,12126.0090,E,0.5,,210610,,,A*45
$GPGGA,084943.000,3117.8177,N,12126.0086,E,1,,,-171.0,M,,M,,*41
$GPRMC,084943.000,A,3117.8177,N,12126.0086,E,0.5,,210610,,,A*46
$GPGGA,084944.000,3117.8184,N,12126.0082,E,1,,,-171.7,M,,M,,*49
$GPRMC,084944.000,A,3117.8184,N,12126.0082,E,0.2,,210610,,,A*4E
$GPGGA,084945.000,3117.8189,N,12126.0078,E,1,,,-172.2,M,,M,,*46
$GPRMC,084945.000,A,3117.8189,N,12126.0078,E,0.4,,210610,,,A*41
$GPGGA,084946.000,3117.8195,N,12126.0072,E,1,,,-172.7,M,,M,,*47
$GPRMC,084946.000,A,3117.8195,N,12126.0072,E,0.6,,210610,,,A*47
$GPGGA,084947.000,3117.8202,N,12126.0065,E,1,,,-173.0,M,,M,,*4B
$GPRMC,084947.000,A,3117.8202,N,12126.0065,E,1.4,,210610,,,A*4E
$GPGGA,084948.000,3117.8210,N,12126.0058,E,1,,,-173.3,M,,M,,*4A
$GPRMC,084948.000,A,3117.8210,N,12126.0058,E,1.6,,210610,,,A*4E
$GPGGA,084949.000,3117.8215,N,12126.0052,E,1,,,-173.3,M,,M,,*44
$GPRMC,084949.000,A,3117.8215,N,12126.0052,E,0.8,,210610,,,A*4F
$GPGGA,084950.000,3117.8218,N,12126.0051,E,1,,,-173.1,M,,M,,*40
$GPRMC,084950.000,A,3117.8218,N,12126.0051,E,1.2,,210610,,,A*42
$GPGGA,084951.000,3117.8219,N,12126.0050,E,1,,,-172.6,M,,M,,*47
$GPRMC,084951.000,A,3117.8219,N,12126.0050,E,1.3,,210610,,,A*42
$GPGGA,084952.000,3117.8217,N,12126.0046,E,1,,,-171.8,M,,M,,*40
$GPRMC,084952.000,A,3117.8217,N,12126.0046,E,1.7,,210610,,,A*4C
$GPGGA,084953.000,3117.8212,N,12126.0045,E,1,,,-170.9,M,,M,,*47
$GPRMC,084953.000,A,3117.8212,N,12126.0045,E,3.1,,210610,,,A*4F
$GPGGA,084954.000,3117.8206,N,12126.0042,E,1,,,-170.2,M,,M,,*49
$GPRMC,084954.000,A,3117.8206,N,12126.0042,E,3.2,,210610,,,A*49
$GPGGA,084955.000,3117.8199,N,12126.0038,E,1,,,-169.6,M,,M,,*4C
$GPRMC,084955.000,A,3117.8199,N,12126.0038,E,3.1,,210610,,,A*43
$GPGGA,084956.000,3117.8191,N,12126.0034,E,1,,,-169.0,M,,M,,*4D
$GPRMC,084956.000,A,3117.8191,N,12126.0034,E,3.7,,210610,,,A*42
$GPGGA,084957.000,3117.8183,N,12126.0031,E,1,,,-168.5,M,,M,,*4E
$GPRMC,084957.000,A,3117.8183,N,12126.0031,E,3.4,,210610,,,A*46
$GPGGA,084958.000,3117.8177,N,12126.0028,E,1,,,-168.1,M,,M,,*46
$GPRMC,084958.000,A,3117.8177,N,12126.0028,E,2.6,,210610,,,A*49
$GPGGA,084959.000,3117.8175,N,12126.0022,E,1,,,-167.7,M,,M,,*46
$GPRMC,084959.000,A,3117.8175,N,12126.0022,E,1.1,,210610,,,A*44
$GPGGA,085000.000,3117.8178,N,12126.0016,E,1,,,-167.2,M,,M,,*4D
$GPRMC,085000.000,A,3117.8178,N,12126.0016,E,0.8,,210610,,,A*42
$GPGGA,085001.000,3117.8183,N,12126.0011,E,1,,,-166.6,M,,M,,*4A
$GPRMC,085001.000,A,3117.8183,N,12126.0011,E,1.2,,210610,,,A*4B
$GPGGA,085002.000,3117.8188,N,12126.0007,E,1,,,-165.8,M,,M,,*48
$GPRMC,085002.000,A,3117.8188,N,12126.0007,E,1.0,,210610,,,A*46
$GPGGA,085003.000,3117.8191,N,12126.0006,E,1,,,-164.8,M,,M,,*41
$GPRMC,085003.000,A,3117.8191,N,12126.0006,E,0.5,,210610,,,A*4A
$GPGGA,085004.000,3117.8194,N,12126.0003,E,1,,,-163.8,M,,M,,*41
$GPRMC,085004.000,A,3117.8194,N,12126.0003,E,0.2,,210610,,,A*4A
$GPGGA,085005.000,3117.8195,N,12125.9998,E,1,,,-162.7,M,,M,,*4E
$GPRMC,085005.000,A,3117.8195,N,12125.9998,E,0.6,,210610,,,A*4F
$GPGGA,085006.000,3117.8198,N,12125.9994,E,1,,,-161.6,M,,M,,*4E
$GPRMC,085006.000,A,3117.8198,N,12125.9994,E,0.4,,210610,,,A*4F
$GPGGA,085007.000,3117.8203,N,12125.9992,E,1,,,-160.4,M,,M,,*4B
$GPRMC,085007.000,A,3117.8203,N,12125.9992,E,0.5,,210610,,,A*48
$GPGGA,085008.000,3117.8210,N,12125.9990,E,1,,,-159.3,M,,M,,*49
$GPRMC,085008.000,A,3117.8210,N,12125.9990,E,1.5,,210610,,,A*46
$GPGGA,085009.000,3117.8216,N,12125.9986,E,1,,,-158.4,M,,M,,*4F
$GPRMC,085009.000,A,3117.8216,N,12125.9986,E,1.2,,210610,,,A*41
$GPGGA,085010.000,3117.8223,N,12125.9982,E,1,,,-157.6,M,,M,,*48
$GPRMC,085010.000,A,3117.8223,N,12125.9982,E,1.4,,210610,,,A*4D
$GPGGA,085011.000,3117.8231,N,12125.9976,E,1,,,-156.5,M,,M,,*43
$GPRMC,085011.000,A,3117.8231,N,12125.9976,E,1.7,,210610,,,A*47
$GPGGA,085012.000,3117.8241,N,12125.9973,E,1,,,-155.2,M,,M,,*46
$GPRMC,085012.000,A,3117.8241,N,12125.9973,E,2.0,,210610,,,A*42
$GPGGA,085013.000,3117.8250,N,12125.9968,E,1,,,-153.6,M,,M,,*4F
$GPRMC,085013.000,A,3117.8250,N,12125.9968,E,1.7,,210610,,,A*4D
$GPGGA,085014.000,3117.8262,N,12125.9963,E,1,,,-152.2,M,,M,,*47
$GPRMC,085014.000,A,3117.8262,N,12125.9963,E,2.7,,210610,,,A*43
$GPGGA,085015.000,3117.8275,N,12125.9956,E,1,,,-150.9,M,,M,,*4F
$GPRMC,085015.000,A,3117.8275,N,12125.9956,E,2.7,,210610,,,A*42
$GPGGA,085016.000,3117.8284,N,12125.9949,E,1,,,-149.6,M,,M,,*4B
$GPRMC,085016.000,A,3117.8284,N,12125.9949,E,1.7,,210610,,,A*42
$GPGGA,085017.000,3117.8293,N,12125.9947,E,1,,,-148.4,M,,M,,*41
$GPRMC,085017.000,A,3117.8293,N,12125.9947,E,1.2,,210610,,,A*4E
$GPGGA,085018.000,3117.8302,N,12125.9944,E,1,,,-147.1,M,,M,,*4E
$GPRMC,085018.000,A,3117.8302,N,12125.9944,E,0.6,,210610,,,A*4E
$GPGGA,085019.000,3117.8312,N,12125.9939,E,1,,,-145.7,M,,M,,*40
$GPRMC,085019.000,A,3117.8312,N,12125.9939,E,0.6,,210610,,,A*44
$GPGGA,085020.000,3117.8324,N,12125.9930,E,1,,,-144.3,M,,M,,*43
$GPRMC,085020.000,A,3117.8324,N,12125.9930,E,1.5,,210610,,,A*40
$GPGGA,085021.000,3117.8338,N,12125.9923,E,1,,,-142.7,M,,M,,*4F
$GPRMC,085021.000,A,3117.8338,N,12125.9923,E,1.7,,210610,,,A*4C
$GPGGA,085022.000,3117.8345,N,12125.9919,E,1,,,-141.5,M,,M,,*4E
$GPRMC,085022.000,A,3117.8345,N,12125.9919,E,0.6,,210610,,,A*4C
$GPGGA,085023.000,3117.8352,N,12125.9914,E,1,,,-140.8,M,,M,,*48
$GPRMC,085023.000,A,3117.8352,N,12125.9914,E,0.6,,210610,,,A*46
$GPGGA,085024.000,3117.8358,N,12125.9906,E,1,,,-140.0,M,,M,,*4E
$GPRMC,085024.000,A,3117.8358,N,12125.9906,E,1.1,,210610,,,A*4E
$GPGGA,085025.000,3117.8366,N,12125.9899,E,1,,,-139.4,M,,M,,*4F
$GPRMC,085025.000,A,3117.8366,N,12125.9899,E,0.6,,210610,,,A*43
$GPGGA,085026.000,3117.8377,N,12125.9891,E,1,,,-138.6,M,,M,,*47
$GPRMC,085026.000,A,3117.8377,N,12125.9891,E,1.4,,210610,,,A*4B
$GPGGA,085027.000,3117.8390,N,12125.9883,E,1,,,-137.8,M,,M,,*4D
$GPRMC,085027.000,A,3117.8390,N,12125.9883,E,2.3,,210610,,,A*44
$GPGGA,085028.000,3117.8406,N,12125.9876,E,1,,,-137.0,M,,M,,*48
$GPRMC,085028.000,A,3117.8406,N,12125.9876,E,3.0,,210610,,,A*4B
$GPGGA,085029.000,3117.8421,N,12125.9870,E,1,,,-135.9,M,,M,,*41
$GPRMC,085029.000,A,3117.8421,N,12125.9870,E,3.0,,210610,,,A*49
$GPGGA,085030.000,3117.8437,N,12125.9863,E,1,,,-134.6,M,,M,,*42
$GPRMC,085030.000,A,3117.8437,N,12125.9863,E,3.2,,210610,,,A*46
$GPGGA,085031.000,3117.8455,N,12125.9858,E,1,,,-133.1,M,,M,,*4F
$GPRMC,085031.000,A,3117.8455,N,12125.9858,E,3.7,,210610,,,A*4E
$GPGGA,085032.000,3117.8455,N,12125.9858,E,1,,,-133.1,M,,M,,*4C
$GPRMC,085032.000,A,3117.8455,N,12125.9858,E,0.0,,210610,,,A*49
$GPGGA,085033.000,3117.8455,N,12125.9858,E,1,,,-133.1,M,,M,,*4D
$GPRMC,085033.000,A,3117.8455,N,12125.9858,E,0.0,,210610,,,A*48
$GPGGA,085034.000,3117.8455,N,12125.9858,E,1,,,-133.1,M,,M,,*4A
$GPRMC,085034.000,A,3117.8455,N,12125.9858,E,0.0,,210610,,,A*4F
$GPGGA,085035.000,3117.8455,N,12125.9858,E,1,,,-133.1,M,,M,,*4B
$GPRMC,085035.000,A,3117.8455,N,12125.9858,E,0.0,,210610,,,A*4E
$GPGGA,085036.000,3117.8455,N,12125.9858,E,1,,,-133.1,M,,M,,*48
$GPRMC,085036.000,A,3117.8455,N,12125.9858,E,0.0,,210610,,,A*4D
$GPGGA,085037.000,3117.8455,N,12125.9858,E,1,,,-133.1,M,,M,,*49
$GPRMC,085037.000,A,3117.8455,N,12125.9858,E,0.0,,210610,,,A*4C
$GPGGA,085038.000,3117.8455,N,12125.9858,E,1,,,-133.1,M,,M,,*46
$GPRMC,085038.000,A,3117.8455,N,12125.9858,E,0.0,,210610,,,A*43
$GPGGA,085039.000,3117.8455,N,12125.9858,E,1,,,-133.1,M,,M,,*47
$GPRMC,085039.000,A,3117.8455,N,12125.9858,E,0.0,,210610,,,A*42
$GPGGA,085040.000,3117.8627,N,12125.9818,E,1,,,-99.6,M,,M,,*7C
$GPRMC,085040.000,A,3117.8627,N,12125.9818,E,2.9,,210610,,,A*44
$GPGGA,085041.000,3117.8643,N,12125.9815,E,1,,,-95.4,M,,M,,*7C
$GPRMC,085041.000,A,3117.8643,N,12125.9815,E,3.0,,210610,,,A*42
$GPGGA,085042.000,3117.8657,N,12125.9813,E,1,,,-91.2,M,,M,,*7E
$GPRMC,085042.000,A,3117.8657,N,12125.9813,E,2.9,,210610,,,A*4A
$GPGGA,085043.000,3117.8671,N,12125.9809,E,1,,,-87.1,M,,M,,*74
$GPRMC,085043.000,A,3117.8671,N,12125.9809,E,2.7,,210610,,,A*4A
$GPGGA,085044.000,3117.8682,N,12125.9807,E,1,,,-83.0,M,,M,,*74
$GPRMC,085044.000,A,3117.8682,N,12125.9807,E,1.9,,210610,,,A*42
$GPGGA,085045.000,3117.8693,N,12125.9808,E,1,,,-78.8,M,,M,,*76
$GPRMC,085045.000,A,3117.8693,N,12125.9808,E,2.1,,210610,,,A*47
$GPGGA,085046.000,3117.8700,N,12125.9807,E,1,,,-74.7,M,,M,,*72
$GPRMC,085046.000,A,3117.8700,N,12125.9807,E,1.3,,210610,,,A*41
$GPGGA,085047.000,3117.8708,N,12125.9806,E,1,,,-70.7,M,,M,,*7E
$GPRMC,085047.000,A,3117.8708,N,12125.9806,E,1.2,,210610,,,A*48
$GPGGA,085048.000,3117.8718,N,12125.9803,E,1,,,-66.7,M,,M,,*72
$GPRMC,085048.000,A,3117.8718,N,12125.9803,E,2.1,,210610,,,A*43
$GPGGA,085049.000,3117.8729,N,12125.9799,E,1,,,-62.7,M,,M,,*79
$GPRMC,085049.000,A,3117.8729,N,12125.9799,E,2.4,,210610,,,A*49
$GPGGA,085050.000,3117.8742,N,12125.9797,E,1,,,-58.7,M,,M,,*7B
$GPRMC,085050.000,A,3117.8742,N,12125.9797,E,2.7,,210610,,,A*41
$GPGGA,085051.000,3117.8750,N,12125.9795,E,1,,,-55.0,M,,M,,*71
$GPRMC,085051.000,A,3117.8750,N,12125.9795,E,1.7,,210610,,,A*42
$GPGGA,085052.000,3117.8757,N,12125.9795,E,1,,,-51.5,M,,M,,*74
$GPRMC,085052.000,A,3117.8757,N,12125.9795,E,1.2,,210610,,,A*43
$GPGGA,085053.000,3117.8765,N,12125.9795,E,1,,,-48.1,M,,M,,*78
$GPRMC,085053.000,A,3117.8765,N,12125.9795,E,1.4,,210610,,,A*45
$GPGGA,085054.000,3117.8774,N,12125.9794,E,1,,,-44.7,M,,M,,*74
$GPRMC,085054.000,A,3117.8774,N,12125.9794,E,2.0,,210610,,,A*44
$GPGGA,085055.000,3117.8784,N,12125.9795,E,1,,,-41.5,M,,M,,*7C
$GPRMC,085055.000,A,3117.8784,N,12125.9795,E,2.6,,210610,,,A*4D
$GPGGA,085056.000,3117.8790,N,12125.9796,E,1,,,-38.1,M,,M,,*73
$GPRMC,085056.000,A,3117.8790,N,12125.9796,E,1.4,,210610,,,A*49
$GPGGA,085057.000,3117.8797,N,12125.9795,E,1,,,-34.9,M,,M,,*72
$GPRMC,085057.000,A,3117.8797,N,12125.9795,E,1.7,,210610,,,A*4F
$GPGGA,085058.000,3117.8804,N,12125.9795,E,1,,,-31.7,M,,M,,*73
$GPRMC,085058.000,A,3117.8804,N,12125.9795,E,1.8,,210610,,,A*4A
$GPGGA,085059.000,3117.8810,N,12125.9795,E,1,,,-28.6,M,,M,,*7E
$GPRMC,085059.000,A,3117.8810,N,12125.9795,E,1.8,,210610,,,A*4E
$GPGGA,085100.000,3117.8818,N,12125.9794,E,1,,,-25.7,M,,M,,*76
$GPRMC,085100.000,A,3117.8818,N,12125.9794,E,2.3,,210610,,,A*42
$GPGGA,085101.000,3117.8824,N,12125.9793,E,1,,,-23.0,M,,M,,*7E
$GPRMC,085101.000,A,3117.8824,N,12125.9793,E,2.1,,210610,,,A*49
$GPGGA,085102.000,3117.8828,N,12125.9791,E,1,,,-20.4,M,,M,,*74
$GPRMC,085102.000,A,3117.8828,N,12125.9791,E,1.3,,210610,,,A*45
$GPGGA,085103.000,3117.8830,N,12125.9790,E,1,,,-18.0,M,,M,,*72
$GPRMC,085103.000,A,3117.8830,N,12125.9790,E,0.8,,210610,,,A*46
$GPGGA,085104.000,3117.8833,N,12125.9790,E,1,,,-15.8,M,,M,,*73
$GPRMC,085104.000,A,3117.8833,N,12125.9790,E,1.0,,210610,,,A*4B
$GPGGA,085105.000,3117.8836,N,12125.9790,E,1,,,-13.8,M,,M,,*71
$GPRMC,085105.000,A,3117.8836,N,12125.9790,E,1.7,,210610,,,A*48
$GPGGA,085106.000,3117.8840,N,12125.9791,E,1,,,-11.8,M,,M,,*70
$GPRMC,085106.000,A,3117.8840,N,12125.9791,E,1.8,,210610,,,A*44
$GPGGA,085107.000,3117.8845,N,12125.9791,E,1,,,-10.2,M,,M,,*7F
