$GPRMC,180944,A,3926.0580,N,11946.0001,W,0.0,153.8,070106,15.2,E,A*39
$GPGGA,180944,3926.0580,N,11946.0001,W,1,10,1.4,1378.5,M,-22.1,M,,*49
$GPGSA,A,3,02,04,05,07,09,17,24,26,28,29,,,3.4,1.4,3.1*3A
$GPRMC,180946,A,3926.0580,N,11946.0001,W,0.0,153.8,070106,15.2,E,D*3E
$GPGGA,180946,3926.0580,N,11946.0001,W,2,10,1.1,1378.4,M,-22.1,M,,*4C
$GPGSA,A,3,02,04,05,07,09,17,24,26,28,29,,,2.1,1.1,1.8*30
$GPRMC,180948,A,3926.0579,N,11946.0001,W,0.0,153.8,070106,15.2,E,D*36
$GPGGA,180948,3926.0579,N,11946.0001,W,2,10,1.1,1378.4,M,-22.1,M,,*44
$GPGSA,A,3,02,04,05,07,09,17,24,26,28,29,,,2.1,1.1,1.8*30
$GPRMC,180950,A,3926.0579,N,11946.0001,W,0.0,153.8,070106,15.2,E,D*3F
$GPGGA,180950,3926.0579,N,11946.0001,W,2,10,1.1,1378.3,M,-22.1,M,,*4A
$GPGSA,A,3,02,04,05,07,09,17,24,26,28,29,,,2.1,1.1,1.8*30
$GPRMC,180952,A,3926.0579,N,11946.0001,W,0.0,153.8,070106,15.2,E,D*3D
$GPGGA,180952,3926.0579,N,11946.0001,W,2,10,1.1,1377.9,M,-22.1,M,,*4D
$GPGSA,A,3,02,04,05,07,09,17,24,26,28,29,,,2.3,1.1,2.0*39
$GPRMC,180954,A,3926.0578,N,11946.0002,W,0.0,153.8,070106,15.2,E,D*39
$GPGGA,180954,3926.0578,N,11946.0002,W,2,10,1.1,1377.7,M,-22.1,M,,*47
$GPGSA,A,3,02,04,05,07,09,17,24,26,28,29,,,2.4,1.1,2.1*3F
$GPRMC,180956,A,3926.0578,N,11946.0002,W,0.0,153.8,070106,15.2,E,D*3B
$GPGGA,180956,3926.0578,N,11946.0002,W,2,08,1.1,1377.8,M,-22.1,M,,*43
$GPGSA,A,3,02,04,05,07,09,17,24,,28,,,,2.1,1.1,1.8*3F
$GPRMC,180958,A,3926.0578,N,11946.0002,W,0.0,153.8,070106,15.2,E,D*35
$GPGGA,180958,3926.0578,N,11946.0002,W,2,08,1.1,1378.0,M,-22.1,M,,*4A
$GPGSA,A,3,02,04,05,07,09,17,24,,28,,,,2.1,1.1,1.8*3F
$GPRMC,181000,A,3926.0577,N,11946.0002,W,0.0,153.8,070106,15.2,E,D*3F
$GPGGA,181000,3926.0577,N,11946.0002,W,2,08,1.1,1378.2,M,-22.1,M,,*42
$GPGSA,A,3,02,04,05,07,09,17,24,,28,,,,2.1,1.1,1.8*3F
$GPRMC,181002,A,3926.0577,N,11946.0002,W,0.0,153.8,070106,15.2,E,D*3D
$GPGGA,181002,3926.0577,N,11946.0002,W,2,08,1.1,1378.4,M,-22.1,M,,*46
$GPGSA,A,3,02,04,05,07,09,17,24,,28,,,,2.2,1.1,1.9*3D
$GPRMC,181004,A,3926.0577,N,11946.0003,W,0.0,153.8,070106,15.2,E,D*3A
$GPGGA,181004,3926.0577,N,11946.0003,W,2,09,1.0,1378.5,M,-22.1,M,,*40
$GPGSA,A,3,02,04,05,07,09,17,24,26,28,,,,2.0,1.0,1.8*3B
$GPRMC,181006,A,3926.0577,N,11946.0003,W,0.0,153.8,070106,15.2,E,D*38
$GPGGA,181006,3926.0577,N,11946.0003,W,2,09,1.0,1378.3,M,-22.1,M,,*44
$GPGSA,A,3,02,04,05,07,09,17,24,26,28,,,,2.1,1.0,1.8*3A
$GPRMC,181008,A,3926.0576,N,11946.0003,W,0.0,153.8,070106,15.2,E,D*37
$GPGGA,181008,3926.0576,N,11946.0003,W,2,09,1.0,1378.6,M,-22.1,M,,*4E
$GPGSA,A,3,02,04,05,07,09,17,24,26,28,,,,2.0,1.0,1.8*3B
$GPRMC,181010,A,3926.0576,N,11946.0003,W,0.0,153.8,070106,15.2,E,D*3E
$GPGGA,181010,3926.0576,N,11946.0003,W,2,09,1.0,1378.9,M,-22.1,M,,*48
$GPGSA,A,3,02,04,05,07,09,17,24,26,28,,,,2.0,1.0,1.8*3B
$GPRMC,181012,A,3926.0576,N,11946.0003,W,0.0,153.8,070106,15.2,E,D*3C
$GPGGA,181012,3926.0576,N,11946.0003,W,2,09,1.0,1379.1,M,-22.1,M,,*43
$GPGSA,A,3,02,04,05,07,09,17,24,26,28,,,,2.1,1.0,1.8*3A
$GPRMC,181014,A,3926.0576,N,11946.0004,W,0.0,153.8,070106,15.2,E,D*3D
$GPGGA,181014,3926.0576,N,11946.0004,W,2,09,1.0,1379.1,M,-22.1,M,,*42
$GPGSA,A,3,02,04,05,07,09,17,24,26,28,,,,2.1,1.0,1.8*3A
$GPRMC,181016,A,3926.0576,N,11946.0004,W,0.0,153.8,070106,15.2,E,D*3F
$GPGGA,181016,3926.0576,N,11946.0004,W,2,10,1.0,1379.1,M,-22.1,M,,*48
$GPGSA,A,3,02,04,05,07,09,17,24,26,28,,35,,2.1,1.0,1.8*3C
$GPRMC,181018,A,3926.0575,N,11946.0004,W,0.0,153.8,070106,15.2,E,D*32
$GPGGA,181018,3926.0575,N,11946.0004,W,2,10,1.0,1379.0,M,-22.1,M,,*44
$GPGSA,A,3,02,04,05,07,09,17,24,26,28,,35,,2.1,1.0,1.8*3C
$GPRMC,181020,A,3926.0575,N,11946.0004,W,0.0,153.8,070106,15.2,E,D*39
$GPGGA,181020,3926.0575,N,11946.0004,W,2,10,0.9,1378.8,M,-22.1,M,,*4E
$GPGSA,A,3,02,04,05,07,09,17,24,26,28,,35,,1.7,0.9,1.4*3D
$GPRMC,181022,A,3926.0575,N,11946.0005,W,0.0,153.8,070106,15.2,E,D*3A
$GPGGA,181022,3926.0575,N,11946.0005,W,2,09,0.9,1378.6,M,-22.1,M,,*4B
$GPGSA,A,3,02,04,05,07,09,17,24,26,28,,,,1.7,0.9,1.5*3A
$GPRMC,181024,A,3926.0575,N,11946.0005,W,0.0,153.8,070106,15.2,E,D*3C
$GPGGA,181024,3926.0575,N,11946.0005,W,2,09,1.0,1378.6,M,-22.1,M,,*45
$GPGSA,A,3,02,04,05,07,09,17,24,26,28,,,,1.8,1.0,1.5*3D
$GPRMC,181026,A,3926.0575,N,11946.0005,W,0.0,153.8,070106,15.2,E,D*3E
$GPGGA,181026,3926.0575,N,11946.0005,W,2,09,1.0,1378.7,M,-22.1,M,,*46
$GPGSA,A,3,02,04,05,07,09,17,24,26,28,,,,1.8,1.0,1.6*3E
$GPRMC,181028,A,3926.0575,N,11946.0005,W,0.0,153.8,070106,15.2,E,D*30
$GPGGA,181028,3926.0575,N,11946.0005,W,2,09,1.0,1378.9,M,-22.1,M,,*46
$GPGSA,A,3,02,04,05,07,09,17,24,26,28,,,,1.8,1.0,1.6*3E
$GPRMC,181030,A,3926.0575,N,11946.0005,W,0.2,328.4,070106,15.2,E,D*39
$GPGGA,181030,3926.0575,N,11946.0005,W,2,09,1.0,1379.3,M,-22.1,M,,*44
$GPGSA,A,3,02,04,05,07,09,17,24,26,28,,,,1.9,1.0,1.6*3F
$GPRMC,181032,A,3926.0573,N,11946.0014,W,0.0,328.4,070106,15.2,E,D*3F
$GPGGA,181032,3926.0573,N,11946.0014,W,2,09,1.1,1379.1,M,-22.1,M,,*43
$GPGSA,A,3,02,04,05,07,09,17,24,26,28,,,,2.3,1.1,2.0*32
$GPRMC,181034,A,3926.0573,N,11946.0014,W,0.0,328.4,070106,15.2,E,D*39
$GPGGA,181034,3926.0573,N,11946.0014,W,2,09,1.2,1379.1,M,-22.1,M,,*46
$GPGSA,A,3,02,04,05,07,09,17,24,26,28,,,,2.6,1.2,2.3*37
$GPRMC,181036,A,3926.0572,N,11946.0014,W,0.0,328.4,070106,15.2,E,D*3A
$GPGGA,181036,3926.0572,N,11946.0014,W,2,09,1.2,1379.1,M,-22.1,M,,*45
$GPGSA,A,3,02,04,05,07,09,17,24,26,28,,,,2.7,1.2,2.4*31
$GPRMC,181038,A,3926.0571,N,11946.0014,W,0.0,328.4,070106,15.2,E,D*37
$GPGGA,181038,3926.0571,N,11946.0014,W,2,09,1.1,1379.2,M,-22.1,M,,*48
$GPGSA,A,3,02,04,05,07,09,17,24,26,28,,,,2.1,1.1,1.8*3B
$GPRMC,181040,A,3926.0571,N,11946.0014,W,0.0,328.4,070106,15.2,E,D*38
$GPGGA,181040,3926.0571,N,11946.0014,W,2,09,1.0,1378.9,M,-22.1,M,,*4C
$GPGSA,A,3,02,04,05,07,09,17,24,26,28,,,,2.0,1.0,1.8*3B
$GPRMC,181042,A,3926.0570,N,11946.0014,W,0.0,328.4,070106,15.2,E,D*3B
$GPGGA,181042,3926.0570,N,11946.0014,W,2,09,1.1,1378.3,M,-22.1,M,,*44
$GPGSA,A,3,02,04,05,07,09,17,24,26,28,,,,2.2,1.1,1.9*39
$GPRMC,181044,A,3926.0570,N,11946.0014,W,0.0,328.4,070106,15.2,E,D*3D
$GPGGA,181044,3926.0570,N,11946.0014,W,2,09,1.1,1378.0,M,-22.1,M,,*41
$GPGSA,A,3,02,04,05,07,09,17,24,26,28,,,,2.2,1.1,1.9*39
$GPRMC,181046,A,3926.0570,N,11946.0014,W,0.0,328.4,070106,15.2,E,D*3F
$GPGGA,181046,3926.0570,N,11946.0014,W,2,09,1.2,1377.7,M,-22.1,M,,*48
$GPGSA,A,3,02,04,05,07,09,17,24,26,28,,,,2.6,1.2,2.3*37
$GPRMC,181048,A,3926.0569,N,11946.0014,W,0.0,328.4,070106,15.2,E,D*39
$GPGGA,181048,3926.0569,N,11946.0014,W,2,10,1.1,1377.2,M,-22.1,M,,*40
$GPGSA,A,3,02,04,05,07,09,17,24,26,28,29,,,2.2,1.1,1.9*32
$GPRMC,181050,A,3926.0569,N,11946.0014,W,0.0,328.4,070106,15.2,E,D*30
$GPGGA,181050,3926.0569,N,11946.0014,W,2,10,1.1,1377.0,M,-22.1,M,,*4B
$GPGSA,A,3,02,04,05,07,09,17,24,26,28,29,,,2.3,1.1,2.0*39
$GPRMC,181052,A,3926.0569,N,11946.0014,W,0.0,328.4,070106,15.2,E,D*32
$GPGGA,181052,3926.0569,N,11946.0014,W,2,10,1.1,1377.5,M,-22.1,M,,*4C
$GPGSA,A,3,02,04,05,07,09,17,24,26,28,29,,,2.4,1.1,2.1*3F
$GPRMC,181054,A,3926.0569,N,11946.0014,W,0.0,328.4,070106,15.2,E,D*34
$GPGGA,181054,3926.0569,N,11946.0014,W,2,10,1.0,1377.6,M,-22.1,M,,*48
$GPGSA,A,3,02,04,05,07,09,17,24,26,28,29,,,2.0,1.0,1.7*3F
$GPRMC,181056,A,3926.0569,N,11946.0013,W,0.0,328.4,070106,15.2,E,A*34
$GPGGA,181056,3926.0569,N,11946.0013,W,1,10,1.0,1377.7,M,-22.1,M,,*4F
$GPGSA,A,3,02,04,05,07,09,17,24,26,28,29,,,1.9,1.0,1.7*35
$GPRMC,181058,A,3926.0569,N,11946.0013,W,0.0,328.4,070106,15.2,E,A*3A
$GPGGA,181058,3926.0569,N,11946.0013,W,1,10,1.0,1377.4,M,-22.1,M,,*42
$GPGSA,A,3,02,04,05,07,09,17,24,26,28,29,,,2.0,1.0,1.7*3F
$GPRMC,181100,A,3926.0568,N,11946.0013,W,0.0,328.4,070106,15.2,E,A*37
$GPGGA,181100,3926.0568,N,11946.0013,W,1,10,1.0,1377.2,M,-22.1,M,,*49
$GPGSA,A,3,02,04,05,07,09,17,24,26,28,29,,,2.1,1.0,1.9*30
$GPRMC,181102,A,3926.0568,N,11946.0013,W,0.0,328.4,070106,15.2,E,A*35
$GPGGA,181102,3926.0568,N,11946.0013,W,1,10,1.0,1377.2,M,-22.1,M,,*4B
$GPGSA,A,3,02,04,05,07,09,17,24,26,28,29,,,1.9,1.0,1.7*35
$GPRMC,181104,A,3926.0568,N,11946.0013,W,0.0,328.4,070106,15.2,E,A*33
$GPGGA,181104,3926.0568,N,11946.0013,W,1,10,1.0,1377.3,M,-22.1,M,,*4C
$GPGSA,A,3,02,04,05,07,09,17,24,26,28,29,,,2.0,1.0,1.7*3F
$GPRMC,181106,A,3926.0568,N,11946.0013,W,0.0,328.4,070106,15.2,E,A*31
$GPGGA,181106,3926.0568,N,11946.0013,W,1,10,1.0,1377.8,M,-22.1,M,,*45
$GPGSA,A,3,02,04,05,07,09,17,24,26,28,29,,,2.0,1.0,1.7*3F
$GPRMC,181108,A,3926.0568,N,11946.0013,W,0.0,328.4,070106,15.2,E,A*3F
$GPGGA,181108,3926.0568,N,11946.0013,W,1,10,1.0,1378.3,M,-22.1,M,,*4F
$GPGSA,A,3,02,04,05,07,09,17,24,26,28,29,,,1.9,1.0,1.7*35
$GPRMC,181110,A,3926.0568,N,11946.0014,W,0.0,328.4,070106,15.2,E,A*31
$GPGGA,181110,3926.0568,N,11946.0014,W,1,10,1.0,1378.4,M,-22.1,M,,*46
$GPGSA,A,3,02,04,05,07,09,17,24,26,28,29,,,2.0,1.0,1.7*3F
$GPRMC,181112,A,3926.0568,N,11946.0014,W,0.3,328.4,070106,15.2,E,A*30
$GPGGA,181112,3926.0568,N,11946.0014,W,1,10,1.1,1377.7,M,-22.1,M,,*49
$GPGSA,A,3,02,04,05,07,09,17,24,26,28,29,,,2.1,1.1,1.8*30
$GPRMC,181114,A,3926.0566,N,11946.0013,W,0.0,328.4,070106,15.2,E,A*3C
$GPGGA,181114,3926.0566,N,11946.0013,W,1,10,1.0,1378.0,M,-22.1,M,,*4F
$GPGSA,A,3,02,04,05,07,09,17,24,26,28,29,,,2.0,1.0,1.7*3F
$GPRMC,181116,A,3926.0565,N,11946.0013,W,0.0,328.4,070106,15.2,E,A*3D
$GPGGA,181116,3926.0565,N,11946.0013,W,1,10,1.0,1378.2,M,-22.1,M,,*4C
$GPGSA,A,3,02,04,05,07,09,17,24,26,28,29,,,1.9,1.0,1.7*35
$GPRMC,181118,A,3926.0565,N,11946.0013,W,0.0,328.4,070106,15.2,E,A*33
$GPGGA,181118,3926.0565,N,11946.0013,W,1,10,1.0,1378.5,M,-22.1,M,,*45
$GPGSA,A,3,02,04,05,07,09,17,24,26,28,29,,,2.0,1.0,1.7*3F
$GPRMC,181120,A,3926.0564,N,11946.0014,W,0.0,328.4,070106,15.2,E,A*3E
$GPGGA,181120,3926.0564,N,11946.0014,W,1,10,1.0,1378.4,M,-22.1,M,,*49
$GPGSA,A,3,02,04,05,07,09,17,24,26,28,29,,,2.0,1.0,1.7*3F
$GPRMC,181122,A,3926.0564,N,11946.0014,W,0.0,328.4,070106,15.2,E,A*3C
$GPGGA,181122,3926.0564,N,11946.0014,W,1,10,1.0,1378.4,M,-22.1,M,,*4B
$GPGSA,A,3,02,04,05,07,09,17,24,26,28,29,,,2.0,1.0,1.7*3F
$GPRMC,181124,A,3926.0564,N,11946.0013,W,0.0,328.4,070106,15.2,E,D*38
$GPGGA,181124,3926.0564,N,11946.0013,W,2,10,1.0,1378.5,M,-22.1,M,,*48
$GPGSA,A,3,02,04,05,07,09,17,24,26,28,29,,,2.0,1.0,1.7*3F
$GPRMC,181126,A,3926.0564,N,11946.0013,W,0.0,328.4,070106,15.2,E,D*3A
$GPGGA,181126,3926.0564,N,11946.0013,W,2,10,1.0,1378.9,M,-22.1,M,,*46
$GPGSA,A,3,02,04,05,07,09,17,24,26,28,29,,,2.0,1.0,1.7*3F
$GPRMC,181128,A,3926.0565,N,11946.0013,W,0.0,328.4,070106,15.2,E,D*35
$GPGGA,181128,3926.0565,N,11946.0013,W,2,10,1.0,1379.2,M,-22.1,M,,*43
$GPGSA,A,3,02,04,05,07,09,17,24,26,28,29,,,2.0,1.0,1.8*30
$GPRMC,181130,A,3926.0565,N,11946.0013,W,0.0,328.4,070106,15.2,E,D*3C
$GPGGA,181130,3926.0565,N,11946.0013,W,2,10,1.0,1379.1,M,-22.1,M,,*49
$GPGSA,A,3,02,04,05,07,09,17,24,26,28,29,,,2.0,1.0,1.8*30
$GPRMC,181132,A,3926.0565,N,11946.0013,W,0.0,328.4,070106,15.2,E,D*3E
$GPGGA,181132,3926.0565,N,11946.0013,W,2,10,1.0,1379.1,M,-22.1,M,,*4B
$GPGSA,A,3,02,04,05,07,09,17,24,26,28,29,,,2.0,1.0,1.8*30
$GPRMC,181134,A,3926.0566,N,11946.0014,W,0.0,328.4,070106,15.2,E,D*3C
$GPGGA,181134,3926.0566,N,11946.0014,W,2,10,1.0,1379.2,M,-22.1,M,,*4A
$GPGSA,A,3,02,04,05,07,09,17,24,26,28,,35,,2.0,1.0,1.8*3D
$GPRMC,181136,A,3926.0566,N,11946.0014,W,0.0,328.4,070106,15.2,E,D*3E
$GPGGA,181136,3926.0566,N,11946.0014,W,2,10,0.9,1379.3,M,-22.1,M,,*41
$GPGSA,A,3,02,04,05,07,09,17,24,26,28,,35,,1.7,0.9,1.4*3D
$GPRMC,181138,A,3926.0566,N,11946.0014,W,0.0,328.4,070106,15.2,E,D*30
$GPGGA,181138,3926.0566,N,11946.0014,W,2,10,0.9,1379.3,M,-22.1,M,,*4F
$GPGSA,A,3,02,04,05,07,09,17,24,26,28,,35,,1.7,0.9,1.4*3D
$GPRMC,181140,A,3926.0567,N,11946.0014,W,0.0,328.4,070106,15.2,E,D*3E
$GPGGA,181140,3926.0567,N,11946.0014,W,2,10,0.9,1379.3,M,-22.1,M,,*41
$GPGSA,A,3,02,04,05,07,09,17,24,26,28,,35,,1.7,0.9,1.4*3D
$GPRMC,181142,A,3926.0567,N,11946.0014,W,0.0,328.4,070106,15.2,E,D*3C
$GPGGA,181142,3926.0567,N,11946.0014,W,2,10,1.0,1379.1,M,-22.1,M,,*49
$GPGSA,A,3,02,04,05,07,09,17,24,26,28,,35,,1.8,1.0,1.5*3B
$GPRMC,181144,A,3926.0567,N,11946.0014,W,0.0,328.4,070106,15.2,E,D*3A
$GPGGA,181144,3926.0567,N,11946.0014,W,2,10,1.0,1378.8,M,-22.1,M,,*47
$GPGSA,A,3,02,04,05,07,09,17,24,26,28,,35,,1.9,1.0,1.6*39
$GPRMC,181146,A,3926.0567,N,11946.0014,W,0.0,328.4,070106,15.2,E,D*38
$GPGGA,181146,3926.0567,N,11946.0014,W,2,09,0.9,1378.5,M,-22.1,M,,*48
$GPGSA,A,3,02,04,05,07,09,17,24,26,28,,,,1.7,0.9,1.4*3B
$GPRMC,181148,A,3926.0567,N,11946.0014,W,0.0,328.4,070106,15.2,E,D*36
$GPGGA,181148,3926.0567,N,11946.0014,W,2,09,0.9,1378.3,M,-22.1,M,,*40
$GPGSA,A,3,02,04,05,07,09,17,24,26,28,,,,1.8,0.9,1.5*35
$GPRMC,181150,A,3926.0568,N,11946.0014,W,0.0,328.4,070106,15.2,E,D*30
$GPGGA,181150,3926.0568,N,11946.0014,W,2,09,0.9,1378.2,M,-22.1,M,,*47
$GPGSA,A,3,02,04,05,07,09,17,24,26,28,,,,1.8,0.9,1.5*35
$GPRMC,181152,A,3926.0568,N,11946.0014,W,0.0,328.4,070106,15.2,E,D*32
$GPGGA,181152,3926.0568,N,11946.0014,W,2,10,0.9,1378.1,M,-22.1,M,,*4E
$GPGSA,A,3,02,04,05,07,09,17,24,26,28,,35,,1.8,0.9,1.5*33
$GPRMC,181154,A,3926.0568,N,11946.0014,W,0.0,328.4,070106,15.2,E,D*34
$GPGGA,181154,3926.0568,N,11946.0014,W,2,10,1.0,1377.9,M,-22.1,M,,*47
$GPGSA,A,3,02,04,05,07,09,17,24,26,28,,35,,1.8,1.0,1.5*3B
$GPRMC,181156,A,3926.0568,N,11946.0014,W,0.0,328.4,070106,15.2,E,D*36
$GPGGA,181156,3926.0568,N,11946.0014,W,2,10,1.0,1377.7,M,-22.1,M,,*4B
$GPGSA,A,3,02,04,05,07,09,17,24,26,28,,35,,1.8,1.0,1.5*3B
$GPRMC,181158,A,3926.0569,N,11946.0015,W,0.0,328.4,070106,15.2,E,D*38
$GPGGA,181158,3926.0569,N,11946.0015,W,2,09,1.0,1377.5,M,-22.1,M,,*4F
$GPGSA,A,3,02,04,05,07,09,17,24,26,28,,,,1.9,1.0,1.6*3F
$GPRMC,181200,A,3926.0569,N,11946.0015,W,0.0,328.4,070106,15.2,E,D*36
$GPGGA,181200,3926.0569,N,11946.0015,W,2,09,1.1,1376.8,M,-22.1,M,,*4C
$GPGSA,A,3,02,04,05,07,09,17,24,26,28,,,,2.0,1.1,1.7*35
$GPRMC,181202,A,3926.0569,N,11946.0015,W,0.0,328.4,070106,15.2,E,D*34
$GPGGA,181202,3926.0569,N,11946.0015,W,2,09,1.1,1376.6,M,-22.1,M,,*40
$GPGSA,A,3,02,04,05,07,09,17,24,26,28,,,,2.0,1.1,1.7*35
$GPRMC,181204,A,3926.0569,N,11946.0015,W,0.0,328.4,070106,15.2,E,D*32
$GPGGA,181204,3926.0569,N,11946.0015,W,2,10,1.1,1375.9,M,-22.1,M,,*42
$GPGSA,A,3,02,04,05,07,09,17,24,26,28,,35,,2.0,1.1,1.7*33
$GPRMC,181206,A,3926.0570,N,11946.0015,W,0.0,328.4,070106,15.2,E,D*38
$GPGGA,181206,3926.0570,N,11946.0015,W,2,10,1.0,1375.8,M,-22.1,M,,*48
$GPGSA,A,3,02,04,05,07,09,17,24,26,28,,35,,2.0,1.0,1.8*3D
$GPRMC,181208,A,3926.0570,N,11946.0015,W,0.0,328.4,070106,15.2,E,D*36
$GPGGA,181208,3926.0570,N,11946.0015,W,2,10,1.0,1375.5,M,-22.1,M,,*4B
$GPGSA,A,3,02,04,05,07,09,17,24,26,28,,35,,2.0,1.0,1.8*3D
$GPRMC,181210,A,3926.0571,N,11946.0015,W,0.0,328.4,070106,15.2,E,D*3E
$GPGGA,181210,3926.0571,N,11946.0015,W,2,09,1.0,1375.4,M,-22.1,M,,*4A
$GPGSA,A,3,02,04,05,07,09,17,24,26,28,,,,2.0,1.0,1.7*34
$GPRMC,181212,A,3926.0571,N,11946.0015,W,0.0,328.4,070106,15.2,E,D*3C
$GPGGA,181212,3926.0571,N,11946.0015,W,2,09,1.0,1375.2,M,-22.1,M,,*4E
$GPGSA,A,3,02,04,05,07,09,17,24,26,28,,,,2.0,1.0,1.8*3B
$GPRMC,181214,A,3926.0571,N,11946.0015,W,0.0,328.4,070106,15.2,E,D*3A
$GPGGA,181214,3926.0571,N,11946.0015,W,2,09,1.0,1375.3,M,-22.1,M,,*49
$GPGSA,A,3,02,04,05,07,09,17,24,26,28,,,,2.1,1.0,1.8*3A
$GPRMC,181216,A,3926.0572,N,11946.0015,W,0.0,328.4,070106,15.2,E,D*3B
$GPGGA,181216,3926.0572,N,11946.0015,W,2,10,1.1,1375.1,M,-22.1,M,,*43
$GPGSA,A,3,02,04,05,07,09,17,24,26,28,29,,,2.1,1.1,1.9*31
$GPRMC,181218,A,3926.0572,N,11946.0015,W,0.0,328.4,070106,15.2,E,D*35
$GPGGA,181218,3926.0572,N,11946.0015,W,2,10,1.1,1375.1,M,-22.1,M,,*4D
$GPGSA,A,3,02,04,05,07,09,17,24,26,28,29,,,2.2,1.1,1.9*32
$GPRMC,181220,A,3926.0572,N,11946.0015,W,0.0,328.4,070106,15.2,E,D*3E
$GPGGA,181220,3926.0572,N,11946.0015,W,2,10,1.1,1375.2,M,-22.1,M,,*45
$GPGSA,A,3,02,04,05,07,09,17,24,26,28,29,,,2.2,1.1,1.9*32
$GPRMC,181222,A,3926.0573,N,11946.0015,W,0.0,328.4,070106,15.2,E,D*3D
$GPGGA,181222,3926.0573,N,11946.0015,W,2,10,1.0,1375.1,M,-22.1,M,,*44
$GPGSA,A,3,02,04,05,07,09,17,24,26,28,29,,,1.9,1.0,1.6*34
$GPRMC,181224,A,3926.0573,N,11946.0015,W,0.0,328.4,070106,15.2,E,D*3B
$GPGGA,181224,3926.0573,N,11946.0015,W,2,10,1.0,1375.1,M,-22.1,M,,*42
$GPGSA,A,3,02,04,05,07,09,17,24,26,28,29,,,1.9,1.0,1.6*34
$GPRMC,181226,A,3926.0573,N,11946.0016,W,0.0,328.4,070106,15.2,E,D*3A
$GPGGA,181226,3926.0573,N,11946.0016,W,2,10,1.0,1375.3,M,-22.1,M,,*41
$GPGSA,A,3,02,04,05,07,09,17,24,26,28,29,,,1.9,1.0,1.7*35
$GPRMC,181228,A,3926.0574,N,11946.0016,W,0.0,328.4,070106,15.2,E,D*33
$GPGGA,181228,3926.0574,N,11946.0016,W,2,10,1.0,1375.7,M,-22.1,M,,*4C
$GPGSA,A,3,02,04,05,07,09,17,24,26,28,29,,,1.9,1.0,1.6*34
$GPRMC,181230,A,3926.0574,N,11946.0016,W,0.4,153.1,070106,15.2,E,D*35
$GPGGA,181230,3926.0574,N,11946.0016,W,2,10,1.0,1376.0,M,-22.1,M,,*41
$GPGSA,A,3,02,04,05,07,09,17,24,26,28,29,,,2.0,1.0,1.7*3F
$GPRMC,181232,A,3926.0561,N,11946.0000,W,5.8,146.4,070106,15.2,E,D*3C
$GPGGA,181232,3926.0561,N,11946.0000,W,2,10,1.0,1376.1,M,-22.1,M,,*41
$GPGSA,A,3,02,04,05,07,09,17,24,26,28,29,,,2.0,1.0,1.7*3F
$GPRMC,181234,A,3926.0514,N,11945.9958,W,11.7,145.0,070106,15.2,E,D*0B
$GPGGA,181234,3926.0514,N,11945.9958,W,2,10,1.1,1376.1,M,-22.1,M,,*4A
$GPGSA,A,3,02,04,05,07,09,17,24,26,28,29,,,2.2,1.1,1.9*32
$GPRMC,181236,A,3926.0448,N,11945.9902,W,14.5,147.8,070106,15.2,E,D*03
$GPGGA,181236,3926.0448,N,11945.9902,W,2,10,1.2,1376.1,M,-22.1,M,,*4C
$GPGSA,A,3,02,04,05,07,09,17,24,26,28,29,,,2.3,1.2,2.0*3A
$GPRMC,181238,A,3926.0368,N,11945.9843,W,17.3,151.0,070106,15.2,E,D*06
$GPGGA,181238,3926.0368,N,11945.9843,W,2,10,1.2,1375.9,M,-22.1,M,,*48
$GPGSA,A,3,02,04,05,07,09,17,24,26,28,29,,,2.3,1.2,1.9*30
$GPRMC,181240,A,3926.0270,N,11945.9782,W,19.9,154.5,070106,15.2,E,D*07
$GPGGA,181240,3926.0270,N,11945.9782,W,2,10,1.2,1375.7,M,-22.1,M,,*43
$GPGSA,A,3,02,04,05,07,09,17,24,26,28,29,,,2.4,1.2,2.0*3D
$GPRMC,181242,A,3926.0162,N,11945.9715,W,22.1,153.5,070106,15.2,E,D*0C
$GPGGA,181242,3926.0162,N,11945.9715,W,2,10,1.1,1375.6,M,-22.1,M,,*4D
$GPGSA,A,3,02,04,05,07,09,17,24,26,28,29,,,2.1,1.1,1.8*30
$GPRMC,181244,A,3926.0046,N,11945.9639,W,23.6,153.0,070106,15.2,E,D*01
$GPGGA,181244,3926.0046,N,11945.9639,W,2,10,1.0,1375.1,M,-22.1,M,,*45
$GPGSA,A,3,02,04,05,07,09,17,24,26,28,29,,,2.0,1.0,1.7*3F
$GPRMC,181246,A,3925.9918,N,11945.9553,W,27.0,152.4,070106,15.2,E,D*03
$GPGGA,181246,3925.9918,N,11945.9553,W,2,10,1.4,1374.5,M,-22.1,M,,*41
$GPGSA,A,3,02,04,05,07,09,17,24,26,28,29,,,2.4,1.4,1.0*38
$GPRMC,181248,A,3925.9774,N,11945.9458,W,30.2,153.2,070106,15.2,E,D*00
$GPGGA,181248,3925.9774,N,11945.9458,W,2,10,2.1,1374.3,M,-22.1,M,,*41
$GPGSA,A,3,02,04,05,07,09,17,24,26,28,29,,,2.9,2.1,1.0*33
$GPRMC,181250,A,3925.9615,N,11945.9355,W,32.7,153.5,070106,15.2,E,D*05
$GPGGA,181250,3925.9615,N,11945.9355,W,2,10,1.0,1373.9,M,-22.1,M,,*4B
$GPGSA,A,3,02,04,05,07,09,17,24,26,28,29,,,2.1,1.0,1.1*38
$GPRMC,181252,A,3925.9454,N,11945.9250,W,32.2,153.1,070106,15.2,E,D*05
$GPGGA,181252,3925.9454,N,11945.9250,W,2,10,1.1,1373.3,M,-22.1,M,,*41
$GPGSA,A,3,02,04,05,07,09,17,24,26,28,29,,,2.1,1.1,1.2*3A
$GPRMC,181254,A,3925.9293,N,11945.9145,W,32.6,153.3,070106,15.2,E,D*0F
$GPGGA,181254,3925.9293,N,11945.9145,W,2,10,1.1,1372.8,M,-22.1,M,,*47
$GPGSA,A,3,02,04,05,07,09,17,24,26,28,29,,,2.2,1.1,1.3*38
$GPRMC,181256,A,3925.9134,N,11945.9044,W,31.9,153.8,070106,15.2,E,D*04
$GPGGA,181256,3925.9134,N,11945.9044,W,2,10,1.3,1372.6,M,-22.1,M,,*47
$GPGSA,A,2,02,04,05,07,09,17,24,26,28,29,,,2.5,1.3,1.1*3E
$GPRMC,181258,A,3925.8982,N,11945.8946,W,30.9,153.1,070106,15.2,E,D*0C
$GPGGA,181258,3925.8982,N,11945.8946,W,2,10,1.3,1372.6,M,-22.1,M,,*47
$GPGSA,A,2,02,04,05,07,09,17,24,26,28,29,,,2.5,1.3,1.4*3B
$GPRMC,181300,A,3925.8833,N,11945.8851,W,29.2,154.3,070106,15.2,E,D*0A
$GPGGA,181300,3925.8833,N,11945.8851,W,2,10,1.0,1372.5,M,-22.1,M,,*47
$GPGSA,A,2,02,04,05,07,09,17,24,26,28,29,,,2.0,1.0,1.4*3D
$GPRMC,181302,A,3925.8697,N,11945.8763,W,26.9,153.4,070106,15.2,E,D*02
$GPGGA,181302,3925.8697,N,11945.8763,W,2,10,1.4,1372.5,M,-22.1,M,,*4F
$GPGSA,A,2,02,04,05,07,09,17,24,26,28,29,,,2.3,1.4,1.0*3E
$GPRMC,181304,A,3925.8571,N,11945.8682,W,24.5,153.5,070106,15.2,E,D*0E
$GPGGA,181304,3925.8571,N,11945.8682,W,2,09,1.8,1372.6,M,-22.1,M,,*4B
$GPGSA,A,2,02,04,05,07,09,17,24,26,28,,,,2.6,1.8,1.0*3C
$GPRMC,181306,A,3925.8458,N,11945.8609,W,22.5,153.4,070106,15.2,E,D*02
$GPGGA,181306,3925.8458,N,11945.8609,W,2,09,1.4,1372.8,M,-22.1,M,,*42
$GPGSA,A,2,02,04,05,07,09,17,24,26,28,,,,2.7,1.4,1.2*33
$GPRMC,181308,A,3925.8352,N,11945.8544,W,21.3,154.3,070106,15.2,E,D*0E
$GPGGA,181308,3925.8352,N,11945.8544,W,2,10,1.3,1373.1,M,-22.1,M,,*4C
$GPGSA,A,2,02,04,05,07,09,17,24,26,28,29,,,2.6,1.3,1.5*39
$GPRMC,181310,A,3925.8255,N,11945.8480,W,21.3,152.0,070106,15.2,E,D*0D
$GPGGA,181310,3925.8255,N,11945.8480,W,2,10,1.0,1373.5,M,-22.1,M,,*4D
$GPGSA,A,2,02,04,05,07,09,17,24,26,28,29,,,1.9,1.0,1.1*32
$GPRMC,181312,A,3925.8154,N,11945.8418,W,21.6,154.0,070106,15.2,E,D*0F
$GPGGA,181312,3925.8154,N,11945.8418,W,2,10,1.4,1374.0,M,-22.1,M,,*4A
$GPGSA,A,2,02,04,05,07,09,17,24,26,28,29,,,2.2,1.4,1.0*3F
$GPRMC,181314,A,3925.8048,N,11945.8349,W,21.8,152.5,070106,15.2,E,D*0B
$GPGGA,181314,3925.8048,N,11945.8349,W,2,10,1.3,1374.5,M,-22.1,M,,*41
$GPGSA,A,2,02,04,05,07,09,17,24,26,28,29,,,2.3,1.3,1.1*38
$GPRMC,181316,A,3925.7936,N,11945.8275,W,22.1,153.3,070106,15.2,E,D*05
$GPGGA,181316,3925.7936,N,11945.8275,W,2,10,1.3,1375.1,M,-22.1,M,,*47
$GPGSA,A,2,02,04,05,07,09,17,24,26,28,29,,,2.4,1.3,1.3*3D
$GPRMC,181318,A,3925.7825,N,11945.8203,W,21.6,153.9,070106,15.2,E,D*07
$GPGGA,181318,3925.7825,N,11945.8203,W,2,10,1.3,1375.5,M,-22.1,M,,*4F
$GPGSA,A,2,02,04,05,07,09,17,24,26,28,29,,,2.4,1.3,1.4*3A
$GPRMC,181320,A,3925.7720,N,11945.8135,W,20.3,153.3,070106,15.2,E,D*0E
$GPGGA,181320,3925.7720,N,11945.8135,W,2,10,1.1,1375.9,M,-22.1,M,,*46
$GPGSA,A,2,02,04,05,07,09,17,24,26,28,29,,,2.1,1.1,1.5*3C
$GPRMC,181322,A,3925.7612,N,11945.8065,W,21.9,153.5,070106,15.2,E,D*05
$GPGGA,181322,3925.7612,N,11945.8065,W,2,10,1.1,1376.2,M,-22.1,M,,*48
$GPGSA,A,2,02,04,05,07,09,17,24,26,28,29,,,2.1,1.1,1.5*3C
$GPRMC,181324,A,3925.7493,N,11945.7987,W,24.2,153.2,070106,15.2,E,A*0E
$GPGGA,181324,3925.7493,N,11945.7987,W,1,10,1.2,1376.5,M,-22.1,M,,*48
$GPGSA,A,3,02,04,05,07,09,17,24,26,28,29,,,2.5,1.2,1.9*36
$GPRMC,181326,A,3925.7364,N,11945.7901,W,26.3,152.7,070106,15.2,E,A*0A
$GPGGA,181326,3925.7364,N,11945.7901,W,1,09,1.2,1376.7,M,-22.1,M,,*41
$GPGSA,A,3,02,04,05,07,09,17,24,26,28,,,,2.5,1.2,1.9*3D
$GPRMC,181328,A,3925.7224,N,11945.7808,W,28.7,152.8,070106,15.2,E,A*0C
$GPGGA,181328,3925.7224,N,11945.7808,W,1,09,1.2,1377.0,M,-22.1,M,,*44
$GPGSA,A,3,02,04,05,07,09,,24,26,28,29,,,2.3,1.2,1.9*36
$GPRMC,181330,A,3925.7067,N,11945.7697,W,32.8,150.7,070106,15.2,E,A*01
$GPGGA,181330,3925.7067,N,11945.7697,W,1,09,1.0,1377.3,M,-22.1,M,,*41
$GPGSA,A,3,02,04,05,07,09,,24,26,28,29,,,1.9,1.0,1.6*32
$GPRMC,181332,A,3925.6897,N,11945.7576,W,34.7,151.6,070106,15.2,E,A*00
$GPGGA,181332,3925.6897,N,11945.7576,W,1,10,1.0,1377.6,M,-22.1,M,,*44
$GPGSA,A,3,02,04,05,07,09,17,24,26,28,29,,,2.0,1.0,1.7*3F
$GPRMC,181334,A,3925.6724,N,11945.7460,W,35.1,152.9,070106,15.2,E,A*0C
$GPGGA,181334,3925.6724,N,11945.7460,W,1,11,1.0,1377.9,M,-22.1,M,,*4D
$GPGSA,A,3,02,04,05,07,09,17,24,26,28,29,35,,2.0,1.0,1.7*39
$GPRMC,181336,A,3925.6545,N,11945.7344,W,35.9,153.2,070106,15.2,E,A*08
$GPGGA,181336,3925.6545,N,11945.7344,W,1,11,1.1,1378.3,M,-22.1,M,,*4F
$GPGSA,A,3,02,04,05,07,09,17,24,26,28,29,35,,1.8,1.1,1.5*31
$GPRMC,181338,A,3925.6362,N,11945.7226,W,36.6,153.5,070106,15.2,E,A*0B
$GPGGA,181338,3925.6362,N,11945.7226,W,1,11,1.1,1378.7,M,-22.1,M,,*43
$GPGSA,A,3,02,04,05,07,09,17,24,26,28,29,35,,1.8,1.1,1.5*31
$GPRMC,181340,A,3925.6176,N,11945.7104,W,37.7,152.9,070106,15.2,E,A*0D
$GPGGA,181340,3925.6176,N,11945.7104,W,1,11,1.3,1379.0,M,-22.1,M,,*4C
$GPGSA,A,3,02,04,05,07,09,17,24,26,28,29,35,,2.0,1.3,1.0*3D
$GPRMC,181342,A,3925.5985,N,11945.6977,W,38.7,152.8,070106,15.2,E,D*0E
$GPGGA,181342,3925.5985,N,11945.6977,W,2,11,0.9,1379.3,M,-22.1,M,,*4F
$GPGSA,A,3,02,04,05,07,09,17,24,26,28,29,35,,1.7,0.9,1.1*33
$GPRMC,181344,A,3925.5788,N,11945.6850,W,39.7,153.6,070106,15.2,E,D*01
$GPGGA,181344,3925.5788,N,11945.6850,W,2,11,1.0,1379.4,M,-22.1,M,,*41
$GPGSA,A,3,02,04,05,07,09,17,24,26,28,29,35,,1.8,1.0,1.3*36
$GPRMC,181346,A,3925.5587,N,11945.6719,W,40.7,153.4,070106,15.2,E,D*00
$GPGGA,181346,3925.5587,N,11945.6719,W,2,10,0.9,1379.5,M,-22.1,M,,*44
$GPGSA,A,3,02,04,05,07,09,17,24,26,28,29,,,1.7,0.9,1.3*37
$GPRMC,181348,A,3925.5381,N,11945.6584,W,41.7,153.2,070106,15.2,E,D*0F
$GPGGA,181348,3925.5381,N,11945.6584,W,2,10,1.0,1379.6,M,-22.1,M,,*47
$GPGSA,A,3,02,04,05,07,09,17,24,26,28,29,,,1.8,1.0,1.5*36
$GPRMC,181350,A,3925.5170,N,11945.6446,W,42.6,153.2,070106,15.2,E,D*07
$GPGGA,181350,3925.5170,N,11945.6446,W,2,10,1.0,1379.8,M,-22.1,M,,*43
$GPGSA,A,3,02,04,05,07,09,17,24,26,28,29,,,1.8,1.0,1.5*36
$GPRMC,181352,A,3925.4954,N,11945.6307,W,43.5,153.7,070106,15.2,E,D*0F
$GPGGA,181352,3925.4954,N,11945.6307,W,2,10,1.0,1380.0,M,-22.1,M,,*42
$GPGSA,A,3,02,04,05,07,09,17,24,26,28,29,,,1.9,1.0,1.5*37
$GPRMC,181354,A,3925.4734,N,11945.6167,W,44.3,153.4,070106,15.2,E,D*07
$GPGGA,181354,3925.4734,N,11945.6167,W,2,10,1.0,1380.3,M,-22.1,M,,*4B
$GPGSA,A,3,02,04,05,07,09,17,24,26,28,29,,,2.0,1.0,1.6*3E
$GPRMC,181356,A,3925.4510,N,11945.6021,W,45.1,153.2,070106,15.2,E,D*07
$GPGGA,181356,3925.4510,N,11945.6021,W,2,10,1.1,1380.6,M,-22.1,M,,*4A
$GPGSA,A,3,02,04,05,07,09,17,24,26,28,29,,,2.1,1.1,1.7*3F
$GPRMC,181358,A,3925.4283,N,11945.5874,W,46.0,153.3,070106,15.2,E,D*0C
$GPGGA,181358,3925.4283,N,11945.5874,W,2,10,1.0,1380.8,M,-22.1,M,,*4D
$GPGSA,A,3,02,04,05,07,09,17,24,26,28,29,,,2.0,1.0,1.7*3F
$GPRMC,181400,A,3925.4052,N,11945.5725,W,46.5,153.6,070106,15.2,E,D*03
$GPGGA,181400,3925.4052,N,11945.5725,W,2,10,1.1,1380.7,M,-22.1,M,,*4C
$GPGSA,A,3,02,04,05,07,09,17,24,26,28,29,,,2.1,1.1,1.8*30
$GPRMC,181402,A,3925.3821,N,11945.5574,W,46.7,153.6,070106,15.2,E,D*0E
$GPGGA,181402,3925.3821,N,11945.5574,W,2,10,1.1,1380.4,M,-22.1,M,,*40
$GPGSA,A,3,02,04,05,07,09,17,24,26,28,29,,,2.2,1.1,1.9*32
$GPRMC,181404,A,3925.3590,N,11945.5430,W,45.8,154.2,070106,15.2,E,D*01
$GPGGA,181404,3925.3590,N,11945.5430,W,2,10,1.0,1380.0,M,-22.1,M,,*45
$GPGSA,A,3,02,04,05,07,09,17,24,26,28,29,,,2.1,1.0,1.8*31
$GPRMC,181406,A,3925.3362,N,11945.5292,W,45.0,155.0,070106,15.2,E,D*0D
$GPGGA,181406,3925.3362,N,11945.5292,W,2,10,1.1,1379.9,M,-22.1,M,,*4C
$GPGSA,A,3,02,04,05,07,09,17,24,26,28,29,,,2.3,1.1,2.0*39
$GPRMC,181408,A,3925.3138,N,11945.5156,W,44.3,154.6,070106,15.2,E,D*00
$GPGGA,181408,3925.3138,N,11945.5156,W,2,10,1.0,1379.9,M,-22.1,M,,*45
$GPGSA,A,3,02,04,05,07,09,17,24,26,28,29,,,2.0,1.0,1.8*30
$GPRMC,181410,A,3925.2922,N,11945.5020,W,42.8,153.8,070106,15.2,E,D*0F
$GPGGA,181410,3925.2922,N,11945.5020,W,2,10,1.0,1379.8,M,-22.1,M,,*4F
$GPGSA,A,3,02,04,05,07,09,17,24,26,28,29,,,2.0,1.0,1.7*3F
$GPRMC,181412,A,3925.2714,N,11945.4886,W,41.4,153.3,070106,15.2,E,D*07
$GPGGA,181412,3925.2714,N,11945.4886,W,2,11,1.0,1379.9,M,-22.1,M,,*43
$GPGSA,A,3,02,04,05,07,09,17,24,26,28,29,35,,2.1,1.0,1.9*36
$GPRMC,181414,A,3925.2513,N,11945.4756,W,40.0,153.5,070106,15.2,E,D*05
$GPGGA,181414,3925.2513,N,11945.4756,W,2,11,1.0,1379.8,M,-22.1,M,,*43
$GPGSA,A,3,02,04,05,07,09,17,24,26,28,29,35,,2.0,1.0,1.7*39
$GPRMC,181416,A,3925.2320,N,11945.4632,W,38.5,153.6,070106,15.2,E,D*0B
$GPGGA,181416,3925.2320,N,11945.4632,W,2,10,1.0,1379.6,M,-22.1,M,,*4B
$GPGSA,A,3,02,04,05,07,09,17,24,26,28,29,,,2.0,1.0,1.7*3F
$GPRMC,181418,A,3925.2134,N,11945.4512,W,37.0,153.3,070106,15.2,E,D*0C
$GPGGA,181418,3925.2134,N,11945.4512,W,2,09,1.0,1379.6,M,-22.1,M,,*4B
$GPGSA,A,3,02,04,05,07,09,17,24,26,28,,,,2.0,1.0,1.7*34
$GPRMC,181420,A,3925.1955,N,11945.4398,W,35.4,153.6,070106,15.2,E,D*0C
$GPGGA,181420,3925.1955,N,11945.4398,W,2,09,1.0,1379.6,M,-22.1,M,,*48
$GPGSA,A,3,02,04,05,07,09,17,24,26,28,,,,2.1,1.0,1.9*3B
$GPRMC,181422,A,3925.1795,N,11945.4297,W,30.8,153.9,070106,15.2,E,D*04
$GPGGA,181422,3925.1795,N,11945.4297,W,2,10,1.0,1379.7,M,-22.1,M,,*4F
$GPGSA,A,3,02,04,05,07,09,17,24,26,28,,35,,2.1,1.0,1.9*3D
$GPRMC,181424,A,3925.1664,N,11945.4213,W,24.7,153.4,070106,15.2,E,D*06
$GPGGA,181424,3925.1664,N,11945.4213,W,2,10,1.1,1380.1,M,-22.1,M,,*4B
$GPGSA,A,3,02,04,05,07,09,17,24,26,28,,35,,2.3,1.1,2.0*34
$GPRMC,181426,A,3925.1568,N,11945.4150,W,17.3,153.0,070106,15.2,E,D*0F
$GPGGA,181426,3925.1568,N,11945.4150,W,2,10,1.0,1380.4,M,-22.1,M,,*46
$GPGSA,A,3,02,04,05,07,09,17,24,26,28,,35,,2.0,1.0,1.7*32
$GPRMC,181428,A,3925.1511,N,11945.4113,W,9.7,153.0,070106,15.2,E,D*33
$GPGGA,181428,3925.1511,N,11945.4113,W,2,10,1.1,1380.5,M,-22.1,M,,*41
$GPGSA,A,3,02,04,05,07,09,17,24,26,28,,35,,2.3,1.1,2.0*34
$GPRMC,181430,A,3925.1484,N,11945.4095,W,4.2,153.1,070106,15.2,E,D*31
$GPGGA,181430,3925.1484,N,11945.4095,W,2,10,1.1,1380.6,M,-22.1,M,,*49
$GPGSA,A,3,02,04,05,07,09,17,24,26,28,,35,,2.1,1.1,1.7*32
$GPRMC,181432,A,3925.1481,N,11945.4093,W,0.0,153.1,070106,15.2,E,D*36
$GPGGA,181432,3925.1481,N,11945.4093,W,2,10,1.1,1380.4,M,-22.1,M,,*4A
$GPGSA,A,3,02,04,05,07,09,17,24,26,28,,35,,2.2,1.1,1.9*3F
$GPRMC,181434,A,3925.1480,N,11945.4094,W,0.0,153.1,070106,15.2,E,D*36
$GPGGA,181434,3925.1480,N,11945.4094,W,2,10,1.2,1381.0,M,-22.1,M,,*4C
$GPGSA,A,3,02,04,05,07,09,17,24,26,28,,35,,2.3,1.2,1.9*3D
$GPRMC,181436,A,3925.1480,N,11945.4095,W,0.0,153.1,070106,15.2,E,D*35
$GPGGA,181436,3925.1480,N,11945.4095,W,2,10,1.0,1381.4,M,-22.1,M,,*49
$GPGSA,A,3,02,04,05,07,09,17,24,26,28,,35,,2.1,1.0,1.8*3C
$GPRMC,181438,A,3925.1480,N,11945.4096,W,0.0,153.1,070106,15.2,E,D*38
$GPGGA,181438,3925.1480,N,11945.4096,W,2,10,1.0,1381.6,M,-22.1,M,,*46
$GPGSA,A,3,02,04,05,07,09,17,24,26,28,,35,,2.1,1.0,1.8*3C
$GPRMC,181440,A,3925.1479,N,11945.4096,W,0.0,153.1,070106,15.2,E,D*31
$GPGGA,181440,3925.1479,N,11945.4096,W,2,09,1.5,1381.7,M,-22.1,M,,*43
$GPGSA,A,3,02,04,05,07,09,17,24,26,28,,,,2.4,1.5,1.0*32
$GPRMC,181442,A,3925.1479,N,11945.4096,W,0.0,153.1,070106,15.2,E,D*33
$GPGGA,181442,3925.1479,N,11945.4096,W,2,09,1.5,1381.8,M,-22.1,M,,*4E
$GPGSA,A,3,02,04,05,07,09,17,24,26,28,,,,2.4,1.5,1.0*32
$GPRMC,181444,A,3925.1479,N,11945.4096,W,0.0,153.1,070106,15.2,E,D*35
$GPGGA,181444,3925.1479,N,11945.4096,W,2,09,1.5,1381.8,M,-22.1,M,,*48
$GPGSA,A,3,02,04,05,07,09,17,24,26,28,,,,2.4,1.5,1.0*32
$GPRMC,181446,A,3925.1478,N,11945.4096,W,0.0,153.1,070106,15.2,E,D*36
$GPGGA,181446,3925.1478,N,11945.4096,W,2,09,1.9,1381.8,M,-22.1,M,,*47
$GPGSA,A,3,02,04,05,07,09,17,24,26,28,,,,2.7,1.9,1.0*3D
$GPRMC,181448,A,3925.1478,N,11945.4095,W,0.0,153.1,070106,15.2,E,D*3B
$GPGGA,181448,3925.1478,N,11945.4095,W,2,09,1.0,1381.8,M,-22.1,M,,*43
$GPGSA,A,3,02,04,05,07,09,17,24,26,28,,,,2.0,1.0,1.1*32
$GPRMC,181450,A,3925.1477,N,11945.4095,W,0.0,153.1,070106,15.2,E,A*38
$GPGGA,181450,3925.1477,N,11945.4095,W,1,09,1.0,1381.9,M,-22.1,M,,*47
$GPGSA,A,3,02,04,05,07,09,17,24,26,28,,,,2.0,1.0,1.1*32
$GPRMC,181452,A,3925.1477,N,11945.4094,W,0.0,153.1,070106,15.2,E,A*3B
$GPGGA,181452,3925.1477,N,11945.4094,W,1,09,1.0,1382.0,M,-22.1,M,,*4E
$GPGSA,A,3,02,04,05,07,09,17,24,26,28,,,,2.0,1.0,1.1*32
$GPRMC,181454,A,3925.1476,N,11945.4094,W,0.0,153.1,070106,15.2,E,A*3C
$GPGGA,181454,3925.1476,N,11945.4094,W,1,09,1.0,1381.9,M,-22.1,M,,*43
$GPGSA,A,3,02,04,05,07,09,17,24,26,28,,,,2.0,1.0,1.1*32
$GPRMC,181456,A,3925.1476,N,11945.4094,W,0.0,153.1,070106,15.2,E,A*3E
$GPGGA,181456,3925.1476,N,11945.4094,W,1,09,1.0,1381.8,M,-22.1,M,,*40
$GPGSA,A,3,02,04,05,07,09,17,24,26,28,,,,2.0,1.0,1.1*32
$GPRMC,181458,A,3925.1476,N,11945.4094,W,0.0,153.1,070106,15.2,E,A*30
$GPGGA,181458,3925.1476,N,11945.4094,W,1,09,1.0,1381.7,M,-22.1,M,,*41
$GPGSA,A,3,02,04,05,07,09,17,24,26,28,,,,2.0,1.0,1.2*31
$GPRMC,181500,A,3925.1476,N,11945.4094,W,0.0,153.1,070106,15.2,E,A*3C
$GPGGA,181500,3925.1476,N,11945.4094,W,1,09,1.0,1381.7,M,-22.1,M,,*4D
$GPGSA,A,3,02,04,05,07,09,17,24,26,28,,,,2.0,1.0,1.2*31
$GPRMC,181502,A,3925.1476,N,11945.4093,W,0.0,153.1,070106,15.2,E,A*39
$GPGGA,181502,3925.1476,N,11945.4093,W,1,09,1.0,1381.7,M,-22.1,M,,*48
$GPGSA,A,3,02,04,05,07,09,17,24,26,28,,,,2.0,1.0,1.2*31
$GPRMC,181504,A,3925.1476,N,11945.4093,W,0.0,153.1,070106,15.2,E,A*3F
$GPGGA,181504,3925.1476,N,11945.4093,W,1,09,1.0,1381.9,M,-22.1,M,,*40
$GPGSA,A,3,02,04,05,07,09,17,24,26,28,,,,2.0,1.0,1.2*31
$GPRMC,181506,A,3925.1475,N,11945.4093,W,0.0,153.1,070106,15.2,E,A*3E
$GPGGA,181506,3925.1475,N,11945.4093,W,1,09,1.0,1382.1,M,-22.1,M,,*4A
$GPGSA,A,3,02,04,05,07,09,17,24,26,28,,,,2.0,1.0,1.4*37
$GPRMC,181508,A,3925.1475,N,11945.4093,W,0.0,153.1,070106,15.2,E,A*30
$GPGGA,181508,3925.1475,N,11945.4093,W,1,09,1.0,1382.4,M,-22.1,M,,*41
$GPGSA,A,3,02,04,05,07,09,17,24,26,28,,,,2.0,1.0,1.4*37
$GPRMC,181510,A,3925.1475,N,11945.4093,W,0.0,153.1,070106,15.2,E,A*39
$GPGGA,181510,3925.1475,N,11945.4093,W,1,09,1.0,1382.8,M,-22.1,M,,*44
$GPGSA,A,3,02,04,05,07,09,17,24,26,28,,,,2.0,1.0,1.4*37
$GPRMC,181512,A,3925.1475,N,11945.4093,W,0.0,153.1,070106,15.2,E,A*3B
$GPGGA,181512,3925.1475,N,11945.4093,W,1,09,1.0,1383.3,M,-22.1,M,,*4C
$GPGSA,A,3,02,04,05,07,09,17,24,26,28,,,,2.0,1.0,1.5*36
$GPRMC,181514,A,3925.1475,N,11945.4093,W,0.0,153.1,070106,15.2,E,A*3D
$GPGGA,181514,3925.1475,N,11945.4093,W,1,09,1.0,1383.7,M,-22.1,M,,*4E
$GPGSA,A,3,02,04,05,07,09,17,24,26,28,,,,2.0,1.0,1.5*36
$GPRMC,181516,A,3925.1475,N,11945.4093,W,0.0,153.1,070106,15.2,E,A*3F
$GPGGA,181516,3925.1475,N,11945.4093,W,1,09,1.0,1384.0,M,-22.1,M,,*4C
$GPGSA,A,3,02,04,05,07,09,17,24,26,28,,,,2.0,1.0,1.5*36
$GPRMC,181518,A,3925.1475,N,11945.4093,W,0.0,153.1,070106,15.2,E,A*31
$GPGGA,181518,3925.1475,N,11945.4093,W,1,09,1.0,1384.2,M,-22.1,M,,*40
$GPGSA,A,3,02,04,05,07,09,17,24,26,28,,,,2.0,1.0,1.5*36
$GPRMC,181520,A,3925.1475,N,11945.4093,W,0.0,153.1,070106,15.2,E,A*3A
$GPGGA,181520,3925.1475,N,11945.4093,W,1,09,1.0,1384.4,M,-22.1,M,,*4D
$GPGSA,A,3,02,04,05,07,09,17,24,26,28,,,,2.0,1.0,1.5*36
$GPRMC,181522,A,3925.1474,N,11945.4093,W,0.0,153.1,070106,15.2,E,A*39
$GPGGA,181522,3925.1474,N,11945.4093,W,1,09,1.0,1384.5,M,-22.1,M,,*4F
$GPGSA,A,3,02,04,05,07,09,17,24,26,28,,,,2.0,1.0,1.5*36
$GPRMC,181524,A,3925.1474,N,11945.4093,W,0.0,153.1,070106,15.2,E,A*3F
$GPGGA,181524,3925.1474,N,11945.4093,W,1,09,1.0,1384.7,M,-22.1,M,,*4B
$GPGSA,A,3,02,04,05,07,09,17,24,26,28,,,,2.0,1.0,1.6*35
$GPRMC,181526,A,3925.1474,N,11945.4093,W,2.0,153.4,070106,15.2,E,A*3A
$GPGGA,181526,3925.1474,N,11945.4093,W,1,09,1.1,1384.3,M,-22.1,M,,*4C
$GPGSA,A,3,02,04,05,07,09,17,24,26,28,,,,2.4,1.1,2.0*35
$GPRMC,181528,A,3925.1430,N,11945.4064,W,8.9,153.3,070106,15.2,E,A*38
$GPGGA,181528,3925.1430,N,11945.4064,W,1,09,1.1,1383.8,M,-22.1,M,,*46
$GPGSA,A,3,02,04,05,07,09,17,24,26,28,,,,2.4,1.1,2.0*35
$GPRMC,181530,A,3925.1366,N,11945.4022,W,14.0,153.4,070106,15.2,E,A*04
$GPGGA,181530,3925.1366,N,11945.4022,W,1,09,1.1,1383.5,M,-22.1,M,,*44
$GPGSA,A,3,02,04,05,07,09,17,24,26,28,,,,2.4,1.1,2.0*35
$GPRMC,181532,A,3925.1294,N,11945.3972,W,15.0,153.7,070106,15.2,E,A*03
$GPGGA,181532,3925.1294,N,11945.3972,W,1,09,1.1,1383.0,M,-22.1,M,,*44
$GPGSA,A,3,02,04,05,07,09,17,24,26,28,,,,2.4,1.1,2.0*35
$GPRMC,181534,A,3925.1210,N,11945.3918,W,18.2,154.7,070106,15.2,E,A*0D
$GPGGA,181534,3925.1210,N,11945.3918,W,1,09,1.0,1383.0,M,-22.1,M,,*43
$GPGSA,A,3,02,04,05,07,09,17,24,26,28,,,,2.0,1.0,1.7*34
$GPRMC,181536,A,3925.1101,N,11945.3847,W,22.8,153.1,070106,15.2,E,A*05
$GPGGA,181536,3925.1101,N,11945.3847,W,1,09,1.1,1382.5,M,-22.1,M,,*4C
$GPGSA,A,3,02,04,05,07,09,17,24,26,28,,,,2.0,1.1,1.0*32
$GPRMC,181538,A,3925.0987,N,11945.3770,W,23.4,153.6,070106,15.2,E,A*0D
$GPGGA,181538,3925.0987,N,11945.3770,W,1,09,1.1,1382.0,M,-22.1,M,,*4B
$GPGSA,A,3,02,04,05,07,09,17,24,26,28,,,,2.0,1.1,1.0*32
$GPRMC,181540,A,3925.0858,N,11945.3688,W,26.6,154.1,070106,15.2,E,A*00
$GPGGA,181540,3925.0858,N,11945.3688,W,1,10,1.2,1381.8,M,-22.1,M,,*41
$GPGSA,A,3,02,04,05,07,09,17,24,26,28,29,,,2.2,1.2,1.2*3A
$GPRMC,181542,A,3925.0712,N,11945.3598,W,29.7,154.3,070106,15.2,E,D*08
$GPGGA,181542,3925.0712,N,11945.3598,W,2,10,1.3,1382.0,M,-22.1,M,,*49
$GPGSA,A,3,02,04,05,07,09,17,24,26,28,29,,,2.3,1.3,1.3*3B
$GPRMC,181544,A,3925.0556,N,11945.3493,W,32.4,152.2,070106,15.2,E,D*08
$GPGGA,181544,3925.0556,N,11945.3493,W,2,10,1.3,1382.0,M,-22.1,M,,*47
$GPGSA,A,3,02,04,05,07,09,17,24,26,28,29,,,2.6,1.3,1.8*35
$GPRMC,181546,A,3925.0388,N,11945.3381,W,34.5,152.3,070106,15.2,E,D*0D
$GPGGA,181546,3925.0388,N,11945.3381,W,2,10,1.3,1382.4,M,-22.1,M,,*40
$GPGSA,A,3,02,04,05,07,09,17,24,26,28,29,,,2.6,1.3,1.9*34
$GPRMC,181548,A,3925.0217,N,11945.3267,W,34.3,152.7,070106,15.2,E,D*0F
$GPGGA,181548,3925.0217,N,11945.3267,W,2,10,1.3,1382.5,M,-22.1,M,,*41
$GPGSA,A,3,02,04,05,07,09,17,24,26,28,29,,,2.6,1.3,1.9*34
$GPRMC,181550,A,3925.0048,N,11945.3156,W,34.5,153.1,070106,15.2,E,D*0E
$GPGGA,181550,3925.0048,N,11945.3156,W,2,09,1.2,1382.5,M,-22.1,M,,*48
$GPGSA,A,3,02,04,05,07,09,17,24,26,28,,,,2.8,1.2,2.2*38
$GPRMC,181552,A,3924.9873,N,11945.3044,W,35.5,153.6,070106,15.2,E,D*00
$GPGGA,181552,3924.9873,N,11945.3044,W,2,08,1.3,1382.2,M,-22.1,M,,*47
$GPGSA,A,3,02,04,05,07,09,17,24,26,,,,,3.0,1.3,2.4*3C
$GPRMC,181554,A,3924.9694,N,11945.2929,W,36.3,153.5,070106,15.2,E,D*04
$GPGGA,181554,3924.9694,N,11945.2929,W,2,08,1.3,1381.6,M,-22.1,M,,*42
$GPGSA,A,3,02,04,05,07,09,17,24,26,,,,,3.1,1.3,2.6*3F
$GPRMC,181556,A,3924.9512,N,11945.2812,W,37.0,153.2,070106,15.2,E,D*07
$GPGGA,181556,3924.9512,N,11945.2812,W,2,08,1.3,1380.9,M,-22.1,M,,*4A
$GPGSA,A,3,02,04,05,07,09,17,24,26,,,,,3.3,1.3,2.8*33
$GPRMC,181558,A,3924.9326,N,11945.2690,W,37.9,153.2,070106,15.2,E,D*05
$GPGGA,181558,3924.9326,N,11945.2690,W,2,09,1.4,1380.5,M,-22.1,M,,*4B
$GPGSA,A,3,02,04,05,07,09,17,24,26,28,,,,3.4,1.4,3.0*30
$GPRMC,181600,A,3924.9135,N,11945.2567,W,38.7,153.5,070106,15.2,E,D*06
$GPGGA,181600,3924.9135,N,11945.2567,W,2,09,1.4,1380.4,M,-22.1,M,,*4F
$GPGSA,A,3,02,04,05,07,09,17,24,26,28,,,,3.6,1.4,3.2*30
$GPRMC,181602,A,3924.8940,N,11945.2441,W,39.5,153.4,070106,15.2,E,D*08
$GPGGA,181602,3924.8940,N,11945.2441,W,2,09,1.4,1380.6,M,-22.1,M,,*41
$GPGSA,A,3,02,04,05,07,09,17,24,26,28,,,,3.4,1.4,3.1*31
$GPRMC,181604,A,3924.8741,N,11945.2312,W,40.2,153.2,070106,15.2,E,D*0F
$GPGGA,181604,3924.8741,N,11945.2312,W,2,10,1.5,1380.8,M,-22.1,M,,*4E
$GPGSA,A,3,02,04,05,07,09,17,24,26,28,,35,,3.7,1.5,3.4*30
$GPRMC,181606,A,3924.8540,N,11945.2179,W,40.8,152.7,070106,15.2,E,D*0F
$GPGGA,181606,3924.8540,N,11945.2179,W,2,10,1.3,1381.0,M,-22.1,M,,*4F
$GPGSA,A,3,02,04,05,07,09,17,24,26,28,,35,,2.8,1.3,2.4*39
$GPRMC,181608,A,3924.8337,N,11945.2042,W,41.3,152.2,070106,15.2,E,D*01
$GPGGA,181608,3924.8337,N,11945.2042,W,2,10,1.2,1381.3,M,-22.1,M,,*4C
$GPGSA,A,3,02,04,05,07,09,17,24,26,28,,35,,2.4,1.2,2.1*31
$GPRMC,181610,A,3924.8131,N,11945.1904,W,41.7,152.5,070106,15.2,E,D*07
$GPGGA,181610,3924.8131,N,11945.1904,W,2,09,1.2,1381.6,M,-22.1,M,,*44
$GPGSA,A,3,02,04,05,07,09,17,24,26,28,,,,2.2,1.2,1.8*3B
$GPRMC,181612,A,3924.7924,N,11945.1765,W,42.1,152.8,070106,15.2,E,D*07
$GPGGA,181612,3924.7924,N,11945.1765,W,2,09,1.2,1381.8,M,-22.1,M,,*42
$GPGSA,A,3,02,04,05,07,09,17,24,26,28,,,,2.3,1.2,1.9*3B
$GPRMC,181614,A,3924.7715,N,11945.1627,W,42.4,152.9,070106,15.2,E,D*0E
$GPGGA,181614,3924.7715,N,11945.1627,W,2,09,1.2,1381.9,M,-22.1,M,,*4E
$GPGSA,A,3,02,04,05,07,09,17,24,26,28,,,,2.4,1.2,2.0*36
$GPRMC,181616,A,3924.7503,N,11945.1488,W,42.8,153.1,070106,15.2,E,D*0B
$GPGGA,181616,3924.7503,N,11945.1488,W,2,09,1.2,1382.1,M,-22.1,M,,*45
$GPGSA,A,3,02,04,05,07,09,17,24,26,28,,,,2.4,1.2,2.0*36
$GPRMC,181618,A,3924.7290,N,11945.1350,W,42.9,153.3,070106,15.2,E,D*09
$GPGGA,181618,3924.7290,N,11945.1350,W,2,09,1.1,1382.2,M,-22.1,M,,*44
$GPGSA,A,3,02,04,05,07,09,17,24,26,28,,,,2.2,1.1,1.9*39
$GPRMC,181620,A,3924.7077,N,11945.1211,W,43.0,153.2,070106,15.2,E,D*04
$GPGGA,181620,3924.7077,N,11945.1211,W,2,09,1.0,1382.4,M,-22.1,M,,*47
$GPGSA,A,3,02,04,05,07,09,17,24,26,28,,,,2.0,1.0,1.7*34
$GPRMC,181622,A,3924.6862,N,11945.1072,W,43.1,153.3,070106,15.2,E,D*0C
$GPGGA,181622,3924.6862,N,11945.1072,W,2,09,1.0,1382.6,M,-22.1,M,,*4D
$GPGSA,A,3,02,04,05,07,09,17,24,26,28,,,,2.0,1.0,1.7*34
$GPRMC,181624,A,3924.6647,N,11945.0933,W,43.3,153.3,070106,15.2,E,D*0C
$GPGGA,181624,3924.6647,N,11945.0933,W,2,09,1.0,1382.8,M,-22.1,M,,*41
$GPGSA,A,3,02,04,05,07,09,17,24,26,28,,,,2.1,1.0,1.8*3A
$GPRMC,181626,A,3924.6430,N,11945.0794,W,43.4,153.3,070106,15.2,E,D*08
$GPGGA,181626,3924.6430,N,11945.0794,W,2,09,1.1,1383.3,M,-22.1,M,,*49
$GPGSA,A,3,02,04,05,07,09,17,24,26,28,,,,2.3,1.1,2.0*32
$GPRMC,181628,A,3924.6214,N,11945.0654,W,43.6,153.5,070106,15.2,E,D*0F
$GPGGA,181628,3924.6214,N,11945.0654,W,2,10,1.1,1383.7,M,-22.1,M,,*46
$GPGSA,A,3,02,04,05,07,09,17,24,26,28,,35,,2.4,1.1,2.1*32
$GPRMC,181630,A,3924.5998,N,11945.0514,W,43.7,153.5,070106,15.2,E,D*0C
$GPGGA,181630,3924.5998,N,11945.0514,W,2,10,0.9,1384.1,M,-22.1,M,,*4C
$GPGSA,A,3,02,04,05,07,09,17,24,26,28,,35,,1.6,0.9,1.4*3C
$GPRMC,181632,A,3924.5780,N,11945.0375,W,43.7,153.7,070106,15.2,E,D*0A
$GPGGA,181632,3924.5780,N,11945.0375,W,2,10,0.9,1384.5,M,-22.1,M,,*4C
$GPGSA,A,3,02,04,05,07,09,17,24,26,28,,35,,1.6,0.9,1.4*3C
$GPRMC,181634,A,3924.5562,N,11945.0234,W,43.8,153.2,070106,15.2,E,D*0C
$GPGGA,181634,3924.5562,N,11945.0234,W,2,10,0.9,1384.6,M,-22.1,M,,*43
$GPGSA,A,3,02,04,05,07,09,17,24,26,28,,35,,1.8,0.9,1.5*33
$GPRMC,181636,A,3924.5345,N,11945.0093,W,43.8,153.2,070106,15.2,E,D*02
$GPGGA,181636,3924.5345,N,11945.0093,W,2,10,0.9,1384.8,M,-22.1,M,,*43
$GPGSA,A,3,02,04,05,07,09,17,24,26,28,,35,,1.8,0.9,1.5*33
$GPRMC,181638,A,3924.5125,N,11944.9956,W,44.4,154.9,070106,15.2,E,D*07
$GPGGA,181638,3924.5125,N,11944.9956,W,2,10,1.0,1385.0,M,-22.1,M,,*40
$GPGSA,A,3,02,04,05,07,09,17,24,26,28,,35,,1.8,1.0,1.5*3B
$GPRMC,181640,A,3924.4900,N,11944.9822,W,44.6,154.9,070106,15.2,E,D*06
$GPGGA,181640,3924.4900,N,11944.9822,W,2,10,1.1,1385.2,M,-22.1,M,,*40
$GPGSA,A,3,02,04,05,07,09,17,24,26,28,,35,,2.0,1.1,1.7*33
$GPRMC,181642,A,3924.4676,N,11944.9687,W,44.5,154.6,070106,15.2,E,D*07
$GPGGA,181642,3924.4676,N,11944.9687,W,2,10,1.1,1385.3,M,-22.1,M,,*4C
$GPGSA,A,3,02,04,05,07,09,17,24,26,28,,35,,2.2,1.1,1.9*3F
$GPRMC,181644,A,3924.4454,N,11944.9552,W,44.2,154.7,070106,15.2,E,D*0E
$GPGGA,181644,3924.4454,N,11944.9552,W,2,09,1.1,1385.5,M,-22.1,M,,*4D
$GPGSA,A,3,02,04,,07,09,17,24,26,28,,35,,2.2,1.1,1.9*3A
$GPRMC,181646,A,3924.4236,N,11944.9418,W,43.7,154.0,070106,15.2,E,D*04
$GPGGA,181646,3924.4236,N,11944.9418,W,2,08,1.2,1386.1,M,-22.1,M,,*47
$GPGSA,A,3,02,04,,07,09,17,24,26,28,,,,2.4,1.2,2.1*32
$GPRMC,181648,A,3924.4020,N,11944.9283,W,43.2,154.3,070106,15.1,E,D*0E
$GPGGA,181648,3924.4020,N,11944.9283,W,2,09,1.2,1386.4,M,-22.1,M,,*4C
$GPGSA,A,3,02,04,05,07,09,17,24,26,28,,,,2.5,1.2,2.1*36
$GPRMC,181650,A,3924.3806,N,11944.9150,W,42.6,154.4,070106,15.1,E,D*03
$GPGGA,181650,3924.3806,N,11944.9150,W,2,09,1.2,1386.8,M,-22.1,M,,*4F
$GPGSA,A,3,02,04,05,07,09,17,24,26,28,,,,2.4,1.2,2.0*36
$GPRMC,181652,A,3924.3594,N,11944.9020,W,42.0,154.7,070106,15.1,E,D*04
$GPGGA,181652,3924.3594,N,11944.9020,W,2,09,1.2,1387.2,M,-22.1,M,,*46
$GPGSA,A,3,02,04,05,07,09,17,24,26,28,,,,2.5,1.2,2.1*36
$GPRMC,181654,A,3924.3384,N,11944.8894,W,41.5,154.9,070106,15.1,E,D*0B
$GPGGA,181654,3924.3384,N,11944.8894,W,2,09,1.3,1387.6,M,-22.1,M,,*44
$GPGSA,A,3,02,04,05,07,09,17,24,26,28,,,,2.5,1.3,2.1*37
$GPRMC,181656,A,3924.3179,N,11944.8765,W,41.1,153.9,070106,15.1,E,A*0E
$GPGGA,181656,3924.3179,N,11944.8765,W,1,09,1.3,1387.9,M,-22.1,M,,*4B
$GPGSA,A,3,02,04,05,07,09,17,24,26,28,,,,2.5,1.3,2.1*37
$GPRMC,181658,A,3924.2976,N,11944.8637,W,40.6,153.9,070106,15.1,E,A*06
$GPGGA,181658,3924.2976,N,11944.8637,W,1,09,1.2,1388.1,M,-22.1,M,,*43
$GPGSA,A,3,02,04,05,07,09,17,24,26,28,,,,2.4,1.2,2.0*36
$GPRMC,181700,A,3924.2776,N,11944.8511,W,39.7,153.9,070106,15.1,E,A*0C
$GPGGA,181700,3924.2776,N,11944.8511,W,1,09,1.0,1388.5,M,-22.1,M,,*40
$GPGSA,A,3,02,04,05,07,09,17,24,26,28,,,,2.1,1.0,1.8*3A
$GPRMC,181702,A,3924.2584,N,11944.8387,W,38.2,153.3,070106,15.1,E,A*06
$GPGGA,181702,3924.2584,N,11944.8387,W,1,09,1.0,1389.0,M,-22.1,M,,*40
$GPGSA,A,3,02,04,05,07,09,17,24,26,28,,,,2.1,1.0,1.8*3A
$GPRMC,181704,A,3924.2402,N,11944.8268,W,35.9,153.3,070106,15.1,E,A*09
$GPGGA,181704,3924.2402,N,11944.8268,W,1,09,1.0,1389.3,M,-22.1,M,,*4A
$GPGSA,A,3,02,04,05,07,09,17,24,26,28,,,,1.9,1.0,1.7*3E
$GPRMC,181706,A,3924.2237,N,11944.8161,W,32.3,153.5,070106,15.1,E,D*0F
$GPGGA,181706,3924.2237,N,11944.8161,W,2,09,1.3,1389.9,M,-22.1,M,,*48
$GPGSA,A,3,02,04,05,07,09,17,24,26,28,,,,2.2,1.3,1.2*30
$GPRMC,181708,A,3924.2091,N,11944.8069,W,27.9,153.8,070106,15.1,E,D*05
$GPGGA,181708,3924.2091,N,11944.8069,W,2,09,1.0,1390.4,M,-22.1,M,,*47
$GPGSA,A,3,02,04,05,07,09,17,24,26,28,,,,1.9,1.0,1.3*3A
$GPRMC,181710,A,3924.1970,N,11944.7994,W,22.9,154.2,070106,15.1,E,D*05
$GPGGA,181710,3924.1970,N,11944.7994,W,2,09,1.0,1390.8,M,-22.1,M,,*43
$GPGSA,A,3,02,04,05,07,09,17,24,26,28,,,,1.9,1.0,1.3*3A
$GPRMC,181712,A,3924.1863,N,11944.7942,W,20.0,161.4,070106,15.1,E,D*04
$GPGGA,181712,3924.1863,N,11944.7942,W,2,09,1.0,1390.7,M,-22.1,M,,*46
$GPGSA,A,3,02,04,05,07,09,17,24,26,28,,,,2.1,1.0,1.5*37
$GPRMC,181714,A,3924.1772,N,11944.7925,W,15.2,175.6,070106,15.1,E,D*0F
$GPGGA,181714,3924.1772,N,11944.7925,W,2,09,1.1,1390.8,M,-22.1,M,,*40
$GPGSA,A,3,02,04,05,07,09,17,24,26,28,,,,2.3,1.1,1.8*39
$GPRMC,181716,A,3924.1694,N,11944.7945,W,14.5,198.2,070106,15.1,E,D*03
$GPGGA,181716,3924.1694,N,11944.7945,W,2,09,1.1,1391.5,M,-22.1,M,,*41
$GPGSA,A,3,02,04,05,07,09,17,24,26,28,,,,2.4,1.1,1.9*3F
$GPRMC,181718,A,3924.1633,N,11944.8012,W,14.1,227.6,070106,15.1,E,D*03
$GPGGA,181718,3924.1633,N,11944.8012,W,2,09,1.2,1392.3,M,-22.1,M,,*40
$GPGSA,A,3,02,04,05,07,09,17,24,26,28,,,,2.6,1.2,2.0*34
$GPRMC,181720,A,3924.1593,N,11944.8092,W,13.2,238.1,070106,15.1,E,D*04
$GPGGA,181720,3924.1593,N,11944.8092,W,2,09,1.0,1393.2,M,-22.1,M,,*48
$GPGSA,A,3,02,04,05,07,09,17,24,26,28,,,,1.9,1.0,1.7*3E
$GPRMC,181722,A,3924.1548,N,11944.8185,W,15.8,236.9,070106,15.1,E,D*0D
$GPGGA,181722,3924.1548,N,11944.8185,W,2,09,1.5,1394.1,M,-22.1,M,,*4A
$GPGSA,A,3,02,04,05,07,09,17,24,26,28,,,,2.4,1.5,1.0*32
$GPRMC,181724,A,3924.1493,N,11944.8293,W,18.6,237.7,070106,15.1,E,D*04
$GPGGA,181724,3924.1493,N,11944.8293,W,2,09,1.0,1395.1,M,-22.1,M,,*4B
$GPGSA,A,3,02,04,05,07,09,17,24,26,28,,,,1.9,1.0,1.1*38
$GPRMC,181726,A,3924.1430,N,11944.8418,W,21.4,237.1,070106,15.1,E,D*04
$GPGGA,181726,3924.1430,N,11944.8418,W,2,09,1.0,1396.3,M,-22.1,M,,*44
$GPGSA,A,3,02,04,05,07,09,17,24,26,28,,,,1.9,1.0,1.1*38
$GPRMC,181728,A,3924.1359,N,11944.8559,W,24.0,237.6,070106,15.1,E,D*00
$GPGGA,181728,3924.1359,N,11944.8559,W,2,09,1.0,1397.4,M,-22.1,M,,*40
$GPGSA,A,3,02,04,05,07,09,17,24,26,28,,,,1.9,1.0,1.2*3B
$GPRMC,181730,A,3924.1282,N,11944.8718,W,26.7,238.4,070106,15.1,E,D*01
$GPGGA,181730,3924.1282,N,11944.8718,W,2,09,1.0,1398.6,M,-22.1,M,,*44
$GPGSA,A,3,02,04,05,07,09,17,24,26,28,,,,1.9,1.0,1.3*3A
$GPRMC,181732,A,3924.1196,N,11944.8891,W,29.4,237.5,070106,15.1,E,A*0C
$GPGGA,181732,3924.1196,N,11944.8891,W,1,09,1.0,1399.9,M,-22.1,M,,*43
$GPGSA,A,3,02,04,05,07,09,17,24,26,28,,,,1.9,1.0,1.4*3D
$GPRMC,181734,A,3924.1102,N,11944.9081,W,32.0,237.7,070106,15.1,E,A*03
$GPGGA,181734,3924.1102,N,11944.9081,W,1,09,1.0,1401.3,M,-22.1,M,,*4C
$GPGSA,A,3,02,04,05,07,09,17,24,26,28,,,,1.9,1.0,1.4*3D
$GPRMC,181736,A,3924.1001,N,11944.9287,W,34.6,237.8,070106,15.1,E,A*08
$GPGGA,181736,3924.1001,N,11944.9287,W,1,09,1.0,1402.8,M,-22.1,M,,*40
$GPGSA,A,3,02,04,05,07,09,17,24,26,28,,,,1.9,1.0,1.4*3D
$GPRMC,181738,A,3924.0892,N,11944.9508,W,37.0,237.8,070106,15.1,E,A*00
$GPGGA,181738,3924.0892,N,11944.9508,W,1,09,1.0,1404.2,M,-22.1,M,,*41
$GPGSA,A,3,02,04,05,07,09,17,24,26,28,,,,1.9,1.0,1.4*3D
$GPRMC,181740,A,3924.0780,N,11944.9736,W,37.3,237.6,070106,15.1,E,A*01
$GPGGA,181740,3924.0780,N,11944.9736,W,1,09,1.0,1405.5,M,-22.1,M,,*4B
$GPGSA,A,3,02,04,05,07,09,17,24,26,28,,,,2.0,1.0,1.5*36
$GPRMC,181742,A,3924.0669,N,11944.9958,W,37.0,237.4,070106,15.1,E,A*02
$GPGGA,181742,3924.0669,N,11944.9958,W,1,09,1.0,1406.9,M,-22.1,M,,*46
$GPGSA,A,3,02,04,05,07,09,17,24,26,28,,,,1.9,1.0,1.6*3F
$GPRMC,181744,A,3924.0555,N,11945.0186,W,37.9,237.6,070106,15.1,E,A*00
$GPGGA,181744,3924.0555,N,11945.0186,W,1,09,1.0,1408.4,M,-22.1,M,,*4C
$GPGSA,A,3,02,04,05,07,09,17,24,26,28,,,,1.9,1.0,1.6*3F
$GPRMC,181746,A,3924.0440,N,11945.0421,W,38.9,237.8,070106,15.1,E,A*0E
$GPGGA,181746,3924.0440,N,11945.0421,W,1,09,1.0,1409.8,M,-22.1,M,,*4E
$GPGSA,A,3,02,04,05,07,09,17,24,26,28,,,,2.0,1.0,1.7*34
$GPRMC,181748,A,3924.0320,N,11945.0660,W,39.8,237.0,070106,15.1,E,A*0E
$GPGGA,181748,3924.0320,N,11945.0660,W,1,09,1.0,1411.4,M,-22.1,M,,*43
$GPGSA,A,3,02,04,05,07,09,17,24,26,28,,,,1.9,1.0,1.7*3E
$GPRMC,181750,A,3924.0197,N,11945.0902,W,40.4,237.1,070106,15.1,E,A*01
$GPGGA,181750,3924.0197,N,11945.0902,W,1,09,1.0,1412.8,M,-22.1,M,,*40
$GPGSA,A,3,02,04,05,07,09,17,24,26,28,,,,1.9,1.0,1.7*3E
$GPRMC,181752,A,3924.0076,N,11945.1151,W,41.1,238.2,070106,15.1,E,A*0A
$GPGGA,181752,3924.0076,N,11945.1151,W,1,09,1.0,1414.4,M,-22.1,M,,*49
$GPGSA,A,3,02,04,05,07,09,17,24,26,28,,,,2.0,1.0,1.7*34
$GPRMC,181754,A,3923.9952,N,11945.1402,W,41.7,237.2,070106,15.1,E,A*07
$GPGGA,181754,3923.9952,N,11945.1402,W,1,09,1.0,1415.9,M,-22.1,M,,*41
$GPGSA,A,3,02,04,05,07,09,17,24,26,28,,,,1.9,1.0,1.7*3E
$GPRMC,181756,A,3923.9824,N,11945.1655,W,42.3,237.1,070106,15.1,E,A*01
$GPGGA,181756,3923.9824,N,11945.1655,W,1,09,1.0,1417.6,M,-22.1,M,,*4E
$GPGSA,A,3,02,04,05,07,09,17,24,26,28,,,,1.9,1.0,1.7*3E
$GPRMC,181758,A,3923.9696,N,11945.1912,W,42.8,237.1,070106,15.1,E,A*0F
$GPGGA,181758,3923.9696,N,11945.1912,W,1,09,1.0,1419.3,M,-22.1,M,,*40
$GPGSA,A,3,02,04,05,07,09,17,24,26,28,,,,2.1,1.0,1.8*3A
$GPRMC,181800,A,3923.9562,N,11945.2167,W,42.8,235.8,070106,15.1,E,A*07
$GPGGA,181800,3923.9562,N,11945.2167,W,1,09,1.0,1421.2,M,-22.1,M,,*49
$GPGSA,A,3,02,04,05,07,09,17,24,26,28,,,,2.1,1.0,1.8*3A
$GPRMC,181802,A,3923.9429,N,11945.2417,W,42.1,235.5,070106,15.1,E,A*0D
$GPGGA,181802,3923.9429,N,11945.2417,W,1,09,1.0,1422.9,M,-22.1,M,,*4F
$GPGSA,A,3,02,04,05,07,09,17,24,26,28,,,,1.9,1.0,1.7*3E
$GPRMC,181804,A,3923.9298,N,11945.2664,W,41.6,236.1,070106,15.1,E,A*02
$GPGGA,181804,3923.9298,N,11945.2664,W,1,09,1.0,1424.6,M,-22.1,M,,*4A
$GPGSA,A,3,02,04,05,07,09,17,24,26,28,,,,1.9,1.0,1.7*3E
$GPRMC,181806,A,3923.9168,N,11945.2910,W,41.6,235.5,070106,15.1,E,A*07
$GPGGA,181806,3923.9168,N,11945.2910,W,1,09,1.0,1426.4,M,-22.1,M,,*48
$GPGSA,A,3,02,04,05,07,09,17,24,26,28,,,,1.9,1.0,1.7*3E
$GPRMC,181808,A,3923.9037,N,11945.3158,W,41.8,236.2,070106,15.1,E,A*0D
$GPGGA,181808,3923.9037,N,11945.3158,W,1,09,1.0,1428.0,M,-22.1,M,,*42
$GPGSA,A,3,02,04,05,07,09,17,24,26,28,,,,1.9,1.0,1.7*3E
$GPRMC,181810,A,3923.8909,N,11945.3411,W,42.2,237.0,070106,15.1,E,A*03
$GPGGA,181810,3923.8909,N,11945.3411,W,1,09,1.0,1429.7,M,-22.1,M,,*40
$GPGSA,A,3,02,04,05,07,09,17,24,26,28,,,,2.0,1.0,1.7*34
$GPRMC,181812,A,3923.8782,N,11945.3668,W,42.7,237.5,070106,15.1,E,A*00
$GPGGA,181812,3923.8782,N,11945.3668,W,1,09,1.0,1431.4,M,-22.1,M,,*49
$GPGSA,A,3,02,04,05,07,09,17,24,26,28,,,,1.9,1.0,1.7*3E
$GPRMC,181814,A,3923.8653,N,11945.3928,W,43.1,237.4,070106,15.1,E,A*06
$GPGGA,181814,3923.8653,N,11945.3928,W,1,09,1.0,1433.2,M,-22.1,M,,*4D
$GPGSA,A,3,02,04,05,07,09,17,24,26,28,,,,1.9,1.0,1.7*3E
$GPRMC,181816,A,3923.8522,N,11945.4188,W,43.4,237.1,070106,15.1,E,A*04
$GPGGA,181816,3923.8522,N,11945.4188,W,1,09,1.0,1434.8,M,-22.1,M,,*42
$GPGSA,A,3,02,04,05,07,09,17,24,26,28,,,,2.0,1.0,1.7*34
$GPRMC,181818,A,3923.8391,N,11945.4452,W,43.8,237.8,070106,15.1,E,A*03
$GPGGA,181818,3923.8391,N,11945.4452,W,1,09,1.0,1436.5,M,-22.1,M,,*4F
$GPGSA,A,3,02,04,05,07,09,17,24,26,28,,,,2.1,1.0,1.8*3A
$GPRMC,181820,A,3923.8261,N,11945.4718,W,43.9,237.9,070106,15.1,E,A*0B
$GPGGA,181820,3923.8261,N,11945.4718,W,1,09,1.0,1438.6,M,-22.1,M,,*4A
$GPGSA,A,3,02,04,05,07,09,17,24,26,28,,,,2.2,1.0,1.9*38
$GPRMC,181822,A,3923.8130,N,11945.4984,W,43.3,237.0,070106,15.1,E,A*06
$GPGGA,181822,3923.8130,N,11945.4984,W,1,09,1.9,1440.0,M,-22.1,M,,*44
$GPGSA,A,3,02,04,05,07,09,17,24,26,28,,,,2.8,1.9,1.0*32
$GPRMC,181824,A,3923.7996,N,11945.5254,W,44.8,237.7,070106,15.1,E,A*07
$GPGGA,181824,3923.7996,N,11945.5254,W,1,09,1.2,1441.7,M,-22.1,M,,*43
$GPGSA,A,3,02,04,05,07,09,17,24,26,28,,,,2.4,1.2,1.2*37
$GPRMC,181826,A,3923.7862,N,11945.5527,W,45.1,237.7,070106,15.1,E,A*04
$GPGGA,181826,3923.7862,N,11945.5527,W,1,09,1.0,1443.3,M,-22.1,M,,*4C
$GPGSA,A,3,02,04,05,07,09,17,24,26,28,,,,1.9,1.0,1.3*3A
$GPRMC,181828,A,3923.7726,N,11945.5801,W,45.4,237.6,070106,15.1,E,A*08
$GPGGA,181828,3923.7726,N,11945.5801,W,1,09,1.0,1445.0,M,-22.1,M,,*41
$GPGSA,A,3,02,04,05,07,09,17,24,26,28,,,,1.9,1.0,1.3*3A
$GPRMC,181830,A,3923.7589,N,11945.6076,W,45.7,237.4,070106,15.1,E,A*0C
$GPGGA,181830,3923.7589,N,11945.6076,W,1,09,1.0,1446.5,M,-22.1,M,,*42
$GPGSA,A,3,02,04,05,07,09,17,24,26,28,,,,2.0,1.0,1.4*37
$GPRMC,181832,A,3923.7451,N,11945.6353,W,45.8,237.6,070106,15.1,E,A*03
$GPGGA,181832,3923.7451,N,11945.6353,W,1,09,1.0,1448.1,M,-22.1,M,,*4A
$GPGSA,A,3,02,04,05,07,09,17,24,26,28,,,,1.9,1.0,1.4*3D
$GPRMC,181834,A,3923.7314,N,11945.6630,W,45.9,237.4,070106,15.1,E,A*00
$GPGGA,181834,3923.7314,N,11945.6630,W,1,09,1.0,1449.7,M,-22.1,M,,*4D
$GPGSA,A,3,02,04,05,07,09,17,24,26,28,,,,1.9,1.0,1.4*3D
$GPRMC,181836,A,3923.7176,N,11945.6908,W,46.1,237.4,070106,15.1,E,A*0B
$GPGGA,181836,3923.7176,N,11945.6908,W,1,09,1.0,1451.3,M,-22.1,M,,*40
$GPGSA,A,3,02,04,05,07,09,17,24,26,28,,,,2.0,1.0,1.5*36
$GPRMC,181838,A,3923.7037,N,11945.7190,W,46.8,237.9,070106,15.2,E,A*0E
$GPGGA,181838,3923.7037,N,11945.7190,W,1,09,1.0,1452.8,M,-22.1,M,,*4A
$GPGSA,A,3,02,04,05,07,09,17,24,26,28,,,,2.0,1.0,1.5*36
$GPRMC,181840,A,3923.6899,N,11945.7479,W,47.5,238.5,070106,15.2,E,A*01
$GPGGA,181840,3923.6899,N,11945.7479,W,1,09,1.0,1454.1,M,-22.1,M,,*45
$GPGSA,A,3,02,04,05,07,09,17,24,26,28,,,,2.0,1.0,1.6*35
$GPRMC,181842,A,3923.6758,N,11945.7769,W,47.7,238.0,070106,15.2,E,A*04
$GPGGA,181842,3923.6758,N,11945.7769,W,1,09,1.0,1455.4,M,-22.1,M,,*43
$GPGSA,A,3,02,04,05,07,09,17,24,26,28,,,,2.1,1.0,1.6*34
$GPRMC,181844,A,3923.6617,N,11945.8055,W,47.0,237.7,070106,15.2,E,A*00
$GPGGA,181844,3923.6617,N,11945.8055,W,1,09,1.0,1456.8,M,-22.1,M,,*47
$GPGSA,A,3,02,04,05,07,09,17,24,26,28,,,,2.0,1.0,1.7*34
$GPRMC,181846,A,3923.6481,N,11945.8331,W,45.1,237.7,070106,15.2,E,A*0D
$GPGGA,181846,3923.6481,N,11945.8331,W,1,09,1.0,1458.2,M,-22.1,M,,*4D
$GPGSA,A,3,02,04,05,07,09,17,24,26,28,,,,1.9,1.0,1.7*3E
$GPRMC,181848,A,3923.6351,N,11945.8598,W,43.6,238.1,070106,15.2,E,A*04
$GPGGA,181848,3923.6351,N,11945.8598,W,1,09,1.0,1459.6,M,-22.1,M,,*49
$GPGSA,A,3,02,04,05,07,09,17,24,26,28,,,,2.0,1.0,1.7*34
$GPRMC,181850,A,3923.6228,N,11945.8850,W,40.9,238.0,070106,15.2,E,A*06
$GPGGA,181850,3923.6228,N,11945.8850,W,1,09,1.0,1461.0,M,-22.1,M,,*4B
$GPGSA,A,3,02,04,05,07,09,17,24,26,28,,,,1.9,1.0,1.7*3E
$GPRMC,181852,A,3923.6113,N,11945.9086,W,38.2,237.8,070106,15.2,E,A*0E
$GPGGA,181852,3923.6113,N,11945.9086,W,1,09,1.0,1462.3,M,-22.1,M,,*40
$GPGSA,A,3,02,04,05,07,09,17,24,26,28,,,,1.9,1.0,1.7*3E
$GPRMC,181854,A,3923.6002,N,11945.9316,W,37.6,238.3,070106,15.2,E,A*0C
$GPGGA,181854,3923.6002,N,11945.9316,W,1,09,1.0,1463.7,M,-22.1,M,,*48
$GPGSA,A,3,02,04,05,07,09,17,24,26,28,,,,1.9,1.0,1.7*3E
$GPRMC,181856,A,3923.5894,N,11945.9544,W,37.4,238.4,070106,15.2,E,A*0E
$GPGGA,181856,3923.5894,N,11945.9544,W,1,09,1.0,1464.7,M,-22.1,M,,*48
$GPGSA,A,3,02,04,05,07,09,17,24,26,28,,,,2.0,1.0,1.7*34
$GPRMC,181858,A,3923.5785,N,11945.9771,W,37.2,238.0,070106,15.2,E,A*09
$GPGGA,181858,3923.5785,N,11945.9771,W,1,09,1.0,1465.6,M,-22.1,M,,*4D
$GPGSA,A,3,02,04,05,07,09,17,24,26,28,,,,2.1,1.0,1.8*3A
$GPRMC,181900,A,3923.5674,N,11945.9995,W,37.1,237.0,070106,15.2,E,A*02
$GPGGA,181900,3923.5674,N,11945.9995,W,1,09,1.0,1466.8,M,-22.1,M,,*47
$GPGSA,A,3,02,04,05,07,09,17,24,26,28,,,,1.9,1.0,1.7*3E
$GPRMC,181902,A,3923.5565,N,11946.0221,W,36.9,238.7,070106,15.2,E,A*0C
$GPGGA,181902,3923.5565,N,11946.0221,W,1,09,1.0,1468.0,M,-22.1,M,,*4E
$GPGSA,A,3,02,04,05,07,09,17,24,26,28,,,,2.0,1.0,1.7*34
$GPRMC,181904,A,3923.5461,N,11946.0449,W,37.1,240.1,070106,15.2,E,A*07
$GPGGA,181904,3923.5461,N,11946.0449,W,1,09,1.0,1469.3,M,-22.1,M,,*47
$GPGSA,A,3,02,04,05,07,09,17,24,26,28,,,,2.1,1.0,1.8*3A
$GPRMC,181906,A,3923.5362,N,11946.0683,W,37.3,241.9,070106,15.2,E,A*0E
$GPGGA,181906,3923.5362,N,11946.0683,W,1,09,1.2,1470.4,M,-22.1,M,,*48
$GPGSA,A,3,02,04,05,07,09,17,24,26,28,,,,2.3,1.2,2.0*31
$GPRMC,181908,A,3923.5272,N,11946.0924,W,37.6,245.0,070106,15.2,E,A*0A
$GPGGA,181908,3923.5272,N,11946.0924,W,1,09,1.1,1471.5,M,-22.1,M,,*47
$GPGSA,A,3,02,04,05,07,09,17,24,26,28,,,,2.3,1.1,2.0*32
$GPRMC,181910,A,3923.5188,N,11946.1171,W,37.8,246.9,070106,15.2,E,A*08
$GPGGA,181910,3923.5188,N,11946.1171,W,1,09,1.2,1472.8,M,-22.1,M,,*4C
$GPGSA,A,3,02,04,05,07,09,17,24,26,28,,,,2.3,1.2,2.0*31
$GPRMC,181912,A,3923.5112,N,11946.1423,W,37.8,249.4,070106,15.2,E,A*09
$GPGGA,181912,3923.5112,N,11946.1423,W,1,09,1.2,1474.2,M,-22.1,M,,*43
$GPGSA,A,3,02,04,05,07,09,17,24,26,28,,,,2.4,1.2,2.1*37
$GPRMC,181914,A,3923.5044,N,11946.1681,W,38.1,252.1,070106,15.2,E,A*0E
$GPGGA,181914,3923.5044,N,11946.1681,W,1,09,1.2,1476.0,M,-22.1,M,,*4D
$GPGSA,A,3,02,04,05,07,09,17,24,26,28,,,,2.5,1.2,2.1*36
$GPRMC,181916,A,3923.4983,N,11946.1946,W,38.4,253.7,070106,15.2,E,A*09
$GPGGA,181916,3923.4983,N,11946.1946,W,1,09,1.2,1478.2,M,-22.1,M,,*44
$GPGSA,A,3,02,04,05,07,09,17,24,26,28,,,,2.6,1.2,2.3*37
$GPRMC,181918,A,3923.4928,N,11946.2213,W,38.6,255.5,070106,15.2,E,A*08
$GPGGA,181918,3923.4928,N,11946.2213,W,1,09,1.2,1480.1,M,-22.1,M,,*47
$GPGSA,A,3,02,04,05,07,09,17,24,26,28,,,,2.6,1.2,2.3*37
$GPRMC,181920,A,3923.4882,N,11946.2485,W,38.8,258.6,070106,15.2,E,A*0B
$GPGGA,181920,3923.4882,N,11946.2485,W,1,09,1.2,1481.9,M,-22.1,M,,*4D
$GPGSA,A,3,02,04,05,07,09,17,24,26,28,,,,2.6,1.2,2.3*37
$GPRMC,181922,A,3923.4849,N,11946.2761,W,39.0,262.0,070106,15.2,E,A*01
$GPGGA,181922,3923.4849,N,11946.2761,W,1,09,1.2,1483.8,M,-22.1,M,,*42
$GPGSA,A,3,02,04,05,07,09,17,24,26,28,,,,2.6,1.2,2.3*37
$GPRMC,181924,A,3923.4828,N,11946.3039,W,39.0,265.2,070106,15.2,E,A*0E
$GPGGA,181924,3923.4828,N,11946.3039,W,1,09,1.2,1485.6,M,-22.1,M,,*40
$GPGSA,A,3,02,04,05,07,09,17,24,26,28,,,,2.6,1.2,2.3*37
$GPRMC,181926,A,3923.4823,N,11946.3319,W,39.2,269.2,070106,15.2,E,A*08
$GPGGA,181926,3923.4823,N,11946.3319,W,1,08,1.2,1487.3,M,-22.1,M,,*4E
$GPGSA,A,3,02,04,05,07,09,17,24,26,,,,,2.7,1.2,2.3*3C
$GPRMC,181928,A,3923.4825,N,11946.3603,W,39.9,270.9,070106,15.2,E,A*06
$GPGGA,181928,3923.4825,N,11946.3603,W,1,08,1.3,1489.0,M,-22.1,M,,*44
$GPGSA,A,3,02,04,05,07,09,17,24,26,,,,,2.8,1.3,2.4*35
$GPRMC,181930,A,3923.4837,N,11946.3890,W,40.0,273.5,070106,15.2,E,A*00
$GPGGA,181930,3923.4837,N,11946.3890,W,1,09,1.5,1491.0,M,-22.1,M,,*44
$GPGSA,A,3,02,04,05,07,09,17,24,26,28,,,,3.3,1.5,2.9*3E
$GPRMC,181932,A,3923.4850,N,11946.4175,W,39.5,272.9,070106,15.2,E,A*00
$GPGGA,181932,3923.4850,N,11946.4175,W,1,09,1.6,1493.5,M,-22.1,M,,*46
$GPGSA,A,3,02,04,05,07,09,17,24,26,28,,,,3.4,1.6,3.0*32
$GPRMC,181934,A,3923.4857,N,11946.4454,W,38.8,271.1,070106,15.2,E,A*00
$GPGGA,181934,3923.4857,N,11946.4454,W,1,09,1.6,1496.0,M,-22.1,M,,*41
$GPGSA,A,3,02,04,05,07,09,17,24,26,28,,,,3.5,1.6,3.0*33
$GPRMC,181936,A,3923.4862,N,11946.4732,W,38.6,271.4,070106,15.2,E,D*09
$GPGGA,181936,3923.4862,N,11946.4732,W,2,09,1.2,1498.4,M,-22.1,M,,*4B
$GPGSA,A,3,02,04,05,07,09,17,24,26,28,,,,2.8,1.2,2.5*3F
$GPRMC,181938,A,3923.4868,N,11946.5005,W,37.3,271.4,070106,15.2,E,D*05
$GPGGA,181938,3923.4868,N,11946.5005,W,2,09,1.3,1500.6,M,-22.1,M,,*4E
$GPGSA,A,3,02,04,05,07,09,17,24,26,28,,,,3.3,1.3,2.9*38
$GPRMC,181940,A,3923.4872,N,11946.5270,W,36.8,271.1,070106,15.2,E,D*0E
$GPGGA,181940,3923.4872,N,11946.5270,W,2,09,1.4,1503.1,M,-22.1,M,,*49
$GPGSA,A,3,02,04,05,07,09,17,24,26,28,,,,3.7,1.4,3.3*30
