$GPGGA,100156.000,3117.8205,N,12126.0133,E,1,,,-103.8,M,,M,,*44
$GPRMC,100156.000,A,3117.8205,N,12126.0133,E,0.4,,210610,,,A*4F
$GPGGA,100157.000,3117.8203,N,12126.0133,E,1,,,-103.7,M,,M,,*4C
$GPRMC,100157.000,A,3117.8203,N,12126.0133,E,0.4,,210610,,,A*48
$GPGGA,100158.000,3117.8203,N,12126.0133,E,1,,,-103.9,M,,M,,*4D
$GPRMC,100158.000,A,3117.8203,N,12126.0133,E,0.5,,210610,,,A*46
$GPGGA,100159.000,3117.8203,N,12126.0134,E,1,,,-104.3,M,,M,,*46
$GPRMC,100159.000,A,3117.8203,N,12126.0134,E,0.2,,210610,,,A*47
$GPGGA,100200.000,3117.8202,N,12126.0135,E,1,,,-104.9,M,,M,,*43
$GPRMC,100200.000,A,3117.8202,N,12126.0135,E,0.5,,210610,,,A*4F
$GPGGA,100201.000,3117.8198,N,12126.0137,E,1,,,-106.0,M,,M,,*4B
$GPRMC,100201.000,A,3117.8198,N,12126.0137,E,1.2,,210610,,,A*4A
$GPGGA,100202.000,3117.8196,N,12126.0138,E,1,,,-107.0,M,,M,,*48
$GPRMC,100202.000,A,3117.8196,N,12126.0138,E,0.8,,210610,,,A*43
$GPGGA,100203.000,3117.8194,N,12126.0138,E,1,,,-108.0,M,,M,,*44
$GPRMC,100203.000,A,3117.8194,N,12126.0138,E,0.3,,210610,,,A*4B
$GPGGA,100204.000,3117.8195,N,12126.0137,E,1,,,-109.1,M,,M,,*4D
$GPRMC,100204.000,A,3117.8195,N,12126.0137,E,0.7,,210610,,,A*46
$GPGGA,100205.000,3117.8194,N,12126.0136,E,1,,,-109.9,M,,M,,*44
$GPRMC,100205.000,A,3117.8194,N,12126.0136,E,0.8,,210610,,,A*48
$GPGGA,100206.000,3117.8192,N,12126.0135,E,1,,,-110.4,M,,M,,*47
$GPRMC,100206.000,A,3117.8192,N,12126.0135,E,0.9,,210610,,,A*4F
$GPGGA,100207.000,3117.8189,N,12126.0135,E,1,,,-110.6,M,,M,,*4E
$GPRMC,100207.000,A,3117.8189,N,12126.0135,E,0.6,,210610,,,A*4B
$GPGGA,100208.000,3117.8184,N,12126.0135,E,1,,,-110.7,M,,M,,*4D
$GPRMC,100208.000,A,3117.8184,N,12126.0135,E,1.1,,210610,,,A*4F
$GPGGA,100209.000,3117.8179,N,12126.0136,E,1,,,-111.0,M,,M,,*4B
$GPRMC,100209.000,A,3117.8179,N,12126.0136,E,1.3,,210610,,,A*4D
$GPGGA,100210.000,3117.8174,N,12126.0137,E,1,,,-111.2,M,,M,,*4D
$GPRMC,100210.000,A,3117.8174,N,12126.0137,E,1.1,,210610,,,A*4B
$GPGGA,100211.000,3117.8171,N,12126.0139,E,1,,,-111.4,M,,M,,*41
$GPRMC,100211.000,A,3117.8171,N,12126.0139,E,0.5,,210610,,,A*44
$GPGGA,100212.000,3117.8167,N,12126.0142,E,1,,,-111.7,M,,M,,*4A
$GPRMC,100212.000,A,3117.8167,N,12126.0142,E,0.8,,210610,,,A*41
$GPGGA,100213.000,3117.8161,N,12126.0144,E,1,,,-112.2,M,,M,,*4D
$GPRMC,100213.000,A,3117.8161,N,12126.0144,E,1.1,,210610,,,A*48
$GPGGA,100214.000,3117.8155,N,12126.0149,E,1,,,-112.9,M,,M,,*4B
$GPRMC,100214.000,A,3117.8155,N,12126.0149,E,1.6,,210610,,,A*42
$GPGGA,100215.000,3117.8151,N,12126.0152,E,1,,,-113.4,M,,M,,*48
$GPRMC,100215.000,A,3117.8151,N,12126.0152,E,0.8,,210610,,,A*42
$GPGGA,100216.000,3117.8148,N,12126.0154,E,1,,,-113.8,M,,M,,*49
$GPRMC,100216.000,A,3117.8148,N,12126.0154,E,0.4,,210610,,,A*43
$GPGGA,100217.000,3117.8146,N,12126.0155,E,1,,,-114.2,M,,M,,*4A
$GPRMC,100217.000,A,3117.8146,N,12126.0155,E,0.6,,210610,,,A*4F
$GPGGA,100218.000,3117.8145,N,12126.0158,E,1,,,-114.7,M,,M,,*4E
$GPRMC,100218.000,A,3117.8145,N,12126.0158,E,0.5,,210610,,,A*4D
$GPGGA,100219.000,3117.8144,N,12126.0161,E,1,,,-115.2,M,,M,,*40
$GPRMC,100219.000,A,3117.8144,N,12126.0161,E,0.5,,210610,,,A*47
$GPGGA,100220.000,3117.8143,N,12126.0165,E,1,,,-115.7,M,,M,,*4C
$GPRMC,100220.000,A,3117.8143,N,12126.0165,E,0.4,,210610,,,A*4F
$GPGGA,100221.000,3117.8141,N,12126.0171,E,1,,,-116.1,M,,M,,*4F
$GPRMC,100221.000,A,3117.8141,N,12126.0171,E,0.7,,210610,,,A*4A
$GPGGA,100222.000,3117.8136,N,12126.0175,E,1,,,-116.5,M,,M,,*4C
$GPRMC,100222.000,A,3117.8136,N,12126.0175,E,0.7,,210610,,,A*4D
$GPGGA,100223.000,3117.8130,N,12126.0178,E,1,,,-116.9,M,,M,,*4A
$GPRMC,100223.000,A,3117.8130,N,12126.0178,E,1.0,,210610,,,A*41
$GPGGA,100224.000,3117.8124,N,12126.0180,E,1,,,-117.2,M,,M,,*45
$GPRMC,100224.000,A,3117.8124,N,12126.0180,E,0.8,,210610,,,A*4D
$GPGGA,100225.000,3117.8122,N,12126.0182,E,1,,,-117.6,M,,M,,*44
$GPRMC,100225.000,A,3117.8122,N,12126.0182,E,0.9,,210610,,,A*49
$GPGGA,100226.000,3117.8119,N,12126.0181,E,1,,,-117.9,M,,M,,*43
$GPRMC,100226.000,A,3117.8119,N,12126.0181,E,1.5,,210610,,,A*4C
$GPGGA,100227.000,3117.8116,N,12126.0180,E,1,,,-118.0,M,,M,,*4A
$GPRMC,100227.000,A,3117.8116,N,12126.0180,E,1.5,,210610,,,A*43
$GPGGA,100228.000,3117.8111,N,12126.0181,E,1,,,-117.8,M,,M,,*44
$GPRMC,100228.000,A,3117.8111,N,12126.0181,E,1.1,,210610,,,A*4E
$GPGGA,100229.000,3117.8105,N,12126.0182,E,1,,,-117.7,M,,M,,*4C
$GPRMC,100229.000,A,3117.8105,N,12126.0182,E,1.1,,210610,,,A*49
$GPGGA,100230.000,3117.8100,N,12126.0185,E,1,,,-117.6,M,,M,,*47
$GPRMC,100230.000,A,3117.8100,N,12126.0185,E,1.0,,210610,,,A*42
$GPGGA,100231.000,3117.8095,N,12126.0188,E,1,,,-117.5,M,,M,,*45
$GPRMC,100231.000,A,3117.8095,N,12126.0188,E,0.6,,210610,,,A*44
$GPGGA,100232.000,3117.8090,N,12126.0191,E,1,,,-117.4,M,,M,,*4A
$GPRMC,100232.000,A,3117.8090,N,12126.0191,E,0.9,,210610,,,A*45
$GPGGA,100233.000,3117.8087,N,12126.0193,E,1,,,-117.6,M,,M,,*4D
$GPRMC,100233.000,A,3117.8087,N,12126.0193,E,0.3,,210610,,,A*4A
$GPGGA,100234.000,3117.8087,N,12126.0195,E,1,,,-117.7,M,,M,,*4D
$GPRMC,100234.000,A,3117.8087,N,12126.0195,E,0.6,,210610,,,A*4E
$GPGGA,100235.000,3117.8089,N,12126.0197,E,1,,,-117.9,M,,M,,*4E
$GPRMC,100235.000,A,3117.8089,N,12126.0197,E,1.2,,210610,,,A*46
$GPGGA,100236.000,3117.8090,N,12126.0197,E,1,,,-118.3,M,,M,,*40
$GPRMC,100236.000,A,3117.8090,N,12126.0197,E,0.6,,210610,,,A*48
$GPGGA,100237.000,3117.8089,N,12126.0197,E,1,,,-118.8,M,,M,,*42
$GPRMC,100237.000,A,3117.8089,N,12126.0197,E,0.7,,210610,,,A*40
$GPGGA,100238.000,3117.8090,N,12126.0199,E,1,,,-119.5,M,,M,,*47
$GPRMC,100238.000,A,3117.8090,N,12126.0199,E,0.4,,210610,,,A*4A
$GPGGA,100239.000,3117.8091,N,12126.0199,E,1,,,-120.4,M,,M,,*4C
$GPRMC,100239.000,A,3117.8091,N,12126.0199,E,0.6,,210610,,,A*48
$GPGGA,100240.000,3117.8092,N,12126.0199,E,1,,,-121.4,M,,M,,*40
$GPRMC,100240.000,A,3117.8092,N,12126.0199,E,0.4,,210610,,,A*47
$GPGGA,100241.000,3117.8096,N,12126.0202,E,1,,,-122.4,M,,M,,*47
$GPRMC,100241.000,A,3117.8096,N,12126.0202,E,0.7,,210610,,,A*40
$GPGGA,100242.000,3117.8100,N,12126.0206,E,1,,,-123.4,M,,M,,*4F
$GPRMC,100242.000,A,3117.8100,N,12126.0206,E,0.9,,210610,,,A*47
$GPGGA,100243.000,3117.8102,N,12126.0210,E,1,,,-124.6,M,,M,,*4E
$GPRMC,100243.000,A,3117.8102,N,12126.0210,E,0.5,,210610,,,A*4F
$GPGGA,100244.000,3117.8107,N,12126.0209,E,1,,,-125.7,M,,M,,*44
$GPRMC,100244.000,A,3117.8107,N,12126.0209,E,1.0,,210610,,,A*41
$GPGGA,100245.000,3117.8112,N,12126.0211,E,1,,,-126.8,M,,M,,*44
$GPRMC,100245.000,A,3117.8112,N,12126.0211,E,0.6,,210610,,,A*4A
$GPGGA,100246.000,3117.8114,N,12126.0214,E,1,,,-128.0,M,,M,,*42
$GPRMC,100246.000,A,3117.8114,N,12126.0214,E,0.7,,210610,,,A*4B
$GPGGA,100247.000,3117.8114,N,12126.0217,E,1,,,-129.3,M,,M,,*42
$GPRMC,100247.000,A,3117.8114,N,12126.0217,E,1.4,,210610,,,A*4B
$GPGGA,100248.000,3117.8116,N,12126.0219,E,1,,,-130.6,M,,M,,*4C
$GPRMC,100248.000,A,3117.8116,N,12126.0219,E,0.6,,210610,,,A*4B
$GPGGA,100249.000,3117.8120,N,12126.0220,E,1,,,-131.8,M,,M,,*4D
$GPRMC,100249.000,A,3117.8120,N,12126.0220,E,0.2,,210610,,,A*41
$GPGGA,100250.000,3117.8123,N,12126.0220,E,1,,,-132.9,M,,M,,*44
$GPRMC,100250.000,A,3117.8123,N,12126.0220,E,0.3,,210610,,,A*4B
$GPGGA,100251.000,3117.8129,N,12126.0219,E,1,,,-133.8,M,,M,,*45
$GPRMC,100251.000,A,3117.8129,N,12126.0219,E,0.8,,210610,,,A*41
$GPGGA,100252.000,3117.8133,N,12126.0219,E,1,,,-135.0,M,,M,,*43
$GPRMC,100252.000,A,3117.8133,N,12126.0219,E,0.3,,210610,,,A*42
$GPGGA,100253.000,3117.8134,N,12126.0224,E,1,,,-136.1,M,,M,,*49
$GPRMC,100253.000,A,3117.8134,N,12126.0224,E,1.6,,210610,,,A*4E
$GPGGA,100254.000,3117.8133,N,12126.0228,E,1,,,-137.1,M,,M,,*44
$GPRMC,100254.000,A,3117.8133,N,12126.0228,E,2.3,,210610,,,A*44
$GPGGA,100255.000,3117.8134,N,12126.0230,E,1,,,-137.8,M,,M,,*42
$GPRMC,100255.000,A,3117.8134,N,12126.0230,E,1.5,,210610,,,A*4E
$GPGGA,100256.000,3117.8134,N,12126.0231,E,1,,,-138.4,M,,M,,*43
$GPRMC,100256.000,A,3117.8134,N,12126.0231,E,1.3,,210610,,,A*4A
$GPGGA,100257.000,3117.8135,N,12126.0231,E,1,,,-138.9,M,,M,,*4E
$GPRMC,100257.000,A,3117.8135,N,12126.0231,E,1.1,,210610,,,A*48
$GPGGA,100258.000,3117.8136,N,12126.0231,E,1,,,-139.3,M,,M,,*49
$GPRMC,100258.000,A,3117.8136,N,12126.0231,E,0.8,,210610,,,A*4C
$GPGGA,100259.000,3117.8139,N,12126.0229,E,1,,,-139.7,M,,M,,*4A
$GPRMC,100259.000,A,3117.8139,N,12126.0229,E,0.4,,210610,,,A*47
$GPGGA,100300.000,3117.8144,N,12126.0227,E,1,,,-140.0,M,,M,,*4A
$GPRMC,100300.000,A,3117.8144,N,12126.0227,E,0.4,,210610,,,A*4E
$GPGGA,100301.000,3117.8148,N,12126.0225,E,1,,,-140.2,M,,M,,*47
$GPRMC,100301.000,A,3117.8148,N,12126.0225,E,0.6,,210610,,,A*43
$GPGGA,100302.000,3117.8153,N,12126.0220,E,1,,,-140.3,M,,M,,*4A
$GPRMC,100302.000,A,3117.8153,N,12126.0220,E,0.7,,210610,,,A*4E
$GPGGA,100303.000,3117.8156,N,12126.0217,E,1,,,-140.4,M,,M,,*4D
$GPRMC,100303.000,A,3117.8156,N,12126.0217,E,0.2,,210610,,,A*4B
$GPGGA,100304.000,3117.8157,N,12126.0216,E,1,,,-140.8,M,,M,,*46
$GPRMC,100304.000,A,3117.8157,N,12126.0216,E,1.1,,210610,,,A*4E
$GPGGA,100305.000,3117.8161,N,12126.0214,E,1,,,-141.1,M,,M,,*48
$GPRMC,100305.000,A,3117.8161,N,12126.0214,E,0.3,,210610,,,A*4B
$GPGGA,100306.000,3117.8164,N,12126.0210,E,1,,,-141.3,M,,M,,*48
$GPRMC,100306.000,A,3117.8164,N,12126.0210,E,0.4,,210610,,,A*4E
$GPGGA,100307.000,3117.8168,N,12126.0205,E,1,,,-141.4,M,,M,,*46
$GPRMC,100307.000,A,3117.8168,N,12126.0205,E,0.8,,210610,,,A*4B
$GPGGA,100308.000,3117.8170,N,12126.0200,E,1,,,-141.4,M,,M,,*45
$GPRMC,100308.000,A,3117.8170,N,12126.0200,E,0.5,,210610,,,A*45
$GPGGA,100309.000,3117.8171,N,12126.0198,E,1,,,-141.5,M,,M,,*46
$GPRMC,100309.000,A,3117.8171,N,12126.0198,E,0.7,,210610,,,A*45
$GPGGA,100310.000,3117.8172,N,12126.0200,E,1,,,-141.5,M,,M,,*4F
$GPRMC,100310.000,A,3117.8172,N,12126.0200,E,1.5,,210610,,,A*4F
$GPGGA,100311.000,3117.8168,N,12126.0204,E,1,,,-141.3,M,,M,,*47
$GPRMC,100311.000,A,3117.8168,N,12126.0204,E,2.8,,210610,,,A*4F
$GPGGA,100312.000,3117.8163,N,12126.0208,E,1,,,-140.9,M,,M,,*48
$GPRMC,100312.000,A,3117.8163,N,12126.0208,E,2.7,,210610,,,A*44
$GPGGA,100313.000,3117.8161,N,12126.0209,E,1,,,-140.5,M,,M,,*46
$GPRMC,100313.000,A,3117.8161,N,12126.0209,E,1.4,,210610,,,A*46
$GPGGA,100314.000,3117.8161,N,12126.0208,E,1,,,-140.2,M,,M,,*47
$GPRMC,100314.000,A,3117.8161,N,12126.0208,E,0.3,,210610,,,A*46
$GPGGA,100315.000,3117.8159,N,12126.0206,E,1,,,-139.7,M,,M,,*48
$GPRMC,100315.000,A,3117.8159,N,12126.0206,E,0.7,,210610,,,A*46
$GPGGA,100316.000,3117.8155,N,12126.0204,E,1,,,-138.9,M,,M,,*4A
$GPRMC,100316.000,A,3117.8155,N,12126.0204,E,1.0,,210610,,,A*4D
$GPGGA,100317.000,3117.8152,N,12126.0203,E,1,,,-137.9,M,,M,,*44
$GPRMC,100317.000,A,3117.8152,N,12126.0203,E,0.8,,210610,,,A*45
$GPGGA,100318.000,3117.8148,N,12126.0203,E,1,,,-136.9,M,,M,,*41
$GPRMC,100318.000,A,3117.8148,N,12126.0203,E,1.4,,210610,,,A*4C
$GPGGA,100319.000,3117.8140,N,12126.0204,E,1,,,-135.7,M,,M,,*42
$GPRMC,100319.000,A,3117.8140,N,12126.0204,E,2.5,,210610,,,A*40
$GPGGA,100320.000,3117.8134,N,12126.0205,E,1,,,-134.2,M,,M,,*4E
$GPRMC,100320.000,A,3117.8134,N,12126.0205,E,1.9,,210610,,,A*47
$GPGGA,100321.000,3117.8127,N,12126.0208,E,1,,,-132.8,M,,M,,*4C
$GPRMC,100321.000,A,3117.8127,N,12126.0208,E,2.2,,210610,,,A*41
$GPGGA,100322.000,3117.8120,N,12126.0208,E,1,,,-131.4,M,,M,,*47
$GPRMC,100322.000,A,3117.8120,N,12126.0208,E,1.7,,210610,,,A*43
$GPGGA,100323.000,3117.8113,N,12126.0206,E,1,,,-130.2,M,,M,,*4F
$GPRMC,100323.000,A,3117.8113,N,12126.0206,E,1.5,,210610,,,A*4E
$GPGGA,100324.000,3117.8104,N,12126.0205,E,1,,,-128.9,M,,M,,*4F
$GPRMC,100324.000,A,3117.8104,N,12126.0205,E,2.1,,210610,,,A*4B
$GPGGA,100325.000,3117.8094,N,12126.0206,E,1,,,-127.7,M,,M,,*44
$GPRMC,100325.000,A,3117.8094,N,12126.0206,E,2.6,,210610,,,A*46
$GPGGA,100326.000,3117.8087,N,12126.0206,E,1,,,-126.6,M,,M,,*45
$GPRMC,100326.000,A,3117.8087,N,12126.0206,E,1.5,,210610,,,A*47
$GPGGA,100350.000,3117.7853,N,12126.0172,E,1,,,-66.5,M,,M,,*7C
$GPRMC,100350.000,A,3117.7853,N,12126.0172,E,3.9,,210610,,,A*46
$GPGGA,100351.000,3117.7835,N,12126.0172,E,1,,,-62.1,M,,M,,*7D
$GPRMC,100351.000,A,3117.7835,N,12126.0172,E,3.6,,210610,,,A*48
$GPGGA,100352.000,3117.7821,N,12126.0168,E,1,,,-57.9,M,,M,,*7E
$GPRMC,100352.000,A,3117.7821,N,12126.0168,E,2.5,,210610,,,A*47
$GPGGA,100353.000,3117.7804,N,12126.0164,E,1,,,-53.6,M,,M,,*7F
$GPRMC,100353.000,A,3117.7804,N,12126.0164,E,3.4,,210610,,,A*4D
$GPGGA,100354.000,3117.7784,N,12126.0165,E,1,,,-49.5,M,,M,,*76
$GPRMC,100354.000,A,3117.7784,N,12126.0165,E,4.7,,210610,,,A*48
$GPGGA,100355.000,3117.7765,N,12126.0167,E,1,,,-45.4,M,,M,,*77
$GPRMC,100355.000,A,3117.7765,N,12126.0167,E,4.2,,210610,,,A*41
$GPGGA,100356.000,3117.7746,N,12126.0169,E,1,,,-41.5,M,,M,,*7E
$GPRMC,100356.000,A,3117.7746,N,12126.0169,E,4.8,,210610,,,A*47
$GPGGA,100357.000,3117.7728,N,12126.0171,E,1,,,-37.6,M,,M,,*7C
$GPRMC,100357.000,A,3117.7728,N,12126.0171,E,4.5,,210610,,,A*4A
$GPGGA,100358.000,3117.7711,N,12126.0172,E,1,,,-33.9,M,,M,,*71
$GPRMC,100358.000,A,3117.7711,N,12126.0172,E,4.1,,210610,,,A*48
$GPGGA,100359.000,3117.7698,N,12126.0170,E,1,,,-30.1,M,,M,,*79
$GPRMC,100359.000,A,3117.7698,N,12126.0170,E,2.8,,210610,,,A*44
$GPGGA,100400.000,3117.7686,N,12126.0170,E,1,,,-26.3,M,,M,,*78
$GPRMC,100400.000,A,3117.7686,N,12126.0170,E,2.8,,210610,,,A*40
$GPGGA,100401.000,3117.7674,N,12126.0170,E,1,,,-22.7,M,,M,,*74
$GPRMC,100401.000,A,3117.7674,N,12126.0170,E,3.1,,210610,,,A*44
$GPGGA,100402.000,3117.7662,N,12126.0169,E,1,,,-19.5,M,,M,,*72
$GPRMC,100402.000,A,3117.7662,N,12126.0169,E,3.1,,210610,,,A*48
$GPGGA,100403.000,3117.7650,N,12126.0168,E,1,,,-16.6,M,,M,,*7F
$GPRMC,100403.000,A,3117.7650,N,12126.0168,E,3.7,,210610,,,A*4F
$GPGGA,100404.000,3117.7641,N,12126.0167,E,1,,,-14.0,M,,M,,*73
$GPRMC,100404.000,A,3117.7641,N,12126.0167,E,2.7,,210610,,,A*46
$GPGGA,100405.000,3117.7635,N,12126.0162,E,1,,,-12.1,M,,M,,*73
$GPRMC,100405.000,A,3117.7635,N,12126.0162,E,1.5,,210610,,,A*40
$GPGGA,100406.000,3117.7632,N,12126.0156,E,1,,,-10.6,M,,M,,*75
$GPRMC,100406.000,A,3117.7632,N,12126.0156,E,1.1,,210610,,,A*47
$GPGGA,100407.000,3117.7630,N,12126.0149,E,1,,,-9.5,M,,M,,*43
$GPRMC,100407.000,A,3117.7630,N,12126.0149,E,0.4,,210610,,,A*4E
$GPGGA,100408.000,3117.7628,N,12126.0144,E,1,,,-8.7,M,,M,,*4B
$GPRMC,100408.000,A,3117.7628,N,12126.0144,E,1.1,,210610,,,A*41
$GPGGA,100409.000,3117.7628,N,12126.0137,E,1,,,-7.9,M,,M,,*4F
$GPRMC,100409.000,A,3117.7628,N,12126.0137,E,0.3,,210610,,,A*47
$GPGGA,100410.000,3117.7629,N,12126.0129,E,1,,,-7.4,M,,M,,*44
$GPRMC,100410.000,A,3117.7629,N,12126.0129,E,0.1,,210610,,,A*43
$GPGGA,100411.000,3117.7628,N,12126.0118,E,1,,,-7.0,M,,M,,*42
$GPRMC,100411.000,A,3117.7628,N,12126.0118,E,1.0,,210610,,,A*41
$GPGGA,100412.000,3117.7630,N,12126.0109,E,1,,,-6.7,M,,M,,*4E
$GPRMC,100412.000,A,3117.7630,N,12126.0109,E,0.3,,210610,,,A*49
$GPGGA,100413.000,3117.7632,N,12126.0100,E,1,,,-7.0,M,,M,,*42
$GPRMC,100413.000,A,3117.7632,N,12126.0100,E,0.2,,210610,,,A*42
$GPGGA,100414.000,3117.7635,N,12126.0094,E,1,,,-8.1,M,,M,,*40
$GPRMC,100414.000,A,3117.7635,N,12126.0094,E,1.3,,210610,,,A*4E
$GPGGA,100415.000,3117.7638,N,12126.0090,E,1,,,-9.8,M,,M,,*40
$GPRMC,100415.000,A,3117.7638,N,12126.0090,E,2.4,,210610,,,A*42
$GPGGA,100416.000,3117.7645,N,12126.0083,E,1,,,-12.1,M,,M,,*78
$GPRMC,100416.000,A,3117.7645,N,12126.0083,E,0.9,,210610,,,A*46
$GPGGA,100417.000,3117.7653,N,12126.0074,E,1,,,-14.5,M,,M,,*74
$GPRMC,100417.000,A,3117.7653,N,12126.0074,E,0.4,,210610,,,A*45
$GPGGA,100418.000,3117.7662,N,12126.0065,E,1,,,-17.0,M,,M,,*7F
$GPRMC,100418.000,A,3117.7662,N,12126.0065,E,0.6,,210610,,,A*4A
$GPGGA,100419.000,3117.7672,N,12126.0057,E,1,,,-19.8,M,,M,,*78
$GPRMC,100419.000,A,3117.7672,N,12126.0057,E,0.7,,210610,,,A*4A
$GPGGA,100420.000,3117.7685,N,12126.0044,E,1,,,-22.9,M,,M,,*71
$GPRMC,100420.000,A,3117.7685,N,12126.0044,E,0.3,,210610,,,A*4E
$GPGGA,100421.000,3117.7700,N,12126.0032,E,1,,,-26.4,M,,M,,*74
$GPRMC,100421.000,A,3117.7700,N,12126.0032,E,0.8,,210610,,,A*49
$GPGGA,100422.000,3117.7713,N,12126.0020,E,1,,,-29.9,M,,M,,*74
$GPRMC,100422.000,A,3117.7713,N,12126.0020,E,0.2,,210610,,,A*41
$GPGGA,100423.000,3117.7725,N,12126.0009,E,1,,,-33.4,M,,M,,*7D
$GPRMC,100423.000,A,3117.7725,N,12126.0009,E,0.8,,210610,,,A*44
$GPGGA,100424.000,3117.7736,N,12125.9996,E,1,,,-36.8,M,,M,,*74
$GPRMC,100424.000,A,3117.7736,N,12125.9996,E,0.5,,210610,,,A*49
$GPGGA,100425.000,3117.7748,N,12125.9982,E,1,,,-40.0,M,,M,,*70
$GPRMC,100425.000,A,3117.7748,N,12125.9982,E,0.6,,210610,,,A*47
$GPGGA,100426.000,3117.7760,N,12125.9969,E,1,,,-43.0,M,,M,,*7F
$GPRMC,100426.000,A,3117.7760,N,12125.9969,E,0.5,,210610,,,A*48
$GPGGA,100427.000,3117.7774,N,12125.9956,E,1,,,-45.7,M,,M,,*76
$GPRMC,100427.000,A,3117.7774,N,12125.9956,E,0.3,,210610,,,A*46
$GPGGA,100428.000,3117.7790,N,12125.9940,E,1,,,-48.1,M,,M,,*7F
$GPRMC,100428.000,A,3117.7790,N,12125.9940,E,1.4,,210610,,,A*42
$GPGGA,100429.000,3117.7805,N,12125.9927,E,1,,,-50.1,M,,M,,*75
$GPRMC,100429.000,A,3117.7805,N,12125.9927,E,0.8,,210610,,,A*4C
$GPGGA,100430.000,3117.7821,N,12125.9911,E,1,,,-51.8,M,,M,,*76
$GPRMC,100430.000,A,3117.7821,N,12125.9911,E,1.1,,210610,,,A*4F
$GPGGA,100431.000,3117.7837,N,12125.9897,E,1,,,-53.2,M,,M,,*77
$GPRMC,100431.000,A,3117.7837,N,12125.9897,E,1.4,,210610,,,A*43
$GPGGA,100432.000,3117.7851,N,12125.9886,E,1,,,-54.7,M,,M,,*76
$GPRMC,100432.000,A,3117.7851,N,12125.9886,E,0.8,,210610,,,A*4D
$GPGGA,100433.000,3117.7866,N,12125.9874,E,1,,,-55.9,M,,M,,*71
$GPRMC,100433.000,A,3117.7866,N,12125.9874,E,0.8,,210610,,,A*45
$GPGGA,100434.000,3117.7877,N,12125.9861,E,1,,,-56.9,M,,M,,*71
$GPRMC,100434.000,A,3117.7877,N,12125.9861,E,0.5,,210610,,,A*4B
$GPGGA,100435.000,3117.7889,N,12125.9848,E,1,,,-57.5,M,,M,,*77
$GPRMC,100435.000,A,3117.7889,N,12125.9848,E,0.3,,210610,,,A*46
$GPGGA,100436.000,3117.7899,N,12125.9837,E,1,,,-58.0,M,,M,,*77
$GPRMC,100436.000,A,3117.7899,N,12125.9837,E,0.4,,210610,,,A*4B
$GPGGA,100437.000,3117.7910,N,12125.9825,E,1,,,-58.1,M,,M,,*74
$GPRMC,100437.000,A,3117.7910,N,12125.9825,E,0.1,,210610,,,A*4C
$GPGGA,100438.000,3117.7923,N,12125.9814,E,1,,,-58.0,M,,M,,*78
$GPRMC,100438.000,A,3117.7923,N,12125.9814,E,1.0,,210610,,,A*41
$GPGGA,100439.000,3117.7936,N,12125.9801,E,1,,,-57.9,M,,M,,*7F
$GPRMC,100439.000,A,3117.7936,N,12125.9801,E,1.5,,210610,,,A*45
$GPGGA,100440.000,3117.7948,N,12125.9790,E,1,,,-58.1,M,,M,,*78
$GPRMC,100440.000,A,3117.7948,N,12125.9790,E,0.9,,210610,,,A*48
$GPGGA,100441.000,3117.7957,N,12125.9778,E,1,,,-58.4,M,,M,,*74
$GPRMC,100441.000,A,3117.7957,N,12125.9778,E,0.6,,210610,,,A*4E
$GPGGA,100442.000,3117.7965,N,12125.9769,E,1,,,-58.6,M,,M,,*74
$GPRMC,100442.000,A,3117.7965,N,12125.9769,E,0.3,,210610,,,A*49
$GPGGA,100443.000,3117.7974,N,12125.9760,E,1,,,-58.8,M,,M,,*72
$GPRMC,100443.000,A,3117.7974,N,12125.9760,E,0.3,,210610,,,A*41
$GPGGA,100444.000,3117.7984,N,12125.9754,E,1,,,-59.0,M,,M,,*74
$GPRMC,100444.000,A,3117.7984,N,12125.9754,E,0.7,,210610,,,A*4A
$GPGGA,100445.000,3117.7992,N,12125.9749,E,1,,,-59.3,M,,M,,*7D
$GPRMC,100445.000,A,3117.7992,N,12125.9749,E,0.4,,210610,,,A*43
$GPGGA,100446.000,3117.8004,N,12125.9744,E,1,,,-59.7,M,,M,,*7E
$GPRMC,100446.000,A,3117.8004,N,12125.9744,E,1.6,,210610,,,A*47
$GPGGA,100447.000,3117.8014,N,12125.9740,E,1,,,-60.2,M,,M,,*75
$GPRMC,100447.000,A,3117.8014,N,12125.9740,E,0.9,,210610,,,A*4D
$GPGGA,100448.000,3117.8021,N,12125.9736,E,1,,,-60.5,M,,M,,*7A
$GPRMC,100448.000,A,3117.8021,N,12125.9736,E,0.7,,210610,,,A*4B
$GPGGA,100449.000,3117.8027,N,12125.9730,E,1,,,-60.8,M,,M,,*76
$GPRMC,100449.000,A,3117.8027,N,12125.9730,E,0.3,,210610,,,A*4E
$GPGGA,100450.000,3117.8033,N,12125.9723,E,1,,,-60.9,M,,M,,*78
$GPRMC,100450.000,A,3117.8033,N,12125.9723,E,0.5,,210610,,,A*47
$GPGGA,100451.000,3117.8041,N,12125.9717,E,1,,,-61.0,M,,M,,*73
$GPRMC,100451.000,A,3117.8041,N,12125.9717,E,0.8,,210610,,,A*49
$GPGGA,100452.000,3117.8045,N,12125.9716,E,1,,,-60.8,M,,M,,*7C
$GPRMC,100452.000,A,3117.8045,N,12125.9716,E,1.3,,210610,,,A*45
$GPGGA,100453.000,3117.8051,N,12125.9714,E,1,,,-60.1,M,,M,,*73
$GPRMC,100453.000,A,3117.8051,N,12125.9714,E,0.7,,210610,,,A*46
$GPGGA,100454.000,3117.8059,N,12125.9710,E,1,,,-59.2,M,,M,,*71
$GPRMC,100454.000,A,3117.8059,N,12125.9710,E,1.1,,210610,,,A*4A
$GPGGA,100455.000,3117.8064,N,12125.9704,E,1,,,-58.0,M,,M,,*78
$GPRMC,100455.000,A,3117.8064,N,12125.9704,E,0.2,,210610,,,A*42
$GPGGA,100456.000,3117.8067,N,12125.9700,E,1,,,-56.8,M,,M,,*7A
$GPRMC,100456.000,A,3117.8067,N,12125.9700,E,0.6,,210610,,,A*42
$GPGGA,100457.000,3117.8072,N,12125.9694,E,1,,,-55.5,M,,M,,*7D
$GPRMC,100457.000,A,3117.8072,N,12125.9694,E,0.5,,210610,,,A*48
$GPGGA,100458.000,3117.8077,N,12125.9687,E,1,,,-54.5,M,,M,,*74
$GPRMC,100458.000,A,3117.8077,N,12125.9687,E,0.5,,210610,,,A*40
$GPGGA,100459.000,3117.8079,N,12125.9682,E,1,,,-53.6,M,,M,,*7A
$GPRMC,100459.000,A,3117.8079,N,12125.9682,E,1.0,,210610,,,A*4E
$GPGGA,100500.000,3117.8083,N,12125.9679,E,1,,,-52.6,M,,M,,*77
$GPRMC,100500.000,A,3117.8083,N,12125.9679,E,0.4,,210610,,,A*47
$GPGGA,100501.000,3117.8087,N,12125.9676,E,1,,,-52.0,M,,M,,*7B
$GPRMC,100501.000,A,3117.8087,N,12125.9676,E,0.3,,210610,,,A*4A
$GPGGA,100502.000,3117.8092,N,12125.9673,E,1,,,-51.6,M,,M,,*7C
$GPRMC,100502.000,A,3117.8092,N,12125.9673,E,0.6,,210610,,,A*4D
$GPGGA,100503.000,3117.8098,N,12125.9669,E,1,,,-51.5,M,,M,,*7F
$GPRMC,100503.000,A,3117.8098,N,12125.9669,E,1.2,,210610,,,A*48
$GPGGA,100504.000,3117.8101,N,12125.9664,E,1,,,-51.6,M,,M,,*77
$GPRMC,100504.000,A,3117.8101,N,12125.9664,E,0.3,,210610,,,A*43
$GPGGA,100505.000,3117.8103,N,12125.9658,E,1,,,-51.8,M,,M,,*75
$GPRMC,100505.000,A,3117.8103,N,12125.9658,E,0.7,,210610,,,A*4B
$GPGGA,100506.000,3117.8106,N,12125.9653,E,1,,,-51.9,M,,M,,*79
$GPRMC,100506.000,A,3117.8106,N,12125.9653,E,0.6,,210610,,,A*47
$GPGGA,100507.000,3117.8110,N,12125.9650,E,1,,,-52.0,M,,M,,*76
$GPRMC,100507.000,A,3117.8110,N,12125.9650,E,0.7,,210610,,,A*43
$GPGGA,100508.000,3117.8113,N,12125.9647,E,1,,,-52.2,M,,M,,*7E
$GPRMC,100508.000,A,3117.8113,N,12125.9647,E,1.0,,210610,,,A*4F
$GPGGA,100509.000,3117.8115,N,12125.9645,E,1,,,-52.5,M,,M,,*7C
$GPRMC,100509.000,A,3117.8115,N,12125.9645,E,0.5,,210610,,,A*4E
$GPGGA,100510.000,3117.8117,N,12125.9646,E,1,,,-52.8,M,,M,,*78
$GPRMC,100510.000,A,3117.8117,N,12125.9646,E,1.3,,210610,,,A*40
$GPGGA,100511.000,3117.8120,N,12125.9646,E,1,,,-53.1,M,,M,,*75
$GPRMC,100511.000,A,3117.8120,N,12125.9646,E,1.6,,210610,,,A*40
$GPGGA,100512.000,3117.8123,N,12125.9644,E,1,,,-53.5,M,,M,,*73
$GPRMC,100512.000,A,3117.8123,N,12125.9644,E,0.7,,210610,,,A*42
$GPGGA,100513.000,3117.8124,N,12125.9642,E,1,,,-53.9,M,,M,,*7F
$GPRMC,100513.000,A,3117.8124,N,12125.9642,E,0.4,,210610,,,A*41
$GPGGA,100514.000,3117.8124,N,12125.9640,E,1,,,-54.2,M,,M,,*76
$GPRMC,100514.000,A,3117.8124,N,12125.9640,E,0.3,,210610,,,A*43
$GPGGA,100515.000,3117.8124,N,12125.9637,E,1,,,-54.3,M,,M,,*76
$GPRMC,100515.000,A,3117.8124,N,12125.9637,E,0.2,,210610,,,A*43
$GPGGA,100516.000,3117.8123,N,12125.9635,E,1,,,-54.3,M,,M,,*70
$GPRMC,100516.000,A,3117.8123,N,12125.9635,E,0.4,,210610,,,A*43
$GPGGA,100517.000,3117.8123,N,12125.9631,E,1,,,-54.1,M,,M,,*77
$GPRMC,100517.000,A,3117.8123,N,12125.9631,E,0.3,,210610,,,A*41
$GPGGA,100518.000,3117.8122,N,12125.9626,E,1,,,-53.8,M,,M,,*71
$GPRMC,100518.000,A,3117.8122,N,12125.9626,E,0.4,,210610,,,A*4E
$GPGGA,100519.000,3117.8121,N,12125.9623,E,1,,,-53.3,M,,M,,*7D
$GPRMC,100519.000,A,3117.8121,N,12125.9623,E,0.3,,210610,,,A*4E
$GPGGA,100520.000,3117.8121,N,12125.9619,E,1,,,-52.7,M,,M,,*7B
$GPRMC,100520.000,A,3117.8121,N,12125.9619,E,0.6,,210610,,,A*48
$GPGGA,100521.000,3117.8121,N,12125.9618,E,1,,,-52.1,M,,M,,*7D
$GPRMC,100521.000,A,3117.8121,N,12125.9618,E,0.8,,210610,,,A*46
$GPGGA,100522.000,3117.8119,N,12125.9617,E,1,,,-51.7,M,,M,,*7F
$GPRMC,100522.000,A,3117.8119,N,12125.9617,E,0.5,,210610,,,A*4C
$GPGGA,100523.000,3117.8116,N,12125.9616,E,1,,,-51.4,M,,M,,*73
$GPRMC,100523.000,A,3117.8116,N,12125.9616,E,0.2,,210610,,,A*44
$GPGGA,100524.000,3117.8111,N,12125.9616,E,1,,,-51.0,M,,M,,*77
$GPRMC,100524.000,A,3117.8111,N,12125.9616,E,1.1,,210610,,,A*46
$GPGGA,100525.000,3117.8107,N,12125.9616,E,1,,,-50.8,M,,M,,*78
$GPRMC,100525.000,A,3117.8107,N,12125.9616,E,0.8,,210610,,,A*48
$GPGGA,100526.000,3117.8104,N,12125.9614,E,1,,,-50.6,M,,M,,*74
$GPRMC,100526.000,A,3117.8104,N,12125.9614,E,0.4,,210610,,,A*46
$GPGGA,100527.000,3117.8103,N,12125.9612,E,1,,,-50.9,M,,M,,*7B
$GPRMC,100527.000,A,3117.8103,N,12125.9612,E,0.4,,210610,,,A*46
$GPGGA,100528.000,3117.8102,N,12125.9610,E,1,,,-51.3,M,,M,,*7C
$GPRMC,100528.000,A,3117.8102,N,12125.9610,E,0.3,,210610,,,A*4D
$GPGGA,100529.000,3117.8102,N,12125.9607,E,1,,,-51.7,M,,M,,*7F
$GPRMC,100529.000,A,3117.8102,N,12125.9607,E,0.8,,210610,,,A*41
$GPGGA,100530.000,3117.8102,N,12125.9603,E,1,,,-52.0,M,,M,,*77
$GPRMC,100530.000,A,3117.8102,N,12125.9603,E,0.8,,210610,,,A*4D
$GPGGA,100531.000,3117.8101,N,12125.9600,E,1,,,-52.3,M,,M,,*75
$GPRMC,100531.000,A,3117.8101,N,12125.9600,E,0.5,,210610,,,A*41
$GPGGA,100532.000,3117.8101,N,12125.9600,E,1,,,-52.4,M,,M,,*71
$GPRMC,100532.000,A,3117.8101,N,12125.9600,E,0.4,,210610,,,A*43
$GPGGA,100533.000,3117.8101,N,12125.9599,E,1,,,-52.6,M,,M,,*71
$GPRMC,100533.000,A,3117.8101,N,12125.9599,E,0.3,,210610,,,A*46
$GPGGA,100534.000,3117.8100,N,12125.9599,E,1,,,-52.9,M,,M,,*78
$GPRMC,100534.000,A,3117.8100,N,12125.9599,E,0.6,,210610,,,A*45
$GPGGA,100535.000,3117.8100,N,12125.9600,E,1,,,-53.3,M,,M,,*71
$GPRMC,100535.000,A,3117.8100,N,12125.9600,E,0.6,,210610,,,A*47
$GPGGA,100536.000,3117.8102,N,12125.9602,E,1,,,-53.8,M,,M,,*79
$GPRMC,100536.000,A,3117.8102,N,12125.9602,E,1.0,,210610,,,A*43
$GPGGA,100537.000,3117.8106,N,12125.9604,E,1,,,-54.3,M,,M,,*76
$GPRMC,100537.000,A,3117.8106,N,12125.9604,E,1.3,,210610,,,A*43
$GPGGA,100538.000,3117.8111,N,12125.9607,E,1,,,-54.9,M,,M,,*76
$GPRMC,100538.000,A,3117.8111,N,12125.9607,E,1.5,,210610,,,A*4F
$GPGGA,100539.000,3117.8114,N,12125.9611,E,1,,,-55.5,M,,M,,*78
$GPRMC,100539.000,A,3117.8114,N,12125.9611,E,0.8,,210610,,,A*40
$GPGGA,100540.000,3117.8118,N,12125.9614,E,1,,,-56.2,M,,M,,*7B
$GPRMC,100540.000,A,3117.8118,N,12125.9614,E,0.9,,210610,,,A*46
$GPGGA,100541.000,3117.8121,N,12125.9618,E,1,,,-57.0,M,,M,,*7F
$GPRMC,100541.000,A,3117.8121,N,12125.9618,E,0.5,,210610,,,A*4D
$GPGGA,100542.000,3117.8124,N,12125.9625,E,1,,,-57.9,M,,M,,*7E
$GPRMC,100542.000,A,3117.8124,N,12125.9625,E,0.9,,210610,,,A*49
$GPGGA,100543.000,3117.8130,N,12125.9631,E,1,,,-59.0,M,,M,,*78
$GPRMC,100543.000,A,3117.8130,N,12125.9631,E,1.3,,210610,,,A*43
$GPGGA,100544.000,3117.8136,N,12125.9638,E,1,,,-60.2,M,,M,,*78
$GPRMC,100544.000,A,3117.8136,N,12125.9638,E,1.2,,210610,,,A*4A
$GPGGA,100545.000,3117.8140,N,12125.9643,E,1,,,-61.4,M,,M,,*73
$GPRMC,100545.000,A,3117.8140,N,12125.9643,E,0.6,,210610,,,A*43
$GPGGA,100546.000,3117.8146,N,12125.9648,E,1,,,-62.6,M,,M,,*7C
$GPRMC,100546.000,A,3117.8146,N,12125.9648,E,1.0,,210610,,,A*4A
$GPGGA,100547.000,3117.8150,N,12125.9656,E,1,,,-63.8,M,,M,,*7A
$GPRMC,100547.000,A,3117.8150,N,12125.9656,E,0.7,,210610,,,A*45
$GPGGA,100548.000,3117.8153,N,12125.9663,E,1,,,-65.0,M,,M,,*7E
$GPRMC,100548.000,A,3117.8153,N,12125.9663,E,0.2,,210610,,,A*4A
$GPGGA,100549.000,3117.8156,N,12125.9671,E,1,,,-66.2,M,,M,,*78
$GPRMC,100549.000,A,3117.8156,N,12125.9671,E,0.4,,210610,,,A*4B
$GPGGA,100550.000,3117.8161,N,12125.9678,E,1,,,-67.2,M,,M,,*7C
$GPRMC,100550.000,A,3117.8161,N,12125.9678,E,0.9,,210610,,,A*43
$GPGGA,100551.000,3117.8164,N,12125.9686,E,1,,,-68.1,M,,M,,*75
$GPRMC,100551.000,A,3117.8164,N,12125.9686,E,0.5,,210610,,,A*4A
$GPGGA,100552.000,3117.8166,N,12125.9695,E,1,,,-69.0,M,,M,,*76
$GPRMC,100552.000,A,3117.8166,N,12125.9695,E,0.4,,210610,,,A*48
$GPGGA,100553.000,3117.8166,N,12125.9704,E,1,,,-70.1,M,,M,,*77
$GPRMC,100553.000,A,3117.8166,N,12125.9704,E,0.4,,210610,,,A*40
$GPGGA,100554.000,3117.8165,N,12125.9717,E,1,,,-71.0,M,,M,,*71
$GPRMC,100554.000,A,3117.8165,N,12125.9717,E,1.0,,210610,,,A*43
$GPGGA,100555.000,3117.8164,N,12125.9730,E,1,,,-72.0,M,,M,,*77
$GPRMC,100555.000,A,3117.8164,N,12125.9730,E,1.1,,210610,,,A*47
$GPGGA,100556.000,3117.8165,N,12125.9742,E,1,,,-72.6,M,,M,,*76
$GPRMC,100556.000,A,3117.8165,N,12125.9742,E,0.7,,210610,,,A*47
$GPGGA,100557.000,3117.8164,N,12125.9752,E,1,,,-73.2,M,,M,,*72
$GPRMC,100557.000,A,3117.8164,N,12125.9752,E,0.1,,210610,,,A*40
$GPGGA,100558.000,3117.8164,N,12125.9764,E,1,,,-73.7,M,,M,,*7D
$GPRMC,100558.000,A,3117.8164,N,12125.9764,E,0.2,,210610,,,A*49
$GPGGA,100559.000,3117.8164,N,12125.9772,E,1,,,-74.0,M,,M,,*7B
$GPRMC,100559.000,A,3117.8164,N,12125.9772,E,0.9,,210610,,,A*44
$GPGGA,100600.000,3117.8166,N,12125.9780,E,1,,,-74.2,M,,M,,*79
$GPRMC,100600.000,A,3117.8166,N,12125.9780,E,1.0,,210610,,,A*4C
$GPGGA,100601.000,3117.8168,N,12125.9790,E,1,,,-74.5,M,,M,,*70
$GPRMC,100601.000,A,3117.8168,N,12125.9790,E,1.0,,210610,,,A*42
$GPGGA,100602.000,3117.8170,N,12125.9799,E,1,,,-74.7,M,,M,,*71
$GPRMC,100602.000,A,3117.8170,N,12125.9799,E,0.9,,210610,,,A*49
$GPGGA,100603.000,3117.8170,N,12125.9808,E,1,,,-75.0,M,,M,,*71
$GPRMC,100603.000,A,3117.8170,N,12125.9808,E,0.7,,210610,,,A*41
$GPGGA,100604.000,3117.8168,N,12125.9816,E,1,,,-75.4,M,,M,,*74
$GPRMC,100604.000,A,3117.8168,N,12125.9816,E,0.4,,210610,,,A*43
$GPGGA,100605.000,3117.8165,N,12125.9823,E,1,,,-76.0,M,,M,,*79
$GPRMC,100605.000,A,3117.8165,N,12125.9823,E,0.4,,210610,,,A*49
$GPGGA,100606.000,3117.8159,N,12125.9833,E,1,,,-76.9,M,,M,,*7D
$GPRMC,100606.000,A,3117.8159,N,12125.9833,E,1.8,,210610,,,A*49
$GPGGA,100607.000,3117.8155,N,12125.9841,E,1,,,-77.7,M,,M,,*7A
$GPRMC,100607.000,A,3117.8155,N,12125.9841,E,0.9,,210610,,,A*41
$GPGGA,100608.000,3117.8153,N,12125.9851,E,1,,,-78.4,M,,M,,*7E
$GPRMC,100608.000,A,3117.8153,N,12125.9851,E,1.1,,210610,,,A*40
$GPGGA,100609.000,3117.8152,N,12125.9857,E,1,,,-79.3,M,,M,,*7E
$GPRMC,100609.000,A,3117.8152,N,12125.9857,E,0.9,,210610,,,A*4F
$GPGGA,100610.000,3117.8148,N,12125.9861,E,1,,,-79.7,M,,M,,*7C
$GPRMC,100610.000,A,3117.8148,N,12125.9861,E,0.3,,210610,,,A*43
$GPGGA,100611.000,3117.8144,N,12125.9865,E,1,,,-79.9,M,,M,,*7B
$GPRMC,100611.000,A,3117.8144,N,12125.9865,E,0.5,,210610,,,A*4C
$GPGGA,100612.000,3117.8140,N,12125.9868,E,1,,,-79.7,M,,M,,*7F
$GPRMC,100612.000,A,3117.8140,N,12125.9868,E,0.2,,210610,,,A*41
$GPGGA,100613.000,3117.8135,N,12125.9866,E,1,,,-79.3,M,,M,,*76
$GPRMC,100613.000,A,3117.8135,N,12125.9866,E,0.9,,210610,,,A*47
$GPGGA,100614.000,3117.8131,N,12125.9866,E,1,,,-78.9,M,,M,,*7E
$GPRMC,100614.000,A,3117.8131,N,12125.9866,E,0.4,,210610,,,A*49
$GPGGA,100615.000,3117.8126,N,12125.9866,E,1,,,-78.7,M,,M,,*77
$GPRMC,100615.000,A,3117.8126,N,12125.9866,E,0.3,,210610,,,A*49
$GPGGA,100616.000,3117.8124,N,12125.9865,E,1,,,-78.6,M,,M,,*74
$GPRMC,100616.000,A,3117.8124,N,12125.9865,E,1.1,,210610,,,A*48
$GPGGA,100617.000,3117.8125,N,12125.9863,E,1,,,-78.6,M,,M,,*72
$GPRMC,100617.000,A,3117.8125,N,12125.9863,E,1.7,,210610,,,A*48
$GPGGA,100618.000,3117.8125,N,12125.9862,E,1,,,-79.0,M,,M,,*7B
$GPRMC,100618.000,A,3117.8125,N,12125.9862,E,1.2,,210610,,,A*43
$GPGGA,100619.000,3117.8125,N,12125.9860,E,1,,,-79.7,M,,M,,*7F
$GPRMC,100619.000,A,3117.8125,N,12125.9860,E,0.8,,210610,,,A*4B
$GPGGA,100620.000,3117.8125,N,12125.9856,E,1,,,-80.5,M,,M,,*74
$GPRMC,100620.000,A,3117.8125,N,12125.9856,E,0.8,,210610,,,A*44
$GPGGA,100621.000,3117.8125,N,12125.9849,E,1,,,-81.5,M,,M,,*7A
$GPRMC,100621.000,A,3117.8125,N,12125.9849,E,1.0,,210610,,,A*42
$GPGGA,100622.000,3117.8124,N,12125.9839,E,1,,,-82.7,M,,M,,*7E
$GPRMC,100622.000,A,3117.8124,N,12125.9839,E,1.5,,210610,,,A*42
$GPGGA,100623.000,3117.8123,N,12125.9831,E,1,,,-83.7,M,,M,,*71
$GPRMC,100623.000,A,3117.8123,N,12125.9831,E,0.9,,210610,,,A*41
$GPGGA,100624.000,3117.8121,N,12125.9824,E,1,,,-84.7,M,,M,,*77
$GPRMC,100624.000,A,3117.8121,N,12125.9824,E,0.4,,210610,,,A*4D
$GPGGA,100625.000,3117.8123,N,12125.9818,E,1,,,-85.6,M,,M,,*7B
$GPRMC,100625.000,A,3117.8123,N,12125.9818,E,1.0,,210610,,,A*44
$GPGGA,100626.000,3117.8124,N,12125.9814,E,1,,,-86.3,M,,M,,*75
$GPRMC,100626.000,A,3117.8124,N,12125.9814,E,0.9,,210610,,,A*44
$GPGGA,100627.000,3117.8126,N,12125.9810,E,1,,,-87.1,M,,M,,*71
$GPRMC,100627.000,A,3117.8126,N,12125.9810,E,1.0,,210610,,,A*4B
$GPGGA,100628.000,3117.8129,N,12125.9803,E,1,,,-88.1,M,,M,,*7C
$GPRMC,100628.000,A,3117.8129,N,12125.9803,E,1.1,,210610,,,A*48
$GPGGA,100629.000,3117.8133,N,12125.9796,E,1,,,-89.2,M,,M,,*77
$GPRMC,100629.000,A,3117.8133,N,12125.9796,E,1.1,,210610,,,A*41
$GPGGA,100630.000,3117.8133,N,12125.9791,E,1,,,-90.5,M,,M,,*77
$GPRMC,100630.000,A,3117.8133,N,12125.9791,E,0.8,,210610,,,A*46
$GPGGA,100631.000,3117.8130,N,12125.9790,E,1,,,-91.8,M,,M,,*78
$GPRMC,100631.000,A,3117.8130,N,12125.9790,E,2.3,,210610,,,A*4C
$GPGGA,100632.000,3117.8126,N,12125.9789,E,1,,,-93.2,M,,M,,*7C
$GPRMC,100632.000,A,3117.8126,N,12125.9789,E,2.8,,210610,,,A*4B
$GPGGA,100633.000,3117.8122,N,12125.9786,E,1,,,-94.4,M,,M,,*77
$GPRMC,100633.000,A,3117.8122,N,12125.9786,E,2.1,,210610,,,A*48
$GPGGA,100634.000,3117.8121,N,12125.9778,E,1,,,-95.8,M,,M,,*7F
$GPRMC,100634.000,A,3117.8121,N,12125.9778,E,0.4,,210610,,,A*4A
$GPGGA,100635.000,3117.8123,N,12125.9767,E,1,,,-97.1,M,,M,,*79
$GPRMC,100635.000,A,3117.8123,N,12125.9767,E,0.6,,210610,,,A*45
$GPGGA,100636.000,3117.8125,N,12125.9757,E,1,,,-98.0,M,,M,,*71
$GPRMC,100636.000,A,3117.8125,N,12125.9757,E,0.5,,210610,,,A*40
$GPGGA,100637.000,3117.8128,N,12125.9746,E,1,,,-98.3,M,,M,,*7E
$GPRMC,100637.000,A,3117.8128,N,12125.9746,E,0.8,,210610,,,A*41
$GPGGA,100638.000,3117.8134,N,12125.9734,E,1,,,-98.4,M,,M,,*7E
$GPRMC,100638.000,A,3117.8134,N,12125.9734,E,1.8,,210610,,,A*47
$GPGGA,100639.000,3117.8143,N,12125.9721,E,1,,,-98.8,M,,M,,*77
$GPRMC,100639.000,A,3117.8143,N,12125.9721,E,3.1,,210610,,,A*49
$GPGGA,100640.000,3117.8151,N,12125.9710,E,1,,,-99.0,M,,M,,*71
$GPRMC,100640.000,A,3117.8151,N,12125.9710,E,2.6,,210610,,,A*40
$GPGGA,100641.000,3117.8157,N,12125.9697,E,1,,,-99.1,M,,M,,*79
$GPRMC,100641.000,A,3117.8157,N,12125.9697,E,2.0,,210610,,,A*4F
$GPGGA,100642.000,3117.8161,N,12125.9687,E,1,,,-98.9,M,,M,,*77
$GPRMC,100642.000,A,3117.8161,N,12125.9687,E,1.1,,210610,,,A*4A
$GPGGA,100643.000,3117.8166,N,12125.9679,E,1,,,-98.5,M,,M,,*7C
$GPRMC,100643.000,A,3117.8166,N,12125.9679,E,1.0,,210610,,,A*4C
$GPGGA,100644.000,3117.8170,N,12125.9670,E,1,,,-98.0,M,,M,,*70
$GPRMC,100644.000,A,3117.8170,N,12125.9670,E,0.6,,210610,,,A*42
$GPGGA,100645.000,3117.8169,N,12125.9661,E,1,,,-97.1,M,,M,,*77
$GPRMC,100645.000,A,3117.8169,N,12125.9661,E,0.7,,210610,,,A*4A
$GPGGA,100646.000,3117.8171,N,12125.9651,E,1,,,-96.2,M,,M,,*7C
$GPRMC,100646.000,A,3117.8171,N,12125.9651,E,0.7,,210610,,,A*43
$GPGGA,100647.000,3117.8174,N,12125.9641,E,1,,,-95.0,M,,M,,*78
$GPRMC,100647.000,A,3117.8174,N,12125.9641,E,0.6,,210610,,,A*47
$GPGGA,100648.000,3117.8175,N,12125.9633,E,1,,,-94.0,M,,M,,*72
$GPRMC,100648.000,A,3117.8175,N,12125.9633,E,0.0,,210610,,,A*4A
$GPGGA,100649.000,3117.8177,N,12125.9624,E,1,,,-93.0,M,,M,,*70
$GPRMC,100649.000,A,3117.8177,N,12125.9624,E,0.5,,210610,,,A*4A
$GPGGA,100650.000,3117.8178,N,12125.9614,E,1,,,-92.1,M,,M,,*74
$GPRMC,100650.000,A,3117.8178,N,12125.9614,E,0.8,,210610,,,A*43
$GPGGA,100651.000,3117.8181,N,12125.9603,E,1,,,-91.2,M,,M,,*75
$GPRMC,100651.000,A,3117.8181,N,12125.9603,E,1.0,,210610,,,A*4B
$GPGGA,100652.000,3117.8182,N,12125.9595,E,1,,,-90.2,M,,M,,*78
$GPRMC,100652.000,A,3117.8182,N,12125.9595,E,0.3,,210610,,,A*45
$GPGGA,100653.000,3117.8182,N,12125.9591,E,1,,,-89.1,M,,M,,*76
$GPRMC,100653.000,A,3117.8182,N,12125.9591,E,1.2,,210610,,,A*40
$GPGGA,100654.000,3117.8180,N,12125.9590,E,1,,,-87.8,M,,M,,*75
$GPRMC,100654.000,A,3117.8180,N,12125.9590,E,2.3,,210610,,,A*46
$GPGGA,100655.000,3117.8176,N,12125.9587,E,1,,,-86.5,M,,M,,*77
$GPRMC,100655.000,A,3117.8176,N,12125.9587,E,2.4,,210610,,,A*4F
$GPGGA,100656.000,3117.8171,N,12125.9587,E,1,,,-85.4,M,,M,,*71
$GPRMC,100656.000,A,3117.8171,N,12125.9587,E,3.2,,210610,,,A*4C
$GPGGA,100657.000,3117.8167,N,12125.9587,E,1,,,-84.5,M,,M,,*77
$GPRMC,100657.000,A,3117.8167,N,12125.9587,E,2.7,,210610,,,A*4E
$GPGGA,100658.000,3117.8167,N,12125.9586,E,1,,,-83.3,M,,M,,*78
$GPRMC,100658.000,A,3117.8167,N,12125.9586,E,1.9,,210610,,,A*4D
$GPGGA,100659.000,3117.8173,N,12125.9581,E,1,,,-82.1,M,,M,,*78
$GPRMC,100659.000,A,3117.8173,N,12125.9581,E,1.4,,210610,,,A*43
$GPGGA,100700.000,3117.8177,N,12125.9573,E,1,,,-80.5,M,,M,,*7A
$GPRMC,100700.000,A,3117.8177,N,12125.9573,E,0.7,,210610,,,A*45
$GPGGA,100701.000,3117.8178,N,12125.9566,E,1,,,-78.5,M,,M,,*77
$GPRMC,100701.000,A,3117.8178,N,12125.9566,E,0.5,,210610,,,A*4D
$GPGGA,100702.000,3117.8178,N,12125.9561,E,1,,,-76.6,M,,M,,*7E
$GPRMC,100702.000,A,3117.8178,N,12125.9561,E,0.6,,210610,,,A*4A
$GPGGA,100703.000,3117.8179,N,12125.9554,E,1,,,-74.8,M,,M,,*74
$GPRMC,100703.000,A,3117.8179,N,12125.9554,E,0.4,,210610,,,A*4E
$GPGGA,100704.000,3117.8181,N,12125.9547,E,1,,,-72.9,M,,M,,*71
$GPRMC,100704.000,A,3117.8181,N,12125.9547,E,0.6,,210610,,,A*4E
$GPGGA,100705.000,3117.8186,N,12125.9540,E,1,,,-71.1,M,,M,,*7B
$GPRMC,100705.000,A,3117.8186,N,12125.9540,E,1.3,,210610,,,A*4B
$GPGGA,100706.000,3117.8195,N,12125.9536,E,1,,,-69.4,M,,M,,*77
$GPRMC,100706.000,A,3117.8195,N,12125.9536,E,2.8,,210610,,,A*43
$GPGGA,100707.000,3117.8207,N,12125.9531,E,1,,,-67.8,M,,M,,*7B
$GPRMC,100707.000,A,3117.8207,N,12125.9531,E,3.6,,210610,,,A*42
$GPGGA,100708.000,3117.8218,N,12125.9526,E,1,,,-66.2,M,,M,,*77
$GPRMC,100708.000,A,3117.8218,N,12125.9526,E,3.1,,210610,,,A*42
$GPGGA,100709.000,3117.8225,N,12125.9521,E,1,,,-64.7,M,,M,,*78
$GPRMC,100709.000,A,3117.8225,N,12125.9521,E,1.7,,210610,,,A*4E
$GPGGA,100710.000,3117.8231,N,12125.9519,E,1,,,-63.6,M,,M,,*78
$GPRMC,100710.000,A,3117.8231,N,12125.9519,E,1.5,,210610,,,A*4A
$GPGGA,100711.000,3117.8237,N,12125.9514,E,1,,,-62.6,M,,M,,*73
$GPRMC,100711.000,A,3117.8237,N,12125.9514,E,1.5,,210610,,,A*40
$GPGGA,100712.000,3117.8245,N,12125.9507,E,1,,,-61.8,M,,M,,*7A
$GPRMC,100712.000,A,3117.8245,N,12125.9507,E,2.3,,210610,,,A*41
$GPGGA,100713.000,3117.8255,N,12125.9496,E,1,,,-61.0,M,,M,,*7B
$GPRMC,100713.000,A,3117.8255,N,12125.9496,E,3.8,,210610,,,A*42
$GPGGA,100714.000,3117.8270,N,12125.9482,E,1,,,-60.6,M,,M,,*79
$GPRMC,100714.000,A,3117.8270,N,12125.9482,E,5.7,,210610,,,A*4E
$GPGGA,100715.000,3117.8284,N,12125.9471,E,1,,,-60.8,M,,M,,*71
$GPRMC,100715.000,A,3117.8284,N,12125.9471,E,5.3,,210610,,,A*4C
$GPGGA,100716.000,3117.8296,N,12125.9463,E,1,,,-61.1,M,,M,,*7A
$GPRMC,100716.000,A,3117.8296,N,12125.9463,E,3.7,,210610,,,A*4D
$GPGGA,100717.000,3117.8306,N,12125.9457,E,1,,,-61.6,M,,M,,*73
$GPRMC,100717.000,A,3117.8306,N,12125.9457,E,3.7,,210610,,,A*43
$GPGGA,100718.000,3117.8316,N,12125.9449,E,1,,,-61.8,M,,M,,*7C
$GPRMC,100718.000,A,3117.8316,N,12125.9449,E,3.8,,210610,,,A*4D
$GPGGA,100719.000,3117.8320,N,12125.9443,E,1,,,-61.5,M,,M,,*7F
$GPRMC,100719.000,A,3117.8320,N,12125.9443,E,2.1,,210610,,,A*4B
$GPGGA,100720.000,3117.8320,N,12125.9439,E,1,,,-61.1,M,,M,,*7C
$GPRMC,100720.000,A,3117.8320,N,12125.9439,E,1.2,,210610,,,A*4C
$GPGGA,100721.000,3117.8321,N,12125.9436,E,1,,,-60.6,M,,M,,*75
$GPRMC,100721.000,A,3117.8321,N,12125.9436,E,1.4,,210610,,,A*45
$GPGGA,100722.000,3117.8325,N,12125.9430,E,1,,,-59.6,M,,M,,*7E
$GPRMC,100722.000,A,3117.8325,N,12125.9430,E,2.9,,210610,,,A*4A
$GPGGA,100723.000,3117.8328,N,12125.9427,E,1,,,-58.4,M,,M,,*77
$GPRMC,100723.000,A,3117.8328,N,12125.9427,E,2.1,,210610,,,A*48
$GPGGA,100724.000,3117.8327,N,12125.9427,E,1,,,-57.3,M,,M,,*77
$GPRMC,100724.000,A,3117.8327,N,12125.9427,E,1.0,,210610,,,A*42
$GPGGA,100725.000,3117.8323,N,12125.9430,E,1,,,-56.2,M,,M,,*74
$GPRMC,100725.000,A,3117.8323,N,12125.9430,E,0.3,,210610,,,A*43
$GPGGA,100726.000,3117.8315,N,12125.9438,E,1,,,-55.1,M,,M,,*7A
$GPRMC,100726.000,A,3117.8315,N,12125.9438,E,2.1,,210610,,,A*4D
$GPGGA,100727.000,3117.8303,N,12125.9449,E,1,,,-54.4,M,,M,,*7E
$GPRMC,100727.000,A,3117.8303,N,12125.9449,E,3.5,,210610,,,A*48
$GPGGA,100728.000,3117.8294,N,12125.9462,E,1,,,-53.9,M,,M,,*7D
$GPRMC,100728.000,A,3117.8294,N,12125.9462,E,2.9,,210610,,,A*4C
$GPGGA,100729.000,3117.8287,N,12125.9470,E,1,,,-53.6,M,,M,,*72
$GPRMC,100729.000,A,3117.8287,N,12125.9470,E,1.6,,210610,,,A*40
$GPGGA,100730.000,3117.8280,N,12125.9477,E,1,,,-53.4,M,,M,,*78
$GPRMC,100730.000,A,3117.8280,N,12125.9477,E,1.1,,210610,,,A*4F
$GPGGA,100731.000,3117.8270,N,12125.9488,E,1,,,-53.0,M,,M,,*72
$GPRMC,100731.000,A,3117.8270,N,12125.9488,E,2.2,,210610,,,A*41
$GPGGA,100732.000,3117.8259,N,12125.9497,E,1,,,-52.6,M,,M,,*73
$GPRMC,100732.000,A,3117.8259,N,12125.9497,E,1.9,,210610,,,A*4F
$GPGGA,100733.000,3117.8247,N,12125.9504,E,1,,,-52.1,M,,M,,*71
$GPRMC,100733.000,A,3117.8247,N,12125.9504,E,1.6,,210610,,,A*45
$GPGGA,100734.000,3117.8235,N,12125.9508,E,1,,,-51.6,M,,M,,*7B
$GPRMC,100734.000,A,3117.8235,N,12125.9508,E,1.1,,210610,,,A*4C
$GPGGA,100735.000,3117.8223,N,12125.9512,E,1,,,-50.6,M,,M,,*77
$GPRMC,100735.000,A,3117.8223,N,12125.9512,E,1.2,,210610,,,A*42
$GPGGA,100736.000,3117.8211,N,12125.9516,E,1,,,-49.6,M,,M,,*79
$GPRMC,100736.000,A,3117.8211,N,12125.9516,E,0.6,,210610,,,A*41
$GPGGA,100737.000,3117.8200,N,12125.9522,E,1,,,-48.3,M,,M,,*7B
$GPRMC,100737.000,A,3117.8200,N,12125.9522,E,0.6,,210610,,,A*47
$GPGGA,100738.000,3117.8190,N,12125.9529,E,1,,,-46.9,M,,M,,*71
$GPRMC,100738.000,A,3117.8190,N,12125.9529,E,0.5,,210610,,,A*4A
$GPGGA,100739.000,3117.8179,N,12125.9536,E,1,,,-45.5,M,,M,,*76
$GPRMC,100739.000,A,3117.8179,N,12125.9536,E,0.5,,210610,,,A*42
$GPGGA,100740.000,3117.8167,N,12125.9545,E,1,,,-43.9,M,,M,,*79
$GPRMC,100740.000,A,3117.8167,N,12125.9545,E,1.1,,210610,,,A*42
$GPGGA,100741.000,3117.8154,N,12125.9554,E,1,,,-42.3,M,,M,,*73
$GPRMC,100741.000,A,3117.8154,N,12125.9554,E,1.5,,210610,,,A*47
$GPGGA,100742.000,3117.8140,N,12125.9561,E,1,,,-40.7,M,,M,,*75
$GPRMC,100742.000,A,3117.8140,N,12125.9561,E,1.4,,210610,,,A*46
$GPGGA,100743.000,3117.8128,N,12125.9568,E,1,,,-39.2,M,,M,,*78
$GPRMC,100743.000,A,3117.8128,N,12125.9568,E,0.8,,210610,,,A*4D
$GPGGA,100744.000,3117.8116,N,12125.9573,E,1,,,-37.6,M,,M,,*72
$GPRMC,100744.000,A,3117.8116,N,12125.9573,E,0.3,,210610,,,A*46
$GPGGA,100745.000,3117.8105,N,12125.9578,E,1,,,-35.9,M,,M,,*77
$GPRMC,100745.000,A,3117.8105,N,12125.9578,E,0.3,,210610,,,A*4E
$GPGGA,100746.000,3117.8095,N,12125.9584,E,1,,,-34.4,M,,M,,*73
$GPRMC,100746.000,A,3117.8095,N,12125.9584,E,0.6,,210610,,,A*43
$GPGGA,100747.000,3117.8085,N,12125.9588,E,1,,,-32.8,M,,M,,*75
$GPRMC,100747.000,A,3117.8085,N,12125.9588,E,0.3,,210610,,,A*4A
$GPGGA,100748.000,3117.8076,N,12125.9590,E,1,,,-31.1,M,,M,,*75
$GPRMC,100748.000,A,3117.8076,N,12125.9590,E,1.0,,210610,,,A*42
$GPGGA,100749.000,3117.8067,N,12125.9593,E,1,,,-29.2,M,,M,,*7D
$GPRMC,100749.000,A,3117.8067,N,12125.9593,E,0.7,,210610,,,A*46
$GPGGA,100750.000,3117.8056,N,12125.9597,E,1,,,-26.9,M,,M,,*77
$GPRMC,100750.000,A,3117.8056,N,12125.9597,E,0.3,,210610,,,A*4C
$GPGGA,100751.000,3117.8045,N,12125.9600,E,1,,,-24.4,M,,M,,*76
$GPRMC,100751.000,A,3117.8045,N,12125.9600,E,0.8,,210610,,,A*49
$GPGGA,100752.000,3117.8034,N,12125.9603,E,1,,,-21.9,M,,M,,*78
$GPRMC,100752.000,A,3117.8034,N,12125.9603,E,1.0,,210610,,,A*46
$GPGGA,100753.000,3117.8022,N,12125.9606,E,1,,,-19.2,M,,M,,*7B
$GPRMC,100753.000,A,3117.8022,N,12125.9606,E,0.6,,210610,,,A*42
$GPGGA,100754.000,3117.8008,N,12125.9613,E,1,,,-16.3,M,,M,,*7E
$GPRMC,100754.000,A,3117.8008,N,12125.9613,E,0.6,,210610,,,A*49
$GPGGA,100755.000,3117.7994,N,12125.9618,E,1,,,-13.4,M,,M,,*75
$GPRMC,100755.000,A,3117.7994,N,12125.9618,E,0.3,,210610,,,A*45
$GPGGA,100756.000,3117.7978,N,12125.9624,E,1,,,-10.4,M,,M,,*78
$GPRMC,100756.000,A,3117.7978,N,12125.9624,E,0.7,,210610,,,A*4F
$GPGGA,100757.000,3117.7963,N,12125.9631,E,1,,,-7.4,M,,M,,*41
$GPRMC,100757.000,A,3117.7963,N,12125.9631,E,0.6,,210610,,,A*41
$GPGGA,100758.000,3117.7949,N,12125.9635,E,1,,,-4.4,M,,M,,*41
$GPRMC,100758.000,A,3117.7949,N,12125.9635,E,0.6,,210610,,,A*42
$GPGGA,100759.000,3117.7935,N,12125.9638,E,1,,,-1.5,M,,M,,*42
$GPRMC,100759.000,A,3117.7935,N,12125.9638,E,0.8,,210610,,,A*4B
$GPGGA,100800.000,3117.7924,N,12125.9642,E,1,,,1.2,M,,M,,*66
$GPRMC,100800.000,A,3117.7924,N,12125.9642,E,0.7,,210610,,,A*4A
$GPGGA,100801.000,3117.7912,N,12125.9648,E,1,,,3.6,M,,M,,*6E
$GPRMC,100801.000,A,3117.7912,N,12125.9648,E,0.6,,210610,,,A*45
$GPGGA,100802.000,3117.7902,N,12125.9657,E,1,,,5.4,M,,M,,*66
$GPRMC,100802.000,A,3117.7902,N,12125.9657,E,1.4,,210610,,,A*4A
$GPGGA,100803.000,3117.7894,N,12125.9660,E,1,,,6.9,M,,M,,*63
$GPRMC,100803.000,A,3117.7894,N,12125.9660,E,0.3,,210610,,,A*47
$GPGGA,100804.000,3117.7886,N,12125.9661,E,1,,,8.2,M,,M,,*63
$GPRMC,100804.000,A,3117.7886,N,12125.9661,E,0.3,,210610,,,A*42
$GPGGA,100805.000,3117.7879,N,12125.9662,E,1,,,9.2,M,,M,,*60
$GPRMC,100805.000,A,3117.7879,N,12125.9662,E,0.4,,210610,,,A*47
$GPGGA,100806.000,3117.7869,N,12125.9667,E,1,,,10.0,M,,M,,*5D
$GPRMC,100806.000,A,3117.7869,N,12125.9667,E,1.5,,210610,,,A*40
$GPGGA,100807.000,3117.7863,N,12125.9669,E,1,,,10.7,M,,M,,*5F
$GPRMC,100807.000,A,3117.7863,N,12125.9669,E,0.3,,210610,,,A*42
$GPGGA,100808.000,3117.7859,N,12125.9669,E,1,,,11.1,M,,M,,*5E
$GPRMC,100808.000,A,3117.7859,N,12125.9669,E,0.5,,210610,,,A*42
$GPGGA,100809.000,3117.7855,N,12125.9667,E,1,,,11.7,M,,M,,*5B
$GPRMC,100809.000,A,3117.7855,N,12125.9667,E,1.2,,210610,,,A*47
$GPGGA,100810.000,3117.7850,N,12125.9664,E,1,,,12.3,M,,M,,*52
$GPRMC,100810.000,A,3117.7850,N,12125.9664,E,1.4,,210610,,,A*4F
$GPGGA,100811.000,3117.7844,N,12125.9663,E,1,,,12.9,M,,M,,*5B
$GPRMC,100811.000,A,3117.7844,N,12125.9663,E,0.9,,210610,,,A*40
$GPGGA,100812.000,3117.7835,N,12125.9663,E,1,,,13.5,M,,M,,*53
$GPRMC,100812.000,A,3117.7835,N,12125.9663,E,1.2,,210610,,,A*4F
$GPGGA,100813.000,3117.7827,N,12125.9665,E,1,,,13.9,M,,M,,*5B
$GPRMC,100813.000,A,3117.7827,N,12125.9665,E,1.5,,210610,,,A*4C
$GPGGA,100814.000,3117.7820,N,12125.9669,E,1,,,14.0,M,,M,,*59
$GPRMC,100814.000,A,3117.7820,N,12125.9669,E,1.1,,210610,,,A*44
$GPGGA,100815.000,3117.7813,N,12125.9677,E,1,,,14.3,M,,M,,*54
$GPRMC,100815.000,A,3117.7813,N,12125.9677,E,1.9,,210610,,,A*42
$GPGGA,100816.000,3117.7809,N,12125.9683,E,1,,,14.4,M,,M,,*50
$GPRMC,100816.000,A,3117.7809,N,12125.9683,E,1.5,,210610,,,A*4D
$GPGGA,100817.000,3117.7804,N,12125.9686,E,1,,,14.4,M,,M,,*59
$GPRMC,100817.000,A,3117.7804,N,12125.9686,E,0.5,,210610,,,A*45
$GPGGA,100818.000,3117.7800,N,12125.9686,E,1,,,14.5,M,,M,,*53
$GPRMC,100818.000,A,3117.7800,N,12125.9686,E,0.6,,210610,,,A*4D
$GPGGA,100819.000,3117.7796,N,12125.9687,E,1,,,14.6,M,,M,,*50
$GPRMC,100819.000,A,3117.7796,N,12125.9687,E,0.4,,210610,,,A*4F
$GPGGA,100820.000,3117.7791,N,12125.9689,E,1,,,14.9,M,,M,,*5C
$GPRMC,100820.000,A,3117.7791,N,12125.9689,E,0.2,,210610,,,A*4A
$GPGGA,100821.000,3117.7789,N,12125.9687,E,1,,,15.3,M,,M,,*51
$GPRMC,100821.000,A,3117.7789,N,12125.9687,E,1.4,,210610,,,A*4B
$GPGGA,100822.000,3117.7785,N,12125.9686,E,1,,,15.7,M,,M,,*5B
$GPRMC,100822.000,A,3117.7785,N,12125.9686,E,0.9,,210610,,,A*49
$GPGGA,100823.000,3117.7779,N,12125.9689,E,1,,,15.8,M,,M,,*59
$GPRMC,100823.000,A,3117.7779,N,12125.9689,E,1.1,,210610,,,A*4D
$GPGGA,100824.000,3117.7775,N,12125.9692,E,1,,,15.8,M,,M,,*58
$GPRMC,100824.000,A,3117.7775,N,12125.9692,E,0.4,,210610,,,A*48
$GPGGA,100825.000,3117.7774,N,12125.9695,E,1,,,15.6,M,,M,,*51
$GPRMC,100825.000,A,3117.7774,N,12125.9695,E,0.4,,210610,,,A*4F
$GPGGA,100826.000,3117.7772,N,12125.9695,E,1,,,15.5,M,,M,,*57
$GPRMC,100826.000,A,3117.7772,N,12125.9695,E,0.8,,210610,,,A*46
$GPGGA,100827.000,3117.7770,N,12125.9696,E,1,,,15.1,M,,M,,*53
$GPRMC,100827.000,A,3117.7770,N,12125.9696,E,0.2,,210610,,,A*4C
$GPGGA,100828.000,3117.7765,N,12125.9699,E,1,,,14.9,M,,M,,*5E
$GPRMC,100828.000,A,3117.7765,N,12125.9699,E,0.8,,210610,,,A*42
$GPGGA,100829.000,3117.7757,N,12125.9704,E,1,,,14.6,M,,M,,*54
$GPRMC,100829.000,A,3117.7757,N,12125.9704,E,2.2,,210610,,,A*4F
$GPGGA,100830.000,3117.7750,N,12125.9708,E,1,,,14.0,M,,M,,*51
$GPRMC,100830.000,A,3117.7750,N,12125.9708,E,1.9,,210610,,,A*44
$GPGGA,100831.000,3117.7741,N,12125.9716,E,1,,,13.3,M,,M,,*5B
$GPRMC,100831.000,A,3117.7741,N,12125.9716,E,3.2,,210610,,,A*43
$GPGGA,100832.000,3117.7734,N,12125.9722,E,1,,,12.4,M,,M,,*5B
$GPRMC,100832.000,A,3117.7734,N,12125.9722,E,2.3,,210610,,,A*45
$GPGGA,100833.000,3117.7734,N,12125.9725,E,1,,,11.5,M,,M,,*5F
$GPRMC,100833.000,A,3117.7734,N,12125.9725,E,0.2,,210610,,,A*40
$GPGGA,100834.000,3117.7734,N,12125.9727,E,1,,,10.5,M,,M,,*5B
$GPRMC,100834.000,A,3117.7734,N,12125.9727,E,0.4,,210610,,,A*43
$GPGGA,100835.000,3117.7734,N,12125.9729,E,1,,,9.7,M,,M,,*6E
$GPRMC,100835.000,A,3117.7734,N,12125.9729,E,0.2,,210610,,,A*4A
$GPGGA,100836.000,3117.7737,N,12125.9732,E,1,,,9.1,M,,M,,*62
$GPRMC,100836.000,A,3117.7737,N,12125.9732,E,1.3,,210610,,,A*40
$GPGGA,100837.000,3117.7740,N,12125.9735,E,1,,,8.7,M,,M,,*63
$GPRMC,100837.000,A,3117.7740,N,12125.9735,E,1.4,,210610,,,A*41
$GPGGA,100838.000,3117.7745,N,12125.9734,E,1,,,8.2,M,,M,,*6D
$GPRMC,100838.000,A,3117.7745,N,12125.9734,E,1.8,,210610,,,A*46
$GPGGA,100839.000,3117.7748,N,12125.9734,E,1,,,7.7,M,,M,,*6B
$GPRMC,100839.000,A,3117.7748,N,12125.9734,E,1.3,,210610,,,A*41
$GPGGA,100840.000,3117.7750,N,12125.9737,E,1,,,7.1,M,,M,,*69
$GPRMC,100840.000,A,3117.7750,N,12125.9737,E,0.9,,210610,,,A*4E
$GPGGA,100841.000,3117.7748,N,12125.9740,E,1,,,6.2,M,,M,,*63
$GPRMC,100841.000,A,3117.7748,N,12125.9740,E,0.9,,210610,,,A*46
$GPGGA,100842.000,3117.7747,N,12125.9742,E,1,,,5.2,M,,M,,*6E
$GPRMC,100842.000,A,3117.7747,N,12125.9742,E,0.9,,210610,,,A*48
$GPGGA,100843.000,3117.7746,N,12125.9744,E,1,,,4.2,M,,M,,*69
$GPRMC,100843.000,A,3117.7746,N,12125.9744,E,0.7,,210610,,,A*40
$GPGGA,100844.000,3117.7746,N,12125.9746,E,1,,,3.2,M,,M,,*6B
$GPRMC,100844.000,A,3117.7746,N,12125.9746,E,0.5,,210610,,,A*47
$GPGGA,100845.000,3117.7748,N,12125.9748,E,1,,,2.2,M,,M,,*6B
$GPRMC,100845.000,A,3117.7748,N,12125.9748,E,0.9,,210610,,,A*4A
$GPGGA,100846.000,3117.7755,N,12125.9748,E,1,,,1.3,M,,M,,*66
$GPRMC,100846.000,A,3117.7755,N,12125.9748,E,2.1,,210610,,,A*4F
$GPGGA,100847.000,3117.7762,N,12125.9748,E,1,,,0.6,M,,M,,*67
$GPRMC,100847.000,A,3117.7762,N,12125.9748,E,2.1,,210610,,,A*4A
$GPGGA,100848.000,3117.7764,N,12125.9752,E,1,,,0.0,M,,M,,*63
$GPRMC,100848.000,A,3117.7764,N,12125.9752,E,1.1,,210610,,,A*4B
$GPGGA,100849.000,3117.7764,N,12125.9752,E,1,,,-0.5,M,,M,,*4A
$GPRMC,100849.000,A,3117.7764,N,12125.9752,E,0.4,,210610,,,A*4E
$GPGGA,100850.000,3117.7761,N,12125.9752,E,1,,,-1.0,M,,M,,*43
$GPRMC,100850.000,A,3117.7761,N,12125.9752,E,1.3,,210610,,,A*45
$GPGGA,100851.000,3117.7758,N,12125.9754,E,1,,,-1.7,M,,M,,*49
$GPRMC,100851.000,A,3117.7758,N,12125.9754,E,1.8,,210610,,,A*43
$GPGGA,100852.000,3117.7757,N,12125.9757,E,1,,,-2.7,M,,M,,*45
$GPRMC,100852.000,A,3117.7757,N,12125.9757,E,1.1,,210610,,,A*45
$GPGGA,100853.000,3117.7754,N,12125.9760,E,1,,,-3.6,M,,M,,*43
$GPRMC,100853.000,A,3117.7754,N,12125.9760,E,2.0,,210610,,,A*41
$GPGGA,100854.000,3117.7754,N,12125.9759,E,1,,,-4.5,M,,M,,*4A
$GPRMC,100854.000,A,3117.7754,N,12125.9759,E,0.9,,210610,,,A*47
$GPGGA,100855.000,3117.7758,N,12125.9755,E,1,,,-5.7,M,,M,,*48
$GPRMC,100855.000,A,3117.7758,N,12125.9755,E,1.4,,210610,,,A*4A
$GPGGA,100856.000,3117.7765,N,12125.9754,E,1,,,-7.1,M,,M,,*40
$GPRMC,100856.000,A,3117.7765,N,12125.9754,E,1.5,,210610,,,A*47
$GPGGA,100857.000,3117.7773,N,12125.9753,E,1,,,-8.5,M,,M,,*4A
$GPRMC,100857.000,A,3117.7773,N,12125.9753,E,1.8,,210610,,,A*4B
$GPGGA,100858.000,3117.7782,N,12125.9750,E,1,,,-10.0,M,,M,,*74
$GPRMC,100858.000,A,3117.7782,N,12125.9750,E,2.0,,210610,,,A*42
$GPGGA,100859.000,3117.7789,N,12125.9752,E,1,,,-11.4,M,,M,,*79
$GPRMC,100859.000,A,3117.7789,N,12125.9752,E,1.9,,210610,,,A*40
$GPGGA,100900.000,3117.7797,N,12125.9756,E,1,,,-12.6,M,,M,,*7E
$GPRMC,100900.000,A,3117.7797,N,12125.9756,E,2.3,,210610,,,A*4F
$GPGGA,100901.000,3117.7806,N,12125.9755,E,1,,,-13.7,M,,M,,*7B
$GPRMC,100901.000,A,3117.7806,N,12125.9755,E,2.0,,210610,,,A*49
$GPGGA,100902.000,3117.7813,N,12125.9755,E,1,,,-14.5,M,,M,,*79
$GPRMC,100902.000,A,3117.7813,N,12125.9755,E,1.7,,210610,,,A*4A
$GPGGA,100903.000,3117.7817,N,12125.9757,E,1,,,-15.2,M,,M,,*78
$GPRMC,100903.000,A,3117.7817,N,12125.9757,E,1.3,,210610,,,A*49
$GPGGA,100904.000,3117.7822,N,12125.9755,E,1,,,-15.6,M,,M,,*7F
$GPRMC,100904.000,A,3117.7822,N,12125.9755,E,1.5,,210610,,,A*4C
$GPGGA,100905.000,3117.7821,N,12125.9755,E,1,,,-16.2,M,,M,,*7A
$GPRMC,100905.000,A,3117.7821,N,12125.9755,E,0.7,,210610,,,A*4D
$GPGGA,100906.000,3117.7818,N,12125.9756,E,1,,,-16.4,M,,M,,*76
$GPRMC,100906.000,A,3117.7818,N,12125.9756,E,1.1,,210610,,,A*40
$GPGGA,100907.000,3117.7817,N,12125.9755,E,1,,,-16.6,M,,M,,*79
$GPRMC,100907.000,A,3117.7817,N,12125.9755,E,0.6,,210610,,,A*4B
$GPGGA,100908.000,3117.7816,N,12125.9753,E,1,,,-17.0,M,,M,,*76
$GPRMC,100908.000,A,3117.7816,N,12125.9753,E,1.3,,210610,,,A*47
$GPGGA,100909.000,3117.7813,N,12125.9754,E,1,,,-17.5,M,,M,,*70
$GPRMC,100909.000,A,3117.7813,N,12125.9754,E,0.9,,210610,,,A*4F
$GPGGA,100910.000,3117.7806,N,12125.9758,E,1,,,-17.8,M,,M,,*7D
$GPRMC,100910.000,A,3117.7806,N,12125.9758,E,1.8,,210610,,,A*4F
$GPGGA,100911.000,3117.7798,N,12125.9765,E,1,,,-17.8,M,,M,,*7A
$GPRMC,100911.000,A,3117.7798,N,12125.9765,E,2.8,,210610,,,A*4B
$GPGGA,100912.000,3117.7790,N,12125.9773,E,1,,,-17.9,M,,M,,*77
$GPRMC,100912.000,A,3117.7790,N,12125.9773,E,2.9,,210610,,,A*46
$GPGGA,100913.000,3117.7784,N,12125.9780,E,1,,,-18.0,M,,M,,*79
$GPRMC,100913.000,A,3117.7784,N,12125.9780,E,1.7,,210610,,,A*43
$GPGGA,100914.000,3117.7777,N,12125.9787,E,1,,,-18.0,M,,M,,*75
$GPRMC,100914.000,A,3117.7777,N,12125.9787,E,2.4,,210610,,,A*4F
$GPGGA,100915.000,3117.7766,N,12125.9797,E,1,,,-17.8,M,,M,,*72
$GPRMC,100915.000,A,3117.7766,N,12125.9797,E,4.0,,210610,,,A*4D
$GPGGA,100916.000,3117.7754,N,12125.9806,E,1,,,-17.4,M,,M,,*7B
$GPRMC,100916.000,A,3117.7754,N,12125.9806,E,3.8,,210610,,,A*47
$GPGGA,100917.000,3117.7745,N,12125.9816,E,1,,,-17.1,M,,M,,*7E
$GPRMC,100917.000,A,3117.7745,N,12125.9816,E,3.3,,210610,,,A*4C
$GPGGA,100918.000,3117.7734,N,12125.9825,E,1,,,-16.4,M,,M,,*73
$GPRMC,100918.000,A,3117.7734,N,12125.9825,E,3.5,,210610,,,A*43
$GPGGA,100919.000,3117.7726,N,12125.9830,E,1,,,-15.4,M,,M,,*76
$GPRMC,100919.000,A,3117.7726,N,12125.9830,E,1.9,,210610,,,A*4B
$GPGGA,100920.000,3117.7717,N,12125.9834,E,1,,,-14.4,M,,M,,*7B
$GPRMC,100920.000,A,3117.7717,N,12125.9834,E,2.2,,210610,,,A*4F
$GPGGA,100944.000,3117.7624,N,12126.0021,E,1,,,-15.8,M,,M,,*73
$GPRMC,100944.000,A,3117.7624,N,12126.0021,E,1.3,,210610,,,A*48
$GPGGA,100945.000,3117.7624,N,12126.0030,E,1,,,-18.7,M,,M,,*70
$GPRMC,100945.000,A,3117.7624,N,12126.0030,E,0.7,,210610,,,A*4C
$GPGGA,100946.000,3117.7624,N,12126.0039,E,1,,,-21.7,M,,M,,*70
$GPRMC,100946.000,A,3117.7624,N,12126.0039,E,1.0,,210610,,,A*40
$GPGGA,100947.000,3117.7627,N,12126.0048,E,1,,,-25.0,M,,M,,*77
$GPRMC,100947.000,A,3117.7627,N,12126.0048,E,1.3,,210610,,,A*47
$GPGGA,100948.000,3117.7631,N,12126.0057,E,1,,,-28.6,M,,M,,*7A
$GPRMC,100948.000,A,3117.7631,N,12126.0057,E,1.9,,210610,,,A*4B
$GPGGA,100949.000,3117.7636,N,12126.0065,E,1,,,-32.4,M,,M,,*74
$GPRMC,100949.000,A,3117.7636,N,12126.0065,E,2.3,,210610,,,A*45
$GPGGA,100950.000,3117.7641,N,12126.0074,E,1,,,-36.5,M,,M,,*79
$GPRMC,100950.000,A,3117.7641,N,12126.0074,E,2.1,,210610,,,A*4F
$GPGGA,100951.000,3117.7642,N,12126.0084,E,1,,,-40.7,M,,M,,*77
$GPRMC,100951.000,A,3117.7642,N,12126.0084,E,1.1,,210610,,,A*41
$GPGGA,100952.000,3117.7638,N,12126.0098,E,1,,,-44.9,M,,M,,*7E
$GPRMC,100952.000,A,3117.7638,N,12126.0098,E,2.0,,210610,,,A*40
$GPGGA,100953.000,3117.7634,N,12126.0112,E,1,,,-48.9,M,,M,,*7C
$GPRMC,100953.000,A,3117.7634,N,12126.0112,E,2.0,,210610,,,A*4E
$GPGGA,100954.000,3117.7629,N,12126.0125,E,1,,,-52.7,M,,M,,*76
$GPRMC,100954.000,A,3117.7629,N,12126.0125,E,2.3,,210610,,,A*42
$GPGGA,100955.000,3117.7623,N,12126.0138,E,1,,,-56.4,M,,M,,*76
$GPRMC,100955.000,A,3117.7623,N,12126.0138,E,2.5,,210610,,,A*43
$GPGGA,100956.000,3117.7618,N,12126.0149,E,1,,,-60.1,M,,M,,*7B
$GPRMC,100956.000,A,3117.7618,N,12126.0149,E,2.6,,210610,,,A*4D
$GPGGA,100957.000,3117.7614,N,12126.0159,E,1,,,-63.8,M,,M,,*7D
$GPRMC,100957.000,A,3117.7614,N,12126.0159,E,2.3,,210610,,,A*44
$GPGGA,100958.000,3117.7617,N,12126.0164,E,1,,,-67.6,M,,M,,*75
$GPRMC,100958.000,A,3117.7617,N,12126.0164,E,1.1,,210610,,,A*47
$GPGGA,100959.000,3117.7627,N,12126.0165,E,1,,,-71.6,M,,M,,*71
$GPRMC,100959.000,A,3117.7627,N,12126.0165,E,3.2,,210610,,,A*45
$GPGGA,101000.000,3117.7637,N,12126.0168,E,1,,,-75.8,M,,M,,*73
$GPRMC,101000.000,A,3117.7637,N,12126.0168,E,2.8,,210610,,,A*46
$GPGGA,101001.000,3117.7647,N,12126.0173,E,1,,,-80.1,M,,M,,*7C
$GPRMC,101001.000,A,3117.7647,N,12126.0173,E,2.5,,210610,,,A*47
$GPGGA,101002.000,3117.7656,N,12126.0179,E,1,,,-84.4,M,,M,,*74
$GPRMC,101002.000,A,3117.7656,N,12126.0179,E,2.1,,210610,,,A*4A
$GPGGA,101003.000,3117.7666,N,12126.0186,E,1,,,-88.7,M,,M,,*79
$GPRMC,101003.000,A,3117.7666,N,12126.0186,E,2.5,,210610,,,A*4C
$GPGGA,101004.000,3117.7676,N,12126.0193,E,1,,,-93.3,M,,M,,*75
$GPRMC,101004.000,A,3117.7676,N,12126.0193,E,2.3,,210610,,,A*48
$GPGGA,101005.000,3117.7684,N,12126.0201,E,1,,,-97.8,M,,M,,*7E
$GPRMC,101005.000,A,3117.7684,N,12126.0201,E,1.6,,210610,,,A*4A
$GPGGA,101006.000,3117.7691,N,12126.0212,E,1,,,-102.6,M,,M,,*48
$GPRMC,101006.000,A,3117.7691,N,12126.0212,E,1.4,,210610,,,A*4D
$GPGGA,101007.000,3117.7697,N,12126.0224,E,1,,,-107.4,M,,M,,*4D
$GPRMC,101007.000,A,3117.7697,N,12126.0224,E,1.1,,210610,,,A*4A
$GPGGA,101008.000,3117.7702,N,12126.0239,E,1,,,-112.3,M,,M,,*40
$GPRMC,101008.000,A,3117.7702,N,12126.0239,E,1.1,,210610,,,A*44
$GPGGA,101009.000,3117.7704,N,12126.0253,E,1,,,-117.4,M,,M,,*49
$GPRMC,101009.000,A,3117.7704,N,12126.0253,E,0.8,,210610,,,A*47
$GPGGA,101010.000,3117.7705,N,12126.0266,E,1,,,-122.5,M,,M,,*41
$GPRMC,101010.000,A,3117.7705,N,12126.0266,E,0.5,,210610,,,A*45
$GPGGA,101011.000,3117.7707,N,12126.0277,E,1,,,-127.7,M,,M,,*45
$GPRMC,101011.000,A,3117.7707,N,12126.0277,E,0.6,,210610,,,A*45
$GPGGA,101012.000,3117.7708,N,12126.0291,E,1,,,-133.2,M,,M,,*41
$GPRMC,101012.000,A,3117.7708,N,12126.0291,E,0.1,,210610,,,A*46
$GPGGA,101013.000,3117.7706,N,12126.0309,E,1,,,-138.2,M,,M,,*45
$GPRMC,101013.000,A,3117.7706,N,12126.0309,E,1.0,,210610,,,A*49
$GPGGA,101014.000,3117.7703,N,12126.0327,E,1,,,-142.9,M,,M,,*4D
$GPRMC,101014.000,A,3117.7703,N,12126.0327,E,0.7,,210610,,,A*41
$GPGGA,101015.000,3117.7703,N,12126.0339,E,1,,,-147.5,M,,M,,*4A
$GPRMC,101015.000,A,3117.7703,N,12126.0339,E,1.1,,210610,,,A*48
$GPGGA,101016.000,3117.7701,N,12126.0353,E,1,,,-151.9,M,,M,,*4C
$GPRMC,101016.000,A,3117.7701,N,12126.0353,E,0.8,,210610,,,A*4D
$GPGGA,101017.000,3117.7699,N,12126.0366,E,1,,,-156.0,M,,M,,*45
$GPRMC,101017.000,A,3117.7699,N,12126.0366,E,1.1,,210610,,,A*42
$GPGGA,101018.000,3117.7697,N,12126.0381,E,1,,,-160.0,M,,M,,*48
$GPRMC,101018.000,A,3117.7697,N,12126.0381,E,0.5,,210610,,,A*4F
$GPGGA,101019.000,3117.7694,N,12126.0396,E,1,,,-163.7,M,,M,,*48
$GPRMC,101019.000,A,3117.7694,N,12126.0396,E,0.4,,210610,,,A*4A
$GPGGA,101020.000,3117.7688,N,12126.0412,E,1,,,-166.7,M,,M,,*41
$GPRMC,101020.000,A,3117.7688,N,12126.0412,E,1.3,,210610,,,A*40
$GPGGA,101021.000,3117.7678,N,12126.0432,E,1,,,-169.6,M,,M,,*43
$GPRMC,101021.000,A,3117.7678,N,12126.0432,E,2.8,,210610,,,A*44
$GPGGA,101022.000,3117.7664,N,12126.0455,E,1,,,-172.1,M,,M,,*41
$GPRMC,101022.000,A,3117.7664,N,12126.0455,E,4.1,,210610,,,A*44
$GPGGA,101023.000,3117.7648,N,12126.0478,E,1,,,-173.9,M,,M,,*48
$GPRMC,101023.000,A,3117.7648,N,12126.0478,E,4.8,,210610,,,A*4D
$GPGGA,101024.000,3117.7632,N,12126.0499,E,1,,,-175.4,M,,M,,*46
$GPRMC,101024.000,A,3117.7632,N,12126.0499,E,5.0,,210610,,,A*41
$GPGGA,101025.000,3117.7620,N,12126.0517,E,1,,,-177.2,M,,M,,*47
$GPRMC,101025.000,A,3117.7620,N,12126.0517,E,2.9,,210610,,,A*4A
$GPGGA,101026.000,3117.7609,N,12126.0531,E,1,,,-178.8,M,,M,,*4E
