$GPRMC,094114,A,4729.3124,N,01904.7678,E,001.3,186.7,310305,002.9,E*74
$GPGGA,094114,4729.3124,N,01904.7678,E,6,05,2.6,113.2,M,41.0,M,,*47
$GPGSA,A,3,03,,,15,16,18,,,22,,,,2.6,2.6,1.0*3A
$GPRMC,094115,A,4729.3117,N,01904.7676,E,001.3,186.7,310305,002.9,E*7B
$GPGGA,094115,4729.3117,N,01904.7676,E,6,05,2.6,113.3,M,41.0,M,,*49
$GPGSA,A,3,03,,,15,16,,,,22,,,,2.6,2.6,1.0*33
$GPRMC,094116,A,4729.3113,N,01904.7676,E,001.3,186.7,310305,002.9,E*7C
$GPGGA,094116,4729.3113,N,01904.7676,E,6,04,2.6,113.3,M,41.0,M,,*4F
$GPGSA,A,3,03,,,15,16,18,,,22,,,,2.6,2.6,1.0*3A
$GPRMC,094117,A,4729.3122,N,01904.7668,E,001.4,190.7,310305,002.9,E*70
$GPGGA,094117,4729.3122,N,01904.7668,E,1,05,4.0,107.0,M,41.0,M,,*43
$GPGSA,A,3,03,,,15,16,18,,,22,,,,6.4,4.0,4.8*31
$GPRMC,094119,A,4729.3112,N,01904.7672,E,001.4,180.1,310305,002.9,E*71
$GPGGA,094119,4729.3112,N,01904.7672,E,1,05,4.5,108.0,M,41.0,M,,*4F
$GPGSA,A,3,03,,,15,16,18,,,22,,,,6.7,4.5,1.0*3A
$GPRMC,094120,A,4729.3102,N,01904.7672,E,001.5,180.5,310305,002.9,E*7F
$GPGGA,094120,4729.3102,N,01904.7672,E,1,05,2.2,107.9,M,41.0,M,,*43
$GPGSA,A,3,03,,,15,16,18,,,22,,,,2.2,2.2,1.0*3A
$GPRMC,094121,A,4729.3098,N,01904.7672,E,001.5,180.5,310305,002.9,E*7C
$GPGGA,094121,4729.3098,N,01904.7672,E,6,05,2.2,107.9,M,41.0,M,,*47
$GPGSA,A,3,03,,,15,16,18,,,22,,,,2.2,2.2,1.0*3A
$GPRMC,094122,A,4729.3100,N,01904.7660,E,001.5,182.9,310305,002.9,E*72
$GPGGA,094122,4729.3100,N,01904.7660,E,1,05,2.5,107.9,M,41.0,M,,*47
$GPGSA,A,3,03,,,15,16,18,,,22,,,,3.2,3.2,1.0*3A
$GPRMC,094123,A,4729.3099,N,01904.7652,E,001.8,174.1,310305,002.9,E*7F
$GPGGA,094123,4729.3099,N,01904.7652,E,1,05,3.2,107.9,M,41.0,M,,*40
$GPGSA,A,3,03,,,15,16,18,,,22,,,,3.2,3.2,1.0*3A
$GPRMC,094124,A,4729.3092,N,01904.7654,E,001.9,167.9,310305,002.9,E*7E
$GPGGA,094124,4729.3092,N,01904.7654,E,1,05,3.3,108.2,M,41.0,M,,*4F
$GPGSA,A,3,03,,,15,16,18,,,22,,,,3.6,3.3,1.5*3A
$GPRMC,094126,A,4729.3082,N,01904.7665,E,001.9,167.0,310305,002.9,E*76
$GPGGA,094126,4729.3082,N,01904.7665,E,1,05,2.9,108.0,M,41.0,M,,*47
$GPGSA,A,3,03,,,15,16,18,,,22,,,,2.9,2.9,1.0*3A
$GPRMC,094127,A,4729.3077,N,01904.7667,E,001.9,167.0,310305,002.9,E*7F
$GPGGA,094127,4729.3077,N,01904.7667,E,6,05,2.9,107.8,M,41.0,M,,*4E
$GPGSA,A,3,03,,,15,16,18,,,22,,,,2.9,2.9,1.0*3A
$GPRMC,094128,A,4729.3076,N,01904.7661,E,002.2,158.5,310305,002.9,E*76
$GPGGA,094128,4729.3076,N,01904.7661,E,1,05,3.5,107.6,M,41.0,M,,*42
$GPGSA,A,3,03,,,15,16,18,,,22,,,,3.5,3.5,1.0*3A
$GPRMC,094129,A,4729.3070,N,01904.7664,E,002.2,158.5,310305,002.9,E*74
$GPGGA,094129,4729.3070,N,01904.7664,E,6,05,3.5,107.5,M,41.0,M,,*44
$GPGSA,A,3,03,,,15,16,18,,,22,,,,3.5,3.5,1.0*3A
$GPRMC,094130,A,4729.3067,N,01904.7672,E,002.1,160.0,310305,002.9,E*70
$GPGGA,094130,4729.3067,N,01904.7672,E,1,05,3.6,105.6,M,41.0,M,,*48
$GPGSA,A,3,03,,,15,16,18,,,22,,,,4.1,3.6,1.8*32
$GPRMC,094131,A,4729.3054,N,01904.7678,E,001.9,160.2,310305,002.9,E*72
$GPGGA,094131,4729.3054,N,01904.7678,E,1,05,2.6,105.6,M,41.0,M,,*42
$GPGSA,A,3,03,,,15,16,18,,,22,,,,2.6,2.6,1.0*3A
$GPRMC,094132,A,4729.3049,N,01904.7681,E,001.9,160.2,310305,002.9,E*7B
$GPGGA,094132,4729.3049,N,01904.7681,E,1,05,2.6,105.5,M,41.0,M,,*48
$GPGSA,A,3,03,,,15,16,18,,,22,,,,2.6,2.6,1.0*3A
$GPRMC,094134,A,4729.3046,N,01904.7679,E,001.8,161.3,310305,002.9,E*74
$GPGGA,094134,4729.3046,N,01904.7679,E,1,05,2.6,106.2,M,41.0,M,,*42
$GPGSA,A,3,03,,,15,16,18,,,22,,,,2.6,2.6,1.0*3A
$GPRMC,094135,A,4729.3042,N,01904.7681,E,001.8,161.3,310305,002.9,E*76
$GPGGA,094135,4729.3042,N,01904.7681,E,6,05,2.6,106.1,M,41.0,M,,*44
$GPGSA,A,3,03,,,15,16,18,,,22,,,,2.6,2.6,1.0*3A
$GPRMC,094136,A,4729.3037,N,01904.7683,E,001.8,161.3,310305,002.9,E*75
$GPGGA,094136,4729.3037,N,01904.7683,E,6,05,2.6,106.1,M,41.0,M,,*47
$GPGSA,A,3,03,,,15,16,18,,,22,,,,2.6,2.6,1.0*3A
$GPRMC,094137,A,4729.3028,N,01904.7688,E,001.8,161.3,310305,002.9,E*71
$GPGGA,094137,4729.3028,N,01904.7688,E,6,05,2.6,106.1,M,41.0,M,,*43
$GPGSA,A,3,03,,,15,16,18,,,22,,,,2.6,2.6,1.0*3A
$GPRMC,094139,A,4729.3023,N,01904.7690,E,001.8,161.3,310305,002.9,E*7D
$GPGGA,094139,4729.3023,N,01904.7690,E,6,05,2.6,106.1,M,41.0,M,,*4F
$GPGSA,A,3,03,,,15,16,18,,,22,,,,2.6,2.6,1.0*3A
$GPRMC,094140,A,4729.3013,N,01904.7695,E,001.8,161.3,310305,002.9,E*75
$GPGGA,094140,4729.3013,N,01904.7695,E,6,05,2.6,106.1,M,41.0,M,,*47
$GPGSA,A,3,03,,,15,16,18,,,22,,,,2.6,2.6,1.0*3A
$GPRMC,094141,A,4729.3010,N,01904.7689,E,001.8,162.8,310305,002.9,E*72
$GPGGA,094141,4729.3010,N,01904.7689,E,1,05,2.6,106.1,M,41.0,M,,*4F
$GPGSA,A,3,03,,,15,16,18,,,22,,,,2.6,2.6,1.0*3A
$GPRMC,094143,A,4729.3001,N,01904.7694,E,001.8,162.8,310305,002.9,E*7C
$GPGGA,094143,4729.3001,N,01904.7694,E,6,05,2.6,106.1,M,41.0,M,,*46
$GPGSA,A,3,03,,,,,18,,,22,,,,2.6,2.6,1.0*39
$GPRMC,094144,A,4729.2998,N,01904.7694,E,001.7,161.0,310305,002.9,E*77
$GPGGA,094144,4729.2998,N,01904.7694,E,1,03,2.6,106.1,M,41.0,M,,*48
$GPGSA,A,3,03,,,,16,18,,,22,,,,2.6,2.6,1.0*3E
$GPRMC,094145,A,4729.2995,N,01904.7692,E,001.6,161.0,310305,002.9,E*7C
$GPGGA,094145,4729.2995,N,01904.7692,E,1,04,2.8,106.1,M,41.0,M,,*4B
$GPGSA,A,3,03,,,15,16,18,,,22,,,,2.8,2.8,1.0*3A
$GPRMC,094146,A,4729.2995,N,01904.7695,E,001.4,161.1,310305,002.9,E*7B
$GPGGA,094146,4729.2995,N,01904.7695,E,1,05,3.1,109.2,M,41.0,M,,*4A
$GPGSA,A,3,03,,,15,16,18,,,22,,,,3.1,3.1,1.0*3A
$GPRMC,094147,A,4729.2995,N,01904.7699,E,001.3,161.0,310305,002.9,E*70
$GPGGA,094147,4729.2995,N,01904.7699,E,1,05,2.7,112.4,M,41.0,M,,*4C
$GPGSA,A,3,03,,,15,16,18,,,22,,,,2.7,2.7,1.0*3A
$GPRMC,094148,A,4729.2996,N,01904.7703,E,001.2,161.0,310305,002.9,E*7F
$GPGGA,094148,4729.2996,N,01904.7703,E,1,05,2.8,115.6,M,41.0,M,,*48
$GPGSA,A,3,03,,,15,16,18,,,22,,,,2.8,2.8,1.0*3A
$GPRMC,094149,A,4729.2995,N,01904.7704,E,001.1,161.0,310305,002.9,E*79
$GPGGA,094149,4729.2995,N,01904.7704,E,1,05,2.8,114.9,M,41.0,M,,*43
$GPGSA,A,3,03,,,15,16,18,,,22,,,,2.8,2.8,1.0*3A
$GPRMC,094150,A,4729.2989,N,01904.7707,E,001.1,161.0,310305,002.9,E*7F
$GPGGA,094150,4729.2989,N,01904.7707,E,6,05,2.8,114.9,M,41.0,M,,*42
$GPGSA,A,3,03,,,15,16,18,,,22,,,,3.5,2.9,1.7*30
$GPRMC,094151,A,4729.2989,N,01904.7710,E,001.1,161.0,310305,002.9,E*78
$GPGGA,094151,4729.2989,N,01904.7710,E,1,05,2.9,113.6,M,41.0,M,,*4B
$GPGSA,A,3,03,,,15,16,18,,,22,,,,3.5,2.9,1.7*30
$GPRMC,094152,A,4729.2984,N,01904.7704,E,001.0,161.0,310305,002.9,E*72
$GPGGA,094152,4729.2984,N,01904.7704,E,1,05,3.0,116.0,M,41.0,M,,*4B
$GPGSA,A,3,03,,,15,16,18,,,22,,,,2.6,2.6,1.0*3A
$GPRMC,094154,A,4729.2983,N,01904.7699,E,000.9,161.0,310305,002.9,E*7E
$GPGGA,094154,4729.2983,N,01904.7699,E,1,05,2.6,116.0,M,41.0,M,,*48
$GPGSA,A,3,03,,,15,16,18,,,22,,,,2.6,2.6,1.0*3A
$GPRMC,094155,A,4729.2983,N,01904.7699,E,000.0,161.0,310305,002.9,E*76
$GPGGA,094155,4729.2983,N,01904.7699,E,1,05,2.6,116.0,M,41.0,M,,*49
$GPGSA,A,3,03,,,15,16,18,,,22,,,,2.6,2.6,1.0*3A
$GPRMC,094156,A,4729.2981,N,01904.7700,E,000.0,161.0,310305,002.9,E*76
$GPGGA,094156,4729.2981,N,01904.7700,E,1,05,2.6,116.0,M,41.0,M,,*49
$GPGSA,A,3,03,,,15,16,18,,,22,,,,2.6,2.6,1.0*3A
$GPRMC,094157,A,4729.2978,N,01904.7701,E,000.0,161.0,310305,002.9,E*70
$GPGGA,094157,4729.2978,N,01904.7701,E,6,05,2.6,116.0,M,41.0,M,,*48
$GPGSA,A,3,03,,,15,16,18,,,22,,,,2.6,2.6,1.0*3A
$GPRMC,094158,A,4729.2977,N,01904.7700,E,000.9,161.0,310305,002.9,E*78
$GPGGA,094158,4729.2977,N,01904.7700,E,1,05,2.6,116.0,M,41.0,M,,*4E
$GPGSA,A,3,03,,,15,16,18,,,22,,,,2.6,2.6,1.0*3A
$GPRMC,094159,A,4729.2974,N,01904.7701,E,000.9,161.0,310305,002.9,E*7B
$GPGGA,094159,4729.2974,N,01904.7701,E,1,05,2.6,116.0,M,41.0,M,,*4D
$GPGSA,A,3,03,,,15,16,18,,,22,,,,2.6,2.6,1.0*3A
$GPRMC,094200,A,4729.2972,N,01904.7703,E,000.9,161.0,310305,002.9,E*70
$GPGGA,094200,4729.2972,N,01904.7703,E,6,05,2.6,116.0,M,41.0,M,,*41
$GPGSA,A,3,03,,,15,16,18,,,22,,,,2.6,2.6,1.0*3A
$GPRMC,094201,A,4729.2970,N,01904.7703,E,000.0,161.0,310305,002.9,E*7A
$GPGGA,094201,4729.2970,N,01904.7703,E,1,05,2.6,116.0,M,41.0,M,,*45
$GPGSA,A,3,03,,,,16,,,,22,,,,2.6,2.6,1.0*37
$GPRMC,094203,A,4729.2963,N,01904.7705,E,000.0,161.0,310305,002.9,E*7C
$GPGGA,094203,4729.2963,N,01904.7705,E,6,03,2.6,116.0,M,41.0,M,,*42
$GPGSA,A,3,03,,,,16,,,,22,,,,2.6,2.6,1.0*37
$GPRMC,094205,A,4729.2961,N,01904.7705,E,000.0,161.0,310305,002.9,E*78
$GPGGA,094205,4729.2961,N,01904.7705,E,6,03,2.6,116.0,M,41.0,M,,*46
$GPGSA,A,3,03,,,,16,,,,22,,,,2.6,2.6,1.0*37
$GPRMC,094206,A,4729.2959,N,01904.7706,E,000.0,161.0,310305,002.9,E*73
$GPGGA,094206,4729.2959,N,01904.7706,E,6,03,2.6,116.0,M,41.0,M,,*4D
$GPGSA,A,3,03,,,,16,,,,22,,,,2.6,2.6,1.0*37
$GPRMC,094207,A,4729.2956,N,01904.7707,E,000.0,161.0,310305,002.9,E*7C
$GPGGA,094207,4729.2956,N,01904.7707,E,6,03,2.6,116.0,M,41.0,M,,*42
$GPGSA,A,3,03,,,,16,,,,22,,,,2.6,2.6,1.0*37
$GPRMC,094208,A,4729.2954,N,01904.7707,E,000.0,161.0,310305,002.9,E*71
$GPGGA,094208,4729.2954,N,01904.7707,E,6,03,2.6,116.0,M,41.0,M,,*4F
$GPGSA,A,3,03,,,,16,,,,22,,,,2.6,2.6,1.0*37
$GPRMC,094209,A,4729.2952,N,01904.7708,E,000.0,161.0,310305,002.9,E*79
$GPGGA,094209,4729.2952,N,01904.7708,E,6,03,2.6,116.0,M,41.0,M,,*47
$GPGSA,A,3,03,,,,16,,,,22,,,,2.6,2.6,1.0*37
$GPRMC,094210,A,4729.2946,N,01904.7706,E,000.9,161.0,310305,002.9,E*73
$GPGGA,094210,4729.2946,N,01904.7706,E,1,03,2.6,116.0,M,41.0,M,,*43
$GPGSA,A,3,03,,,15,16,,,,22,,,,2.6,2.6,1.0*33
$GPRMC,094212,A,4729.2946,N,01904.7700,E,001.0,161.0,310305,002.9,E*7F
$GPGGA,094212,4729.2946,N,01904.7700,E,6,04,2.8,116.0,M,41.0,M,,*49
$GPGSA,A,3,03,,,15,16,,,,22,,,,2.8,2.8,1.0*33
$GPRMC,094214,A,4729.2940,N,01904.7701,E,001.0,161.0,310305,002.9,E*7E
$GPGGA,094214,4729.2940,N,01904.7701,E,6,04,2.8,116.0,M,41.0,M,,*48
$GPGSA,A,3,03,,,15,16,,,,22,,,,2.8,2.8,1.0*33
$GPRMC,094215,A,4729.2937,N,01904.7702,E,001.0,161.0,310305,002.9,E*7C
$GPGGA,094215,4729.2937,N,01904.7702,E,6,04,2.8,116.0,M,41.0,M,,*4A
$GPGSA,A,3,03,,,15,16,,,,22,,,,2.8,2.8,1.0*33
$GPRMC,094216,A,4729.2934,N,01904.7702,E,001.0,161.0,310305,002.9,E*7C
$GPGGA,094216,4729.2934,N,01904.7702,E,6,04,2.8,116.0,M,41.0,M,,*4A
$GPGSA,A,3,03,,,15,16,,,,22,,,,2.8,2.8,1.0*33
$GPRMC,094217,A,4729.2928,N,01904.7703,E,001.0,161.0,310305,002.9,E*71
$GPGGA,094217,4729.2928,N,01904.7703,E,6,04,2.8,116.0,M,41.0,M,,*47
$GPGSA,A,3,03,,,15,16,,,,22,,,,2.8,2.8,1.0*33
$GPRMC,094218,A,4729.2921,N,01904.7702,E,001.2,161.0,310305,002.9,E*74
$GPGGA,094218,4729.2921,N,01904.7702,E,1,04,2.8,116.0,M,41.0,M,,*47
$GPGSA,A,3,03,,,15,16,18,,,22,,,,2.2,2.2,1.0*3A
$GPRMC,094219,A,4729.2918,N,01904.7697,E,001.2,161.0,310305,002.9,E*72
$GPGGA,094219,4729.2918,N,01904.7697,E,1,05,2.2,116.0,M,41.0,M,,*4A
$GPGSA,A,3,03,,,15,16,18,,,22,,,,2.2,2.2,1.0*3A
$GPRMC,094220,A,4729.2914,N,01904.7697,E,001.2,161.0,310305,002.9,E*74
$GPGGA,094220,4729.2914,N,01904.7697,E,6,05,2.2,116.0,M,41.0,M,,*4B
$GPGSA,A,3,03,,,15,16,18,,,22,,,,2.2,2.2,1.0*3A
$GPRMC,094221,A,4729.2909,N,01904.7697,E,001.2,161.0,310305,002.9,E*79
$GPGGA,094221,4729.2909,N,01904.7697,E,1,05,2.3,116.0,M,41.0,M,,*40
$GPGSA,A,3,03,,,,16,18,,,22,,,,2.3,2.3,1.0*3E
$GPRMC,094222,A,4729.2911,N,01904.7692,E,001.7,165.2,310305,002.9,E*75
$GPGGA,094222,4729.2911,N,01904.7692,E,1,04,2.6,116.0,M,41.0,M,,*4B
$GPGSA,A,3,03,,,15,16,18,,,22,,,,2.6,2.6,1.0*3A
$GPRMC,094224,A,4729.2901,N,01904.7696,E,001.7,165.2,310305,002.9,E*76
$GPGGA,094224,4729.2901,N,01904.7696,E,6,05,2.6,116.0,M,41.0,M,,*4E
$GPGSA,A,3,03,,,15,16,18,,,22,,,,2.6,2.6,1.0*3A
$GPRMC,094225,A,4729.2896,N,01904.7697,E,001.7,165.2,310305,002.9,E*79
$GPGGA,094225,4729.2896,N,01904.7697,E,6,05,2.6,116.0,M,41.0,M,,*41
$GPGSA,A,3,03,,,15,16,18,,,22,,,,2.6,2.6,1.0*3A
$GPRMC,094226,A,4729.2892,N,01904.7699,E,001.7,165.2,310305,002.9,E*70
$GPGGA,094226,4729.2892,N,01904.7699,E,6,05,2.6,116.0,M,41.0,M,,*48
$GPGSA,A,3,03,,,15,16,18,,,22,,,,2.6,2.6,1.0*3A
$GPRMC,094227,A,4729.2887,N,01904.7701,E,001.7,165.2,310305,002.9,E*75
$GPGGA,094227,4729.2887,N,01904.7701,E,6,05,2.6,116.0,M,41.0,M,,*4D
$GPGSA,A,3,03,,,15,16,18,,,22,,,,2.6,2.6,1.0*3A
$GPRMC,094228,A,4729.2882,N,01904.7703,E,001.7,165.2,310305,002.9,E*7D
$GPGGA,094228,4729.2882,N,01904.7703,E,6,05,2.6,116.0,M,41.0,M,,*45
$GPGSA,A,3,03,,,15,16,18,,,22,,,,2.6,2.6,1.0*3A
$GPRMC,094229,A,4729.2878,N,01904.7705,E,001.7,165.2,310305,002.9,E*7F
$GPGGA,094229,4729.2878,N,01904.7705,E,6,05,2.6,116.0,M,41.0,M,,*47
$GPGSA,A,3,03,,,15,16,18,,,22,,,,2.6,2.6,1.0*3A
$GPRMC,094230,A,4729.2873,N,01904.7706,E,001.7,165.2,310305,002.9,E*7F
$GPGGA,094230,4729.2873,N,01904.7706,E,6,05,2.6,116.0,M,41.0,M,,*47
$GPGSA,A,3,03,,,15,16,18,,,22,,,,2.6,2.6,1.0*3A
$GPRMC,094231,A,4729.2868,N,01904.7708,E,001.7,165.2,310305,002.9,E*7A
$GPGGA,094231,4729.2868,N,01904.7708,E,6,05,2.6,116.0,M,41.0,M,,*42
$GPGSA,A,3,,,,15,16,18,,,,,,,2.6,2.6,1.0*39
$GPRMC,094232,A,4729.2864,N,01904.7710,E,001.7,165.2,310305,002.9,E*7C
$GPGGA,094232,4729.2864,N,01904.7710,E,6,03,2.6,116.0,M,41.0,M,,*42
$GPGSA,A,3,,,,,,,,,,,,,2.6,2.6,1.0*33
$GPRMC,094233,A,4729.2857,N,01904.7711,E,001.7,160.9,310305,002.9,E*72
$GPGGA,094233,4729.2857,N,01904.7711,E,1,00,2.6,115.9,M,41.0,M,,*4C
$GPGSA,A,3,03,,,,16,18,,,22,,,,2.9,2.6,1.4*35
$GPRMC,094234,A,4729.2852,N,01904.7713,E,001.7,164.5,310305,002.9,E*7A
$GPGGA,094234,4729.2852,N,01904.7713,E,1,04,2.6,115.8,M,41.0,M,,*49
$GPGSA,A,3,03,,,,16,18,,,22,,,,2.6,2.6,1.0*3E
$GPRMC,094235,A,4729.2846,N,01904.7715,E,001.7,165.2,310305,002.9,E*7E
$GPGGA,094235,4729.2846,N,01904.7715,E,1,04,2.6,115.8,M,41.0,M,,*4B
$GPGSA,A,3,03,,,,16,18,,,22,,,,2.9,2.6,1.4*35
$GPRMC,094236,A,4729.2841,N,01904.7716,E,001.6,168.0,310305,002.9,E*77
$GPGGA,094236,4729.2841,N,01904.7716,E,1,04,2.8,115.8,M,41.0,M,,*42
$GPGSA,A,3,03,,,15,16,18,,,22,,,,3.1,2.8,1.0*32
$GPRMC,094238,A,4729.2832,N,01904.7718,E,001.6,168.0,310305,002.9,E*73
$GPGGA,094238,4729.2832,N,01904.7718,E,6,05,2.8,115.7,M,41.0,M,,*4F
$GPGSA,A,3,03,,,15,16,18,,,22,,,,3.1,2.8,1.0*32
$GPRMC,094239,A,4729.2826,N,01904.7717,E,001.6,169.4,310305,002.9,E*7D
$GPGGA,094239,4729.2826,N,01904.7717,E,1,05,2.6,115.7,M,41.0,M,,*4D
$GPGSA,A,3,03,,,15,16,18,,,22,,,,2.6,2.6,1.0*3A
$GPRMC,094241,A,4729.2818,N,01904.7720,E,001.6,169.4,310305,002.9,E*7B
$GPGGA,094241,4729.2818,N,01904.7720,E,6,05,2.6,115.7,M,41.0,M,,*4C
$GPGSA,A,3,03,,,15,16,18,,,22,,,,2.6,2.6,1.0*3A
$GPRMC,094242,A,4729.2814,N,01904.7721,E,001.6,169.4,310305,002.9,E*75
$GPGGA,094242,4729.2814,N,01904.7721,E,6,05,2.6,115.7,M,41.0,M,,*42
$GPGSA,A,3,03,,,15,16,18,,,22,,,,2.6,2.6,1.0*3A
$GPRMC,094244,A,4729.2803,N,01904.7720,E,001.5,179.0,310305,002.9,E*72
$GPGGA,094244,4729.2803,N,01904.7720,E,1,05,2.8,115.7,M,41.0,M,,*4A
$GPGSA,A,3,03,,,15,16,18,,,22,,,,2.8,2.8,1.0*3A
$GPRMC,094245,A,4729.2805,N,01904.7702,E,001.7,174.4,310305,002.9,E*7E
$GPGGA,094245,4729.2805,N,01904.7702,E,1,05,3.1,115.7,M,41.0,M,,*45
$GPGSA,A,3,03,,,15,16,18,,,22,,,,3.1,3.1,1.0*3A
$GPRMC,094246,A,4729.2801,N,01904.7699,E,002.0,171.6,310305,002.9,E*79
$GPGGA,094246,4729.2801,N,01904.7699,E,1,05,3.8,114.1,M,41.0,M,,*4F
$GPGSA,A,3,03,,,15,16,18,,,22,,,,5.1,3.8,3.0*37
$GPRMC,094248,A,4729.2789,N,01904.7702,E,002.0,171.6,310305,002.9,E*7B
$GPGGA,094248,4729.2789,N,01904.7702,E,6,05,3.8,114.8,M,41.0,M,,*43
$GPGSA,A,3,03,,,15,16,18,,,22,,,,5.1,3.8,3.0*37
$GPRMC,094249,A,4729.2781,N,01904.7699,E,002.1,175.0,310305,002.9,E*72
$GPGGA,094249,4729.2781,N,01904.7699,E,1,05,2.6,115.0,M,41.0,M,,*48
$GPGSA,A,3,03,,,15,16,18,,,22,,,,2.6,2.6,1.0*3A
$GPRMC,094250,A,4729.2773,N,01904.7702,E,002.1,165.5,310305,002.9,E*70
$GPGGA,094250,4729.2773,N,01904.7702,E,1,05,2.6,115.2,M,41.0,M,,*4C
$GPGSA,A,3,03,,,15,16,18,,,22,,,,2.6,2.6,1.0*3A
$GPRMC,094251,A,4729.2769,N,01904.7701,E,002.1,163.0,310305,002.9,E*7A
$GPGGA,094251,4729.2769,N,01904.7701,E,1,05,2.6,113.9,M,41.0,M,,*48
$GPGSA,A,3,03,,,15,16,18,,,22,,,,2.9,2.6,1.4*31
$GPRMC,094252,A,4729.2761,N,01904.7703,E,001.6,162.9,310305,002.9,E*7F
$GPGGA,094252,4729.2761,N,01904.7703,E,1,05,3.4,112.8,M,41.0,M,,*42
$GPGSA,A,3,03,,,15,16,18,,,22,,,,5.0,3.4,3.4*3E
$GPRMC,094254,A,4729.2761,N,01904.7707,E,001.6,165.0,310305,002.9,E*73
$GPGGA,094254,4729.2761,N,01904.7707,E,1,05,3.6,112.7,M,41.0,M,,*4D
$GPGSA,A,3,03,,,15,16,18,,,22,,,,5.1,3.6,1.0*3B
$GPRMC,094255,A,4729.2754,N,01904.7713,E,001.4,165.0,310305,002.9,E*73
$GPGGA,094255,4729.2754,N,01904.7713,E,1,05,2.9,112.6,M,41.0,M,,*40
$GPGSA,A,3,03,,,15,16,18,,,22,,,,2.9,2.9,1.0*3A
$GPRMC,094256,A,4729.2746,N,01904.7716,E,001.3,164.8,310305,002.9,E*78
$GPGGA,094256,4729.2746,N,01904.7716,E,1,05,2.9,114.6,M,41.0,M,,*43
$GPGSA,A,3,03,,,15,16,18,,,22,,,,2.9,2.9,1.0*3A
$GPRMC,094257,A,4729.2740,N,01904.7719,E,001.2,164.8,310305,002.9,E*71
$GPGGA,094257,4729.2740,N,01904.7719,E,1,05,2.2,115.9,M,41.0,M,,*4E
$GPGSA,A,3,03,,,15,16,18,,,22,,,,2.2,2.2,1.0*3A
$GPRMC,094258,A,4729.2741,N,01904.7718,E,001.1,164.8,310305,002.9,E*7D
$GPGGA,094258,4729.2741,N,01904.7718,E,1,05,2.2,115.1,M,41.0,M,,*49
$GPGSA,A,3,03,,,15,16,18,,,22,,,,2.2,2.2,1.0*3A
$GPRMC,094259,A,4729.2726,N,01904.7716,E,000.9,164.8,310305,002.9,E*7A
$GPGGA,094259,4729.2726,N,01904.7716,E,1,05,4.3,115.1,M,41.0,M,,*40
$GPGSA,A,3,03,,,15,16,18,,,22,,,,4.4,4.4,1.0*3A
$GPRMC,094300,A,4729.2723,N,01904.7713,E,000.9,164.8,310305,002.9,E*77
$GPGGA,094300,4729.2723,N,01904.7713,E,1,05,4.4,115.0,M,41.0,M,,*4B
$GPGSA,A,3,03,,,15,16,18,,,22,,,,4.4,4.4,1.0*3A
$GPRMC,094301,A,4729.2721,N,01904.7715,E,000.9,164.8,310305,002.9,E*72
$GPGGA,094301,4729.2721,N,01904.7715,E,6,05,4.4,115.0,M,41.0,M,,*49
$GPGSA,A,3,03,,,15,16,18,,,22,,,,4.4,4.4,1.0*3A
$GPRMC,094302,A,4729.2724,N,01904.7712,E,000.0,164.8,310305,002.9,E*7A
$GPGGA,094302,4729.2724,N,01904.7712,E,1,05,2.6,114.3,M,41.0,M,,*49
$GPGSA,A,3,03,,,15,16,18,,,22,,,,4.5,2.6,1.4*3B
$GPRMC,094303,A,4729.2723,N,01904.7711,E,000.0,164.8,310305,002.9,E*7F
$GPGGA,094303,4729.2723,N,01904.7711,E,1,05,2.2,114.2,M,41.0,M,,*49
$GPGSA,A,3,03,,,15,16,18,,,22,,,,2.2,2.2,1.0*3A
$GPRMC,094304,A,4729.2722,N,01904.7708,E,000.0,164.8,310305,002.9,E*71
$GPGGA,094304,4729.2722,N,01904.7708,E,1,05,2.3,114.1,M,41.0,M,,*45
$GPGSA,A,3,03,,,15,16,18,,,22,,,,2.3,2.3,1.0*3A
$GPRMC,094305,A,4729.2720,N,01904.7707,E,000.0,164.8,310305,002.9,E*7D
$GPGGA,094305,4729.2720,N,01904.7707,E,1,05,2.7,114.1,M,41.0,M,,*4D
$GPGSA,A,3,03,,,15,16,18,,,22,,,,2.7,2.7,1.0*3A
$GPRMC,094306,A,4729.2720,N,01904.7705,E,000.0,164.8,310305,002.9,E*7C
$GPGGA,094306,4729.2720,N,01904.7705,E,1,05,3.3,114.0,M,41.0,M,,*48
$GPGSA,A,3,03,,,15,16,18,,,22,,,,3.3,3.3,1.0*3A
$GPRMC,094307,A,4729.2715,N,01904.7708,E,000.0,164.8,310305,002.9,E*76
$GPGGA,094307,4729.2715,N,01904.7708,E,1,05,2.2,114.0,M,41.0,M,,*42
$GPGSA,A,3,03,,,15,16,18,,,22,,,,2.2,2.2,1.0*3A
$GPRMC,094308,A,4729.2714,N,01904.7708,E,000.0,164.8,310305,002.9,E*78
$GPGGA,094308,4729.2714,N,01904.7708,E,6,05,2.2,114.0,M,41.0,M,,*4B
$GPGSA,A,3,03,,,15,16,18,,,22,,,,2.2,2.2,1.0*3A
$GPRMC,094310,A,4729.2712,N,01904.7712,E,000.0,164.8,310305,002.9,E*7C
$GPGGA,094310,4729.2712,N,01904.7712,E,1,05,2.2,113.9,M,41.0,M,,*46
$GPGSA,A,3,03,,,15,16,18,,,22,,,,2.2,2.2,1.0*3A
$GPRMC,094311,A,4729.2710,N,01904.7713,E,000.0,164.8,310305,002.9,E*7E
$GPGGA,094311,4729.2710,N,01904.7713,E,6,05,2.2,113.9,M,41.0,M,,*43
$GPGSA,A,3,03,,,15,16,18,,,22,,,,2.2,2.2,1.0*3A
$GPRMC,094312,A,4729.2709,N,01904.7711,E,000.0,164.8,310305,002.9,E*77
$GPGGA,094312,4729.2709,N,01904.7711,E,1,05,2.2,113.9,M,41.0,M,,*4D
$GPGSA,A,3,03,,,15,16,18,,,22,,,,2.2,2.2,1.0*3A
$GPRMC,094313,A,4729.2711,N,01904.7704,E,000.0,164.8,310305,002.9,E*7B
$GPGGA,094313,4729.2711,N,01904.7704,E,1,05,2.6,113.9,M,41.0,M,,*45
$GPGSA,A,3,03,,,15,16,18,,,22,,,,2.6,2.6,1.0*3A
$GPRMC,094314,A,4729.2717,N,01904.7696,E,000.0,164.8,310305,002.9,E*70
$GPGGA,094314,4729.2717,N,01904.7696,E,1,05,2.9,113.0,M,41.0,M,,*48
$GPGSA,A,3,03,,,15,16,18,,,22,,,,2.9,2.9,1.0*3A
$GPRMC,094315,A,4729.2722,N,01904.7688,E,000.0,164.8,310305,002.9,E*78
$GPGGA,094315,4729.2722,N,01904.7688,E,1,05,3.1,112.1,M,41.0,M,,*49
$GPGSA,A,3,03,,,15,16,18,,,22,,,,3.3,3.1,1.4*3C
$GPRMC,094317,A,4729.2722,N,01904.7686,E,000.0,164.8,310305,002.9,E*74
$GPGGA,094317,4729.2722,N,01904.7686,E,1,05,3.3,112.2,M,41.0,M,,*44
$GPGSA,A,3,03,,,15,16,18,,,22,,,,3.6,3.3,1.0*3F
$GPRMC,094318,A,4729.2720,N,01904.7687,E,000.0,164.8,310305,002.9,E*78
$GPGGA,094318,4729.2720,N,01904.7687,E,6,05,3.3,112.2,M,41.0,M,,*4F
$GPGSA,A,3,03,,,15,16,18,,,22,,,,3.6,3.3,1.0*3F
$GPRMC,094319,A,4729.2698,N,01904.7689,E,000.0,164.8,310305,002.9,E*75
$GPGGA,094319,4729.2698,N,01904.7689,E,1,05,5.3,112.3,M,41.0,M,,*42
$GPGSA,A,3,03,,,15,16,18,,,22,,,,5.5,5.3,1.0*3C
$GPRMC,094320,A,4729.2697,N,01904.7690,E,000.0,164.8,310305,002.9,E*78
$GPGGA,094320,4729.2697,N,01904.7690,E,6,05,5.3,112.3,M,41.0,M,,*48
$GPGSA,A,3,03,,,15,16,18,,,22,,,,5.5,5.3,1.0*3C
$GPRMC,094323,A,4729.2691,N,01904.7688,E,000.0,164.8,310305,002.9,E*74
$GPGGA,094323,4729.2691,N,01904.7688,E,6,05,5.9,115.1,M,41.0,M,,*4B
$GPGSA,A,3,03,,,15,16,18,,,22,,,,7.4,5.9,3.1*36
$GPRMC,094324,A,4729.2690,N,01904.7689,E,000.0,164.8,310305,002.9,E*73
$GPGGA,094324,4729.2690,N,01904.7689,E,6,05,5.9,115.2,M,41.0,M,,*4F
$GPGSA,A,3,03,,,15,16,18,,,,,,,7.4,5.9,3.1*36
$GPRMC,094325,A,4729.2689,N,01904.7689,E,000.0,164.8,310305,002.9,E*7A
$GPGGA,094325,4729.2689,N,01904.7689,E,6,04,5.9,115.2,M,41.0,M,,*47
$GPGSA,A,3,03,,,15,16,18,,,,,,,7.4,5.9,3.1*36
$GPRMC,094326,A,4729.2688,N,01904.7690,E,000.0,164.8,310305,002.9,E*70
$GPGGA,094326,4729.2688,N,01904.7690,E,6,04,5.9,115.2,M,41.0,M,,*4D
$GPGSA,A,3,03,,,15,16,18,,,,,,,7.4,5.9,3.1*36
$GPRMC,094327,A,4729.2690,N,01904.7686,E,000.0,164.8,310305,002.9,E*7F
$GPGGA,094327,4729.2690,N,01904.7686,E,1,04,5.8,115.3,M,41.0,M,,*45
$GPGSA,A,3,03,,,15,16,18,,,,,,,5.8,5.8,1.0*3A
$GPRMC,094328,A,4729.2695,N,01904.7680,E,000.0,164.8,310305,002.9,E*73
$GPGGA,094328,4729.2695,N,01904.7680,E,1,04,4.5,114.6,M,41.0,M,,*41
$GPGSA,A,3,03,,,15,16,18,,,22,,,,6.0,4.5,1.4*39
$GPRMC,094329,A,4729.2695,N,01904.7681,E,000.0,164.8,310305,002.9,E*73
$GPGGA,094329,4729.2695,N,01904.7681,E,1,05,3.4,114.7,M,41.0,M,,*47
$GPGSA,A,3,03,,,15,16,18,,,22,,,,3.4,3.4,1.0*3A
$GPRMC,094330,A,4729.2696,N,01904.7687,E,000.0,164.8,310305,002.9,E*7E
$GPGGA,094330,4729.2696,N,01904.7687,E,1,05,2.9,114.7,M,41.0,M,,*46
$GPGSA,A,3,03,,,15,16,18,,,22,,,,2.9,2.9,1.0*3A
$GPRMC,094331,A,4729.2695,N,01904.7690,E,000.0,164.8,310305,002.9,E*7A
$GPGGA,094331,4729.2695,N,01904.7690,E,1,05,2.2,114.8,M,41.0,M,,*46
$GPGSA,A,3,03,,,15,16,18,,,22,,,,2.2,2.2,1.0*3A
$GPRMC,094332,A,4729.2693,N,01904.7693,E,000.0,164.8,310305,002.9,E*7C
$GPGGA,094332,4729.2693,N,01904.7693,E,1,05,2.3,114.7,M,41.0,M,,*4E
$GPGSA,A,3,03,,,15,16,18,,,22,,,,2.6,2.3,1.4*3B
$GPRMC,094333,A,4729.2691,N,01904.7694,E,000.0,164.8,310305,002.9,E*78
$GPGGA,094333,4729.2691,N,01904.7694,E,6,05,2.2,114.8,M,41.0,M,,*43
$GPGSA,A,3,03,,,15,16,18,,,22,,,,2.2,2.2,1.0*3A
$GPRMC,094335,A,4729.2689,N,01904.7690,E,000.0,164.8,310305,002.9,E*73
$GPGGA,094335,4729.2689,N,01904.7690,E,6,05,2.2,115.0,M,41.0,M,,*41
$GPGSA,A,3,03,,,15,16,18,,,22,,,,2.2,2.2,1.0*3A
$GPRMC,094336,A,4729.2688,N,01904.7691,E,000.0,164.8,310305,002.9,E*70
$GPGGA,094336,4729.2688,N,01904.7691,E,6,05,2.2,115.1,M,41.0,M,,*43
$GPGSA,A,3,03,,,15,16,18,,,22,,,,2.2,2.2,1.0*3A
$GPRMC,094338,A,4729.2685,N,01904.7692,E,000.0,164.8,310305,002.9,E*70
$GPGGA,094338,4729.2685,N,01904.7692,E,6,05,2.2,115.2,M,41.0,M,,*40
$GPGSA,A,3,03,,,15,16,18,,,22,,,,2.2,2.2,1.0*3A
$GPRMC,094340,A,4729.2684,N,01904.7692,E,000.0,164.8,310305,002.9,E*7E
$GPGGA,094340,4729.2684,N,01904.7692,E,6,05,2.2,115.2,M,41.0,M,,*4E
$GPGSA,A,3,03,,,15,16,18,,,22,,,,2.2,2.2,1.0*3A
$GPRMC,094341,A,4729.2682,N,01904.7693,E,000.0,164.8,310305,002.9,E*78
$GPGGA,094341,4729.2682,N,01904.7693,E,6,05,2.2,115.2,M,41.0,M,,*48
$GPGSA,A,3,03,,,,16,18,,,,,,,2.2,2.2,1.0*3E
$GPRMC,094342,A,4729.2681,N,01904.7693,E,000.0,164.8,310305,002.9,E*78
$GPGGA,094342,4729.2681,N,01904.7693,E,6,03,2.2,115.3,M,41.0,M,,*4F
$GPGSA,A,3,03,,,,16,18,,,,,,,2.2,2.2,1.0*3E
$GPRMC,094343,A,4729.2679,N,01904.7690,E,000.0,164.8,310305,002.9,E*7D
$GPGGA,094343,4729.2679,N,01904.7690,E,1,03,2.3,115.3,M,41.0,M,,*4C
$GPGSA,A,3,03,,,,16,,,,22,,,,2.3,2.3,1.0*37
$GPRMC,094344,A,4729.2678,N,01904.7690,E,000.0,164.8,310305,002.9,E*7B
$GPGGA,094344,4729.2678,N,01904.7690,E,1,03,2.3,115.3,M,41.0,M,,*4A
$GPGSA,A,3,03,,,,16,,,,22,,,,2.3,2.3,1.0*37
$GPRMC,094345,A,4729.2676,N,01904.7687,E,000.0,164.8,310305,002.9,E*72
$GPGGA,094345,4729.2676,N,01904.7687,E,1,03,2.6,115.3,M,41.0,M,,*46
$GPGSA,A,3,03,,,15,16,18,,,22,,,,2.6,2.6,1.0*3A
$GPRMC,094347,A,4729.2672,N,01904.7687,E,000.0,164.8,310305,002.9,E*74
$GPGGA,094347,4729.2672,N,01904.7687,E,6,05,2.6,115.3,M,41.0,M,,*41
$GPGSA,A,3,03,,,15,16,18,,,22,,,,2.6,2.6,1.0*3A
$GPRMC,094348,A,4729.2670,N,01904.7687,E,000.0,164.8,310305,002.9,E*79
$GPGGA,094348,4729.2670,N,01904.7687,E,6,05,2.6,115.3,M,41.0,M,,*4C
$GPGSA,A,3,03,,,15,16,18,,,22,,,,2.6,2.6,1.0*3A
$GPRMC,094349,A,4729.2666,N,01904.7688,E,000.0,164.8,310305,002.9,E*70
$GPGGA,094349,4729.2666,N,01904.7688,E,6,05,2.6,115.3,M,41.0,M,,*45
$GPGSA,A,3,03,,,15,16,18,,,22,,,,2.6,2.6,1.0*3A
$GPRMC,094350,A,4729.2665,N,01904.7685,E,000.0,164.8,310305,002.9,E*76
$GPGGA,094350,4729.2665,N,01904.7685,E,6,05,2.8,115.3,M,41.0,M,,*4D
$GPGSA,A,3,03,,,15,16,18,,,22,,,,2.8,2.8,1.0*3A
$GPRMC,094352,A,4729.2657,N,01904.7683,E,000.0,164.8,310305,002.9,E*73
$GPGGA,094352,4729.2657,N,01904.7683,E,1,05,3.5,115.3,M,41.0,M,,*43
$GPGSA,A,3,,,,15,16,18,,,22,,,,3.5,3.5,1.0*39
$GPRMC,094353,A,4729.2655,N,01904.7683,E,000.0,164.8,310305,002.9,E*70
$GPGGA,094353,4729.2655,N,01904.7683,E,6,04,3.5,115.3,M,41.0,M,,*46
$GPGSA,A,3,,,,15,16,18,,,22,,,,3.5,3.5,1.0*39
$GPRMC,094354,A,4729.2653,N,01904.7685,E,000.0,164.8,310305,002.9,E*77
$GPGGA,094354,4729.2653,N,01904.7685,E,6,04,2.6,115.3,M,41.0,M,,*43
$GPGSA,A,3,03,,,15,16,18,,,22,,,,2.6,2.6,1.0*3A
$GPRMC,094356,A,4729.2646,N,01904.7683,E,000.0,164.8,310305,002.9,E*77
$GPGGA,094356,4729.2646,N,01904.7683,E,6,05,2.6,115.3,M,41.0,M,,*42
$GPGSA,A,3,03,,,15,16,18,,,22,,,,2.6,2.6,1.0*3A
$GPRMC,094358,A,4729.2644,N,01904.7683,E,000.0,164.8,310305,002.9,E*7B
$GPGGA,094358,4729.2644,N,01904.7683,E,6,05,2.6,115.3,M,41.0,M,,*4E
$GPGSA,A,3,03,,,15,16,18,,,22,,,,2.6,2.6,1.0*3A
$GPRMC,094358,A,4729.2642,N,01904.7682,E,000.0,164.8,310305,002.9,E*7C
$GPGGA,094358,4729.2642,N,01904.7682,E,6,05,2.6,115.3,M,41.0,M,,*49
$GPGSA,A,3,03,,,15,16,18,,,22,,,,2.6,2.6,1.0*3A
$GPRMC,094400,A,4729.2640,N,01904.7682,E,000.0,164.8,310305,002.9,E*74
$GPGGA,094400,4729.2640,N,01904.7682,E,6,05,2.6,115.3,M,41.0,M,,*41
$GPGSA,A,3,03,,,,16,18,,,22,,,,2.6,2.6,1.0*3E
$GPRMC,094401,A,4729.2635,N,01904.7681,E,000.0,164.8,310305,002.9,E*74
$GPGGA,094401,4729.2635,N,01904.7681,E,6,04,2.7,115.7,M,41.0,M,,*45
$GPGSA,A,3,03,,,15,16,,,,22,,,,3.2,2.7,1.7*30
$GPRMC,094403,A,4729.2629,N,01904.7676,E,000.0,164.8,310305,002.9,E*73
$GPGGA,094403,4729.2629,N,01904.7676,E,1,04,2.6,115.2,M,41.0,M,,*41
$GPGSA,A,3,03,,,15,16,18,,,22,,,,3.4,2.6,2.0*3A
$GPRMC,094405,A,4729.2628,N,01904.7676,E,000.0,164.8,310305,002.9,E*74
$GPGGA,094405,4729.2628,N,01904.7676,E,6,05,2.6,114.9,M,41.0,M,,*4A
$GPGSA,A,3,03,,,15,16,18,,,22,,,,3.4,2.6,2.0*3A
$GPRMC,094406,A,4729.2626,N,01904.7676,E,000.0,164.8,310305,002.9,E*79
$GPGGA,094406,4729.2626,N,01904.7676,E,6,05,2.6,114.7,M,41.0,M,,*49
$GPGSA,A,3,03,,,15,16,18,,,22,,,,3.4,2.6,2.0*3A
$GPRMC,094407,A,4729.2625,N,01904.7676,E,000.0,164.8,310305,002.9,E*7B
$GPGGA,094407,4729.2625,N,01904.7676,E,6,05,2.6,114.5,M,41.0,M,,*49
$GPGSA,A,3,03,,,15,16,18,,,22,,,,3.4,2.6,2.0*3A
$GPRMC,094408,A,4729.2621,N,01904.7672,E,000.0,164.8,310305,002.9,E*74
$GPGGA,094408,4729.2621,N,01904.7672,E,1,05,2.6,114.6,M,41.0,M,,*42
$GPGSA,A,3,03,,,15,16,18,,,22,,,,3.6,2.6,2.3*3B
$GPRMC,094410,A,4729.2619,N,01904.7671,E,000.0,164.8,310305,002.9,E*75
$GPGGA,094410,4729.2619,N,01904.7671,E,6,05,2.6,114.0,M,41.0,M,,*42
$GPGSA,A,3,03,,,15,16,18,,,22,,,,3.6,2.6,2.3*3B
$GPRMC,094412,A,4729.2618,N,01904.7670,E,000.0,164.8,310305,002.9,E*77
$GPGGA,094412,4729.2618,N,01904.7670,E,6,05,2.6,113.6,M,41.0,M,,*41
$GPGSA,A,3,03,,,,16,18,,,22,,,,3.6,2.6,2.3*3F
$GPRMC,094413,A,4729.2617,N,01904.7670,E,000.0,164.8,310305,002.9,E*79
$GPGGA,094413,4729.2617,N,01904.7670,E,6,04,2.6,113.4,M,41.0,M,,*4C
$GPGSA,A,3,03,,,,16,18,,,22,,,,3.6,2.6,2.3*3F
$GPRMC,094415,A,4729.2615,N,01904.7669,E,000.0,164.8,310305,002.9,E*75
$GPGGA,094415,4729.2615,N,01904.7669,E,6,04,2.6,113.2,M,41.0,M,,*46
$GPGSA,A,3,03,,,,16,18,,,22,,,,3.6,2.6,2.3*3F
$GPRMC,094416,A,4729.2613,N,01904.7668,E,000.0,164.8,310305,002.9,E*71
$GPGGA,094416,4729.2613,N,01904.7668,E,6,04,2.6,113.0,M,41.0,M,,*40
$GPGSA,A,3,,,,,,,,,,,,,3.6,2.6,2.3*32
$GPRMC,094418,A,4729.2612,N,01904.7667,E,000.0,164.8,310305,002.9,E*71
$GPGGA,094418,4729.2612,N,01904.7667,E,6,00,2.6,113.0,M,41.0,M,,*44
$GPGSA,A,3,,,,,,,,,,,,,3.6,2.6,2.3*32
$GPRMC,094420,A,4729.2611,N,01904.7666,E,000.0,164.8,310305,002.9,E*78
$GPGGA,094420,4729.2611,N,01904.7666,E,6,00,2.6,112.9,M,41.0,M,,*45
$GPGSA,A,3,,,,,,,,,,,,,3.6,2.6,2.3*32
$GPRMC,094423,A,4729.2608,N,01904.7665,E,000.0,164.8,310305,002.9,E*70
$GPGGA,094423,4729.2608,N,01904.7665,E,6,00,2.6,112.8,M,41.0,M,,*4C
$GPGSA,A,3,,,,,,,,,,,,,3.6,2.6,2.3*32
$GPRMC,094426,A,4729.2605,N,01904.7663,E,000.0,164.8,310305,002.9,E*7E
$GPGGA,094426,4729.2605,N,01904.7663,E,6,00,2.6,112.8,M,41.0,M,,*42
$GPGSA,A,3,,,,,,,,,,,,,3.6,2.6,2.3*32
$GPRMC,094427,A,4729.2604,N,01904.7663,E,000.0,164.8,310305,002.9,E*7E
$GPGGA,094427,4729.2604,N,01904.7663,E,6,00,2.6,112.8,M,41.0,M,,*42
$GPGSA,A,3,,,,,,,,,,,,,3.6,2.6,2.3*32
$GPRMC,094428,A,4729.2603,N,01904.7662,E,000.0,164.8,310305,002.9,E*77
$GPGGA,094428,4729.2603,N,01904.7662,E,6,00,2.6,112.7,M,41.0,M,,*44
$GPGSA,A,3,,,,,,,,,,,,,3.6,2.6,2.3*32
$GPRMC,094429,A,4729.2603,N,01904.7662,E,000.0,164.8,310305,002.9,E*76
$GPGGA,094429,4729.2603,N,01904.7662,E,6,00,2.6,112.7,M,41.0,M,,*45
$GPGSA,A,3,,,,,,,,,,,,,3.6,2.6,2.3*32
$GPRMC,094430,A,4729.2596,N,01904.7662,E,000.0,164.8,310305,002.9,E*71
$GPGGA,094430,4729.2596,N,01904.7662,E,1,00,2.9,112.7,M,41.0,M,,*4A
$GPGSA,A,3,,,,15,,18,,,22,,,,3.8,2.9,1.0*3E
$GPRMC,094432,A,4729.2595,N,01904.7661,E,000.0,164.8,310305,002.9,E*73
$GPGGA,094432,4729.2595,N,01904.7661,E,6,03,2.9,112.7,M,41.0,M,,*4C
$GPGSA,A,3,,,,15,,18,,,22,,,,3.8,2.9,1.0*3E
$GPRMC,094433,A,4729.2594,N,01904.7660,E,000.0,164.8,310305,002.9,E*72
$GPGGA,094433,4729.2594,N,01904.7660,E,6,03,2.9,112.7,M,41.0,M,,*4D
$GPGSA,A,3,,,,15,,18,,,22,,,,3.8,2.9,1.0*3E
$GPRMC,094434,A,4729.2593,N,01904.7660,E,000.0,164.8,310305,002.9,E*72
$GPGGA,094434,4729.2593,N,01904.7660,E,6,03,2.9,112.7,M,41.0,M,,*4D
$GPGSA,A,3,,,,15,,18,,,22,,,,3.8,2.9,1.0*3E
$GPRMC,094435,A,4729.2592,N,01904.7659,E,000.0,164.8,310305,002.9,E*78
$GPGGA,094435,4729.2592,N,01904.7659,E,6,03,2.9,112.7,M,41.0,M,,*47
$GPGSA,A,3,,,,15,,18,,,22,,,,3.8,2.9,1.0*3E
$GPRMC,094436,A,4729.2591,N,01904.7659,E,000.0,164.8,310305,002.9,E*78
$GPGGA,094436,4729.2591,N,01904.7659,E,6,03,2.9,112.7,M,41.0,M,,*47
$GPGSA,A,3,,,,15,,18,,,22,,,,3.8,2.9,1.0*3E
$GPRMC,094437,A,4729.2590,N,01904.7658,E,000.0,164.8,310305,002.9,E*79
$GPGGA,094437,4729.2590,N,01904.7658,E,6,03,2.9,112.7,M,41.0,M,,*46
$GPGSA,A,3,,,,15,,18,,,22,,,,3.8,2.9,1.0*3E
$GPRMC,094438,A,4729.2590,N,01904.7657,E,000.0,164.8,310305,002.9,E*79
$GPGGA,094438,4729.2590,N,01904.7657,E,6,03,2.9,112.7,M,41.0,M,,*46
$GPGSA,A,3,,,,15,,18,,,22,,,,3.8,2.9,1.0*3E
$GPRMC,094439,A,4729.2589,N,01904.7657,E,000.0,164.8,310305,002.9,E*70
$GPGGA,094439,4729.2589,N,01904.7657,E,6,03,2.9,112.7,M,41.0,M,,*4F
$GPGSA,A,3,,,,,,,,,,,,,3.8,2.9,1.0*33
$GPRMC,094440,A,4729.2587,N,01904.7656,E,000.0,164.8,310305,002.9,E*71
$GPGGA,094440,4729.2587,N,01904.7656,E,6,00,2.9,112.7,M,41.0,M,,*4D
$GPGSA,A,3,,,,,,,,,,,,,3.8,2.9,1.0*33
$GPRMC,094442,A,4729.2585,N,01904.7654,E,000.0,164.8,310305,002.9,E*73
$GPGGA,094442,4729.2585,N,01904.7654,E,6,00,2.9,112.7,M,41.0,M,,*4F
$GPGSA,A,3,,,,15,,18,,,22,,,,4.0,3.2,1.0*3B
$GPRMC,094443,A,4729.2581,N,01904.7644,E,000.0,164.8,310305,002.9,E*77
$GPGGA,094443,4729.2581,N,01904.7644,E,1,03,3.2,112.7,M,41.0,M,,*45
$GPGSA,A,3,,,,15,,18,,,22,,,,4.0,3.2,1.0*3B
$GPRMC,094445,A,4729.2580,N,01904.7643,E,000.0,164.8,310305,002.9,E*77
$GPGGA,094445,4729.2580,N,01904.7643,E,6,03,3.2,112.7,M,41.0,M,,*42
$GPGSA,A,3,,,,15,,18,,,22,,,,4.0,3.2,1.0*3B
$GPRMC,094446,A,4729.2580,N,01904.7643,E,000.0,164.8,310305,002.9,E*74
$GPGGA,094446,4729.2580,N,01904.7643,E,6,03,3.2,112.7,M,41.0,M,,*41
$GPGSA,A,3,,,,15,,18,,,22,,,,4.0,3.2,1.0*3B
$GPRMC,094447,A,4729.2579,N,01904.7642,E,000.0,164.8,310305,002.9,E*72
$GPGGA,094447,4729.2579,N,01904.7642,E,6,03,3.2,112.7,M,41.0,M,,*47
$GPGSA,A,3,,,,15,,18,,,22,,,,4.0,3.2,1.0*3B
$GPRMC,094448,A,4729.2578,N,01904.7642,E,000.0,164.8,310305,002.9,E*7C
$GPGGA,094448,4729.2578,N,01904.7642,E,6,03,3.2,112.7,M,41.0,M,,*49
$GPGSA,A,3,,,,15,,18,,,22,,,,4.0,3.2,1.0*3B
$GPRMC,094449,A,4729.2578,N,01904.7641,E,000.0,164.8,310305,002.9,E*7E
$GPGGA,094449,4729.2578,N,01904.7641,E,6,03,3.2,112.7,M,41.0,M,,*4B
$GPGSA,A,3,,,,15,,18,,,22,,,,4.0,3.2,1.0*3B
$GPRMC,094450,A,4729.2577,N,01904.7641,E,000.0,164.8,310305,002.9,E*79
$GPGGA,094450,4729.2577,N,01904.7641,E,6,03,3.2,112.7,M,41.0,M,,*4C
$GPGSA,A,3,,,,15,,18,,,22,,,,4.0,3.2,1.0*3B
$GPRMC,094451,A,4729.2576,N,01904.7640,E,000.0,164.8,310305,002.9,E*78
$GPGGA,094451,4729.2576,N,01904.7640,E,6,03,3.2,112.7,M,41.0,M,,*4D
$GPGSA,A,3,,,,15,,18,,,22,,,,4.0,3.2,1.0*3B
$GPRMC,094452,A,4729.2576,N,01904.7640,E,000.0,164.8,310305,002.9,E*7B
$GPGGA,094452,4729.2576,N,01904.7640,E,6,03,3.2,112.7,M,41.0,M,,*4E
$GPGSA,A,3,,,,15,,18,,,22,,,,4.0,3.2,1.0*3B
$GPRMC,094453,A,4729.2575,N,01904.7639,E,000.0,164.8,310305,002.9,E*77
$GPGGA,094453,4729.2575,N,01904.7639,E,6,03,3.2,112.7,M,41.0,M,,*42
$GPGSA,A,3,,,,,,,,,,,,,4.0,3.2,1.0*36
$GPRMC,094454,A,4729.2574,N,01904.7638,E,000.0,164.8,310305,002.9,E*70
$GPGGA,094454,4729.2574,N,01904.7638,E,6,00,3.2,112.7,M,41.0,M,,*46
$GPGSA,A,3,,,,,,,,,,,,,4.0,3.2,1.0*36
$GPRMC,094455,A,4729.2574,N,01904.7638,E,000.0,164.8,310305,002.9,E*71
$GPGGA,094455,4729.2574,N,01904.7638,E,6,00,3.2,112.7,M,41.0,M,,*47
$GPGSA,A,3,,,,,,,,,,,,,4.0,3.2,1.0*36
$GPRMC,094456,A,4729.2573,N,01904.7637,E,000.0,164.8,310305,002.9,E*7A
$GPGGA,094456,4729.2573,N,01904.7637,E,6,00,3.2,112.7,M,41.0,M,,*4C
$GPGSA,A,3,,,,,,,,,,,,,4.0,3.2,1.0*36
$GPRMC,094457,A,4729.2572,N,01904.7637,E,000.0,164.8,310305,002.9,E*7A
$GPGGA,094457,4729.2572,N,01904.7637,E,6,00,3.2,112.7,M,41.0,M,,*4C
$GPGSA,A,3,,,,,,,,,,,,,4.0,3.2,1.0*36
$GPRMC,094458,A,4729.2572,N,01904.7636,E,000.0,164.8,310305,002.9,E*74
$GPGGA,094458,4729.2572,N,01904.7636,E,6,00,3.2,112.7,M,41.0,M,,*42
$GPGSA,A,3,,,,,,,,,,,,,4.0,3.2,1.0*36
$GPRMC,094459,A,4729.2571,N,01904.7636,E,000.0,164.8,310305,002.9,E*76
$GPGGA,094459,4729.2571,N,01904.7636,E,6,00,3.2,112.7,M,41.0,M,,*40
$GPGSA,A,3,,,,,,,,,,,,,4.0,3.2,1.0*36
$GPRMC,094500,A,4729.2570,N,01904.7635,E,000.0,164.8,310305,002.9,E*79
$GPGGA,094500,4729.2570,N,01904.7635,E,6,00,3.2,112.7,M,41.0,M,,*4F
$GPGSA,A,3,,,,,,,,,,,,,4.0,3.2,1.0*36
$GPRMC,094501,A,4729.2569,N,01904.7635,E,000.0,164.8,310305,002.9,E*70
$GPGGA,094501,4729.2569,N,01904.7635,E,6,00,3.2,112.7,M,41.0,M,,*46
$GPGSA,A,3,,,,,,,,,,,,,4.0,3.2,1.0*36
$GPRMC,094502,A,4729.2569,N,01904.7634,E,000.0,164.8,310305,002.9,E*72
$GPGGA,094502,4729.2569,N,01904.7634,E,6,00,3.2,112.7,M,41.0,M,,*44
$GPGSA,A,3,,,,,,,,,,,,,4.0,3.2,1.0*36
$GPRMC,094503,A,4729.2568,N,01904.7634,E,000.0,164.8,310305,002.9,E*72
$GPGGA,094503,4729.2568,N,01904.7634,E,6,00,3.2,112.7,M,41.0,M,,*44
$GPGSA,A,3,,,,,,,,,,,,,4.0,3.2,1.0*36
$GPRMC,094505,A,4729.2567,N,01904.7633,E,000.0,164.8,310305,002.9,E*7C
$GPGGA,094505,4729.2567,N,01904.7633,E,6,00,3.2,112.7,M,41.0,M,,*4A
$GPGSA,A,3,,,,,,,,,,,,,4.0,3.2,1.0*36
$GPRMC,094506,A,4729.2566,N,01904.7632,E,000.0,164.8,310305,002.9,E*7F
$GPGGA,094506,4729.2566,N,01904.7632,E,6,00,3.2,112.7,M,41.0,M,,*49
$GPGSA,A,3,,,,,,,,,,,,,4.0,3.2,1.0*36
$GPRMC,094507,A,4729.2565,N,01904.7632,E,000.0,164.8,310305,002.9,E*7D
$GPGGA,094507,4729.2565,N,01904.7632,E,6,00,3.2,112.7,M,41.0,M,,*4B
$GPGSA,A,3,,,,,,,,,,,,,4.0,3.2,1.0*36
$GPRMC,094508,A,4729.2565,N,01904.7631,E,000.0,164.8,310305,002.9,E*71
$GPGGA,094508,4729.2565,N,01904.7631,E,6,00,3.2,112.7,M,41.0,M,,*47
$GPGSA,A,3,,,,,,,,,,,,,4.0,3.2,1.0*36
$GPRMC,094509,A,4729.2564,N,01904.7631,E,000.0,164.8,310305,002.9,E*71
$GPGGA,094509,4729.2564,N,01904.7631,E,6,00,3.2,112.7,M,41.0,M,,*47
$GPGSA,A,3,,,,,,,,,,,,,4.0,3.2,1.0*36
$GPRMC,094510,A,4729.2554,N,01904.7634,E,000.0,164.8,310305,002.9,E*7F
$GPGGA,094510,4729.2554,N,01904.7634,E,1,00,3.9,112.7,M,41.0,M,,*45
$GPGSA,A,3,,,,,16,18,,,22,,,,4.6,3.9,1.0*35
$GPRMC,094512,A,4729.2553,N,01904.7633,E,000.0,164.8,310305,002.9,E*7D
$GPGGA,094512,4729.2553,N,01904.7633,E,6,03,3.9,112.7,M,41.0,M,,*43
$GPGSA,A,3,,,,,16,18,,,22,,,,4.6,3.9,1.0*35
$GPRMC,094513,A,4729.2551,N,01904.7632,E,000.0,164.8,310305,002.9,E*7F
$GPGGA,094513,4729.2551,N,01904.7632,E,6,03,3.9,112.7,M,41.0,M,,*41
$GPGSA,A,3,,,,,16,18,,,22,,,,4.6,3.9,1.0*35
$GPRMC,094515,A,4729.2550,N,01904.7631,E,000.0,164.8,310305,002.9,E*7B
$GPGGA,094515,4729.2550,N,01904.7631,E,6,03,3.9,112.7,M,41.0,M,,*45
$GPGSA,A,3,,,,,16,18,,,22,,,,4.6,3.9,1.0*35
$GPRMC,094517,A,4729.2549,N,01904.7631,E,000.0,164.8,310305,002.9,E*71
$GPGGA,094517,4729.2549,N,01904.7631,E,6,03,3.9,112.7,M,41.0,M,,*4F
$GPGSA,A,3,,,,,16,18,,,22,,,,4.6,3.9,1.0*35
$GPRMC,094518,A,4729.2548,N,01904.7631,E,000.0,164.8,310305,002.9,E*7F
$GPGGA,094518,4729.2548,N,01904.7631,E,6,03,3.9,112.7,M,41.0,M,,*41
$GPGSA,A,3,,,,,16,18,,,22,,,,4.6,3.9,1.0*35
$GPRMC,094519,A,4729.2542,N,01904.7631,E,000.0,164.8,310305,002.9,E*74
$GPGGA,094519,4729.2542,N,01904.7631,E,1,03,4.0,112.0,M,41.0,M,,*44
$GPGSA,A,3,,,,15,16,18,,,22,,,,4.9,4.0,1.4*34
$GPRMC,094520,A,4729.2532,N,01904.7630,E,000.0,164.8,310305,002.9,E*78
$GPGGA,094520,4729.2532,N,01904.7630,E,1,04,4.1,112.1,M,41.0,M,,*4F
$GPGSA,A,3,,,,15,16,18,,,22,,,,4.9,4.1,1.0*31
$GPRMC,094522,A,4729.2528,N,01904.7632,E,000.0,164.8,310305,002.9,E*73
$GPGGA,094522,4729.2528,N,01904.7632,E,6,04,4.1,112.1,M,41.0,M,,*43
$GPGSA,A,3,,,,15,16,18,,,22,,,,4.9,4.1,1.0*31
$GPRMC,094524,A,4729.2526,N,01904.7632,E,000.0,164.8,310305,002.9,E*7B
$GPGGA,094524,4729.2526,N,01904.7632,E,6,04,4.1,112.1,M,41.0,M,,*4B
$GPGSA,A,3,,,,15,16,18,,,22,,,,4.9,4.1,1.0*31
$GPRMC,094525,A,4729.2523,N,01904.7634,E,000.0,164.8,310305,002.9,E*79
$GPGGA,094525,4729.2523,N,01904.7634,E,6,04,4.1,112.1,M,41.0,M,,*49
$GPGSA,A,3,,,,15,16,18,,,22,,,,4.9,4.1,1.0*31
$GPRMC,094527,A,4729.2521,N,01904.7634,E,000.0,164.8,310305,002.9,E*79
$GPGGA,094527,4729.2521,N,01904.7634,E,6,04,4.1,112.1,M,41.0,M,,*49
$GPGSA,A,3,,,,15,16,18,,,22,,,,4.9,4.1,1.0*31
$GPRMC,094528,A,4729.2517,N,01904.7636,E,000.0,164.8,310305,002.9,E*71
$GPGGA,094528,4729.2517,N,01904.7636,E,6,04,4.1,112.1,M,41.0,M,,*41
$GPGSA,A,3,,,,15,16,,,,22,,,,4.9,4.1,1.0*38
$GPRMC,094530,A,4729.2513,N,01904.7637,E,000.0,164.8,310305,002.9,E*7D
$GPGGA,094530,4729.2513,N,01904.7637,E,6,03,4.1,112.2,M,41.0,M,,*49
$GPGSA,A,3,,,,,,,,,,,,,4.9,4.1,1.0*3B
$GPRMC,094533,A,4729.2509,N,01904.7638,E,000.0,164.8,310305,002.9,E*7A
$GPGGA,094533,4729.2509,N,01904.7638,E,6,00,4.1,112.2,M,41.0,M,,*4D
$GPGSA,A,3,,,,,,,,,,,,,4.9,4.1,1.0*3B
$GPRMC,094535,A,4729.2506,N,01904.7640,E,000.0,164.8,310305,002.9,E*7C
$GPGGA,094535,4729.2506,N,01904.7640,E,6,00,4.1,112.2,M,41.0,M,,*4B
$GPGSA,A,3,,,,,,,,,,,,,4.9,4.1,1.0*3B
$GPRMC,094536,A,4729.2504,N,01904.7640,E,000.0,164.8,310305,002.9,E*7D
$GPGGA,094536,4729.2504,N,01904.7640,E,6,00,4.1,112.2,M,41.0,M,,*4A
$GPGSA,A,3,,,,,,,,,,,,,4.9,4.1,1.0*3B
$GPRMC,094538,A,4729.2500,N,01904.7642,E,000.0,164.8,310305,002.9,E*75
$GPGGA,094538,4729.2500,N,01904.7642,E,6,00,4.1,112.2,M,41.0,M,,*42
$GPGSA,A,3,,,,,,,,,,,,,4.9,4.1,1.0*3B
$GPRMC,094540,A,4729.2496,N,01904.7643,E,000.0,164.8,310305,002.9,E*75
$GPGGA,094540,4729.2496,N,01904.7643,E,6,00,4.1,112.2,M,41.0,M,,*42
$GPGSA,A,3,,,,,,,,,,,,,4.9,4.1,1.0*3B
$GPRMC,094542,A,4729.2491,N,01904.7645,E,000.0,164.8,310305,002.9,E*76
$GPGGA,094542,4729.2491,N,01904.7645,E,6,00,4.1,112.2,M,41.0,M,,*41
$GPGSA,A,3,,,,,,,,,,,,,4.9,4.1,1.0*3B
$GPRMC,094543,A,4729.2491,N,01904.7645,E,000.0,164.8,310305,002.9,E*77
$GPGGA,094543,4729.2491,N,01904.7645,E,6,00,4.1,112.2,M,41.0,M,,*40
$GPGSA,A,3,,,,,,,,,,,,,4.9,4.1,1.0*3B
$GPRMC,094546,A,4729.2483,N,01904.7648,E,000.0,164.8,310305,002.9,E*7C
$GPGGA,094546,4729.2483,N,01904.7648,E,6,00,4.1,112.2,M,41.0,M,,*4B
$GPGSA,A,3,,,,,,,,,,,,,4.9,4.1,1.0*3B
$GPRMC,094547,A,4729.2481,N,01904.7648,E,000.0,164.8,310305,002.9,E*7F
$GPGGA,094547,4729.2481,N,01904.7648,E,6,00,4.1,112.2,M,41.0,M,,*48
$GPGSA,A,3,,,,,,,,,,,,,4.9,4.1,1.0*3B
$GPRMC,094549,A,4729.2479,N,01904.7649,E,000.0,164.8,310305,002.9,E*77
$GPGGA,094549,4729.2479,N,01904.7649,E,6,00,4.1,112.2,M,41.0,M,,*40
$GPGSA,A,3,,,,,,,,,,,,,4.9,4.1,1.0*3B
$GPRMC,094550,A,4729.2477,N,01904.7650,E,000.0,164.8,310305,002.9,E*79
$GPGGA,094550,4729.2477,N,01904.7650,E,6,00,,112.2,M,41.0,M,,*65
$GPGSA,A,1,,,,,,,,,,,,,,,*1E
$GPRMC,094551,V,4729.2477,N,01904.7650,E,000.0,000.0,310305,002.9,E*64
$GPGGA,094551,4729.2477,N,01904.7650,E,0,00,,,M,,M,,*57
$GPGSA,A,1,,,,,,,,,,,,,,,*1E
$GPRMC,094552,V,4729.2477,N,01904.7650,E,000.0,000.0,310305,002.9,E*67
$GPGGA,094552,4729.2477,N,01904.7650,E,0,00,,,M,,M,,*54
$GPGSA,A,1,,,,,,,,,,,,,,,*1E
$GPRMC,094553,V,4729.2477,N,01904.7650,E,000.0,000.0,310305,002.9,E*66
$GPGGA,094553,4729.2477,N,01904.7650,E,0,00,,,M,,M,,*55
$GPGSA,A,1,,,,,,,,,,,,,,,*1E
$GPRMC,094555,V,4729.2477,N,01904.7650,E,000.0,000.0,310305,002.9,E*60
$GPGGA,094555,4729.2477,N,01904.7650,E,0,00,,,M,,M,,*53
$GPGSA,A,1,,,,,,,,,,,,,,,*1E
$GPRMC,094556,V,4729.2477,N,01904.7650,E,000.0,000.0,310305,002.9,E*63
$GPGGA,094556,4729.2477,N,01904.7650,E,0,00,,,M,,M,,*50
$GPGSA,A,1,,,,,,,,,,,,,,,*1E
$GPRMC,094557,V,4729.2477,N,01904.7650,E,000.0,000.0,310305,002.9,E*62
$GPGGA,094557,4729.2477,N,01904.7650,E,0,00,,,M,,M,,*51
$GPGSA,A,1,,,,,,,,,,,,,,,*1E
$GPRMC,094558,V,4729.2477,N,01904.7650,E,000.0,000.0,310305,002.9,E*6D
$GPGGA,094558,4729.2477,N,01904.7650,E,0,00,,,M,,M,,*5E
$GPGSA,A,1,,,,,,,,,,,,,,,*1E
$GPRMC,094559,V,4729.2477,N,01904.7650,E,000.0,000.0,310305,002.9,E*6C
$GPGGA,094559,4729.2477,N,01904.7650,E,0,00,,,M,,M,,*5F
$GPGSA,A,1,,,,,,,,,,,,,,,*1E
$GPRMC,094600,V,4729.2477,N,01904.7650,E,000.0,000.0,310305,002.9,E*63
$GPGGA,094600,4729.2477,N,01904.7650,E,0,00,,,M,,M,,*50
$GPGSA,A,1,,,,,,,,,,,,,,,*1E
$GPRMC,094601,V,4729.2477,N,01904.7650,E,000.0,000.0,310305,002.9,E*62
$GPGGA,094601,4729.2477,N,01904.7650,E,0,00,,,M,,M,,*51
$GPGSA,A,1,,,,,,,,,,,,,,,*1E
$GPRMC,094602,V,4729.2477,N,01904.7650,E,000.0,000.0,310305,002.9,E*61
$GPGGA,094602,4729.2477,N,01904.7650,E,0,00,,,M,,M,,*52
$GPGSA,A,1,,,,,,,,,,,,,,,*1E
$GPRMC,094603,V,4729.2477,N,01904.7650,E,000.0,000.0,310305,002.9,E*60
$GPGGA,094603,4729.2477,N,01904.7650,E,0,00,,,M,,M,,*53
$GPGSA,A,1,,,,,,,,,,,,,,,*1E
$GPRMC,094604,V,4729.2477,N,01904.7650,E,000.0,000.0,310305,002.9,E*67
$GPGGA,094604,4729.2477,N,01904.7650,E,0,00,,,M,,M,,*54
$GPGSA,A,1,,,,,,,,,,,,,,,*1E
$GPRMC,094605,A,4729.2246,N,01904.7427,E,000.0,000.0,310305,002.9,E*77
$GPGGA,094605,4729.2246,N,01904.7427,E,1,00,6.0,112.2,M,41.0,M,,*4F
$GPGSA,A,2,,,,15,,18,,,22,,,,6.0,6.0,*10
$GPRMC,094606,A,4729.2247,N,01904.7428,E,000.0,000.0,310305,002.9,E*7A
$GPGGA,094606,4729.2247,N,01904.7428,E,1,03,6.0,112.2,M,41.0,M,,*41
$GPGSA,A,2,,,,15,,18,,,22,,,,6.0,6.0,*10
$GPRMC,094607,A,4729.2247,N,01904.7429,E,000.0,000.0,310305,002.9,E*7A
$GPGGA,094607,4729.2247,N,01904.7429,E,6,03,6.0,112.2,M,41.0,M,,*46
$GPGSA,A,2,,,,15,,18,,,22,,,,6.0,6.0,*10
$GPRMC,094608,A,4729.2262,N,01904.7444,E,001.7,301.1,310305,002.9,E*7C
$GPGGA,094608,4729.2262,N,01904.7444,E,1,03,6.0,112.2,M,41.0,M,,*42
$GPGSA,A,2,,,,15,,18,,,22,,,,6.0,6.0,*10
$GPRMC,094609,A,4729.2265,N,01904.7438,E,001.7,301.1,310305,002.9,E*71
$GPGGA,094609,4729.2265,N,01904.7438,E,1,03,6.0,112.2,M,41.0,M,,*4F
$GPGSA,A,2,,,,15,,18,,,22,,,,6.0,6.0,*10
$GPRMC,094610,A,4729.2267,N,01904.7432,E,001.7,301.1,310305,002.9,E*71
$GPGGA,094610,4729.2267,N,01904.7432,E,6,03,6.0,112.2,M,41.0,M,,*48
$GPGSA,A,2,,,,15,,18,,,22,,,,6.0,6.0,*10
$GPRMC,094611,A,4729.2269,N,01904.7426,E,001.7,301.1,310305,002.9,E*7B
$GPGGA,094611,4729.2269,N,01904.7426,E,6,03,6.0,112.2,M,41.0,M,,*42
$GPGSA,A,2,,,,15,,18,,,22,,,,6.0,6.0,*10
$GPRMC,094612,A,4729.2272,N,01904.7420,E,001.7,301.1,310305,002.9,E*74
$GPGGA,094612,4729.2272,N,01904.7420,E,6,03,6.0,112.2,M,41.0,M,,*4D
$GPGSA,A,2,,,,15,,18,,,22,,,,6.0,6.0,*10
$GPRMC,094613,A,4729.2274,N,01904.7415,E,001.7,301.1,310305,002.9,E*75
$GPGGA,094613,4729.2274,N,01904.7415,E,6,03,6.0,112.2,M,41.0,M,,*4C
$GPGSA,A,2,,,,15,,18,,,22,,,,6.0,6.0,*10
$GPRMC,094614,A,4729.2277,N,01904.7409,E,001.7,301.1,310305,002.9,E*7C
$GPGGA,094614,4729.2277,N,01904.7409,E,6,03,6.0,112.2,M,41.0,M,,*45
$GPGSA,A,2,,,,15,,18,,,22,,,,6.0,6.0,*10
$GPRMC,094615,A,4729.2281,N,01904.7397,E,001.7,301.1,310305,002.9,E*74
$GPGGA,094615,4729.2281,N,01904.7397,E,6,03,6.0,112.2,M,41.0,M,,*4D
$GPGSA,A,2,,,,15,,18,,,22,,,,6.0,6.0,*10
$GPRMC,094616,A,4729.2284,N,01904.7391,E,001.7,301.1,310305,002.9,E*74
$GPGGA,094616,4729.2284,N,01904.7391,E,6,03,6.0,112.2,M,41.0,M,,*4D
$GPGSA,A,2,,,,15,,18,,,22,,,,6.0,6.0,*10
$GPRMC,094617,A,4729.2286,N,01904.7386,E,001.7,301.1,310305,002.9,E*71
$GPGGA,094617,4729.2286,N,01904.7386,E,6,03,6.0,112.2,M,41.0,M,,*48
$GPGSA,A,2,,,,,,,,,,,,,6.0,6.0,*1D
$GPRMC,094618,A,4729.2286,N,01904.7386,E,001.7,301.1,310305,002.9,E*7E
$GPGGA,094618,4729.2286,N,01904.7386,E,6,00,6.0,112.2,M,41.0,M,,*44
$GPGSA,A,2,,,,,,,,,,,,,6.0,6.0,*1D
$GPRMC,094623,A,4729.2298,N,01904.7356,E,001.7,301.1,310305,002.9,E*74
$GPGGA,094623,4729.2298,N,01904.7356,E,6,00,6.0,112.2,M,41.0,M,,*4E
$GPGSA,A,2,,,,,,,,,,,,,6.0,6.0,*1D
$GPRMC,094624,A,4729.2300,N,01904.7351,E,001.7,301.1,310305,002.9,E*74
$GPGGA,094624,4729.2300,N,01904.7351,E,6,00,6.0,112.2,M,41.0,M,,*4E
$GPGSA,A,2,,,,,,,,,,,,,6.0,6.0,*1D
$GPRMC,094625,A,4729.2305,N,01904.7339,E,001.7,301.1,310305,002.9,E*7E
$GPGGA,094625,4729.2305,N,01904.7339,E,6,00,6.0,112.2,M,41.0,M,,*44
$GPGSA,A,2,,,,,,,,,,,,,6.0,6.0,*1D
$GPRMC,094627,A,4729.2308,N,01904.7333,E,001.7,301.1,310305,002.9,E*7B
$GPGGA,094627,4729.2308,N,01904.7333,E,6,00,6.0,112.2,M,41.0,M,,*41
$GPGSA,A,2,,,,,,,,,,,,,6.0,6.0,*1D
$GPRMC,094628,A,4729.2310,N,01904.7327,E,001.7,301.1,310305,002.9,E*78
$GPGGA,094628,4729.2310,N,01904.7327,E,6,00,6.0,112.2,M,41.0,M,,*42
$GPGSA,A,2,,,,,,,,,,,,,6.0,6.0,*1D
$GPRMC,094629,A,4729.2312,N,01904.7321,E,001.7,301.1,310305,002.9,E*7D
$GPGGA,094629,4729.2312,N,01904.7321,E,6,00,6.0,112.2,M,41.0,M,,*47
$GPGSA,A,2,,,,,,,,,,,,,6.0,6.0,*1D
$GPRMC,094630,A,4729.2315,N,01904.7316,E,001.7,301.1,310305,002.9,E*76
$GPGGA,094630,4729.2315,N,01904.7316,E,6,00,6.0,112.2,M,41.0,M,,*4C
$GPGSA,A,2,,,,,,,,,,,,,6.0,6.0,*1D
$GPRMC,094631,A,4729.2317,N,01904.7310,E,001.7,301.1,310305,002.9,E*73
$GPGGA,094631,4729.2317,N,01904.7310,E,6,00,6.0,112.2,M,41.0,M,,*49
$GPGSA,A,2,,,,,,,,,,,,,6.0,6.0,*1D
$GPRMC,094633,A,4729.2322,N,01904.7298,E,001.7,301.1,310305,002.9,E*76
$GPGGA,094633,4729.2322,N,01904.7298,E,6,00,6.0,112.2,M,41.0,M,,*4C
$GPGSA,A,2,,,,,,,,,,,,,6.0,6.0,*1D
$GPRMC,094635,A,4729.2327,N,01904.7286,E,001.7,301.1,310305,002.9,E*7A
$GPGGA,094635,4729.2327,N,01904.7286,E,6,00,6.0,112.2,M,41.0,M,,*40
$GPGSA,A,2,,,,,,,,,,,,,6.0,6.0,*1D
$GPRMC,094636,A,4729.2329,N,01904.7281,E,001.7,301.1,310305,002.9,E*70
$GPGGA,094636,4729.2329,N,01904.7281,E,6,00,6.0,112.2,M,41.0,M,,*4A
$GPGSA,A,2,,,,,,,,,,,,,6.0,6.0,*1D
$GPRMC,094639,V,4729.2334,N,01904.7269,E,000.0,000.0,310305,002.9,E*67
$GPGGA,094639,4729.2334,N,01904.7269,E,0,00,,,M,,M,,*54
$GPGSA,A,1,,,,,,,,,,,,,,,*1E
$GPRMC,094640,V,4729.2334,N,01904.7269,E,000.0,000.0,310305,002.9,E*69
$GPGGA,094640,4729.2334,N,01904.7269,E,0,00,,,M,,M,,*5A
$GPGSA,A,1,,,,,,,,,,,,,,,*1E
$GPRMC,094641,V,4729.2334,N,01904.7269,E,000.0,000.0,310305,002.9,E*68
$GPGGA,094641,4729.2334,N,01904.7269,E,0,00,,,M,,M,,*5B
$GPGSA,A,1,,,,,,,,,,,,,,,*1E
$GPRMC,094643,V,4729.2334,N,01904.7269,E,000.0,000.0,310305,002.9,E*6A
$GPGGA,094643,4729.2334,N,01904.7269,E,0,00,,,M,,M,,*59
$GPGSA,A,1,,,,,,,,,,,,,,,*1E
$GPRMC,094644,V,4729.2334,N,01904.7269,E,000.0,000.0,310305,002.9,E*6D
$GPGGA,094644,4729.2334,N,01904.7269,E,0,00,,,M,,M,,*5E
$GPGSA,A,1,,,,,,,,,,,,,,,*1E
$GPRMC,094645,V,4729.2334,N,01904.7269,E,000.0,000.0,310305,002.9,E*6C
$GPGGA,094645,4729.2334,N,01904.7269,E,0,00,,,M,,M,,*5F
$GPGSA,A,1,,,,,,,,,,,,,,,*1E
$GPRMC,094646,V,4729.2334,N,01904.7269,E,000.0,000.0,310305,002.9,E*6F
$GPGGA,094646,4729.2334,N,01904.7269,E,0,00,,,M,,M,,*5C
$GPGSA,A,1,,,,,,,,,,,,,,,*1E
$GPRMC,094647,V,4729.2334,N,01904.7269,E,000.0,000.0,310305,002.9,E*6E
$GPGGA,094647,4729.2334,N,01904.7269,E,0,00,,,M,,M,,*5D
$GPGSA,A,1,,,,,,,,,,,,,,,*1E
$GPRMC,094648,A,4729.2293,N,01904.7458,E,000.0,000.0,310305,002.9,E*7E
$GPGGA,094648,4729.2293,N,01904.7458,E,1,00,10.6,112.2,M,41.0,M,,*77
$GPGSA,A,2,,,,,16,18,,,22,,,,10.6,10.6,*13
$GPRMC,094649,A,4729.2135,N,01904.7835,E,003.4,093.9,310305,002.9,E*73
$GPGGA,094649,4729.2135,N,01904.7835,E,1,03,6.1,112.2,M,41.0,M,,*4D
$GPGSA,A,2,,,,15,16,18,,,22,,,,6.1,6.1,*17
$GPRMC,094650,A,4729.2121,N,01904.7823,E,002.3,089.5,310305,002.9,E*78
$GPGGA,094650,4729.2121,N,01904.7823,E,1,04,6.1,112.2,M,41.0,M,,*40
$GPGSA,A,2,,,,15,16,18,,,22,,,,6.1,6.1,*17
$GPRMC,094651,A,4729.2121,N,01904.7809,E,001.4,094.4,310305,002.9,E*78
$GPGGA,094651,4729.2121,N,01904.7809,E,1,04,6.1,112.2,M,41.0,M,,*49
$GPGSA,A,2,,,,15,16,18,,,22,,,,6.1,6.1,*17
$GPRMC,094652,A,4729.2127,N,01904.7789,E,003.5,094.7,310305,002.9,E*7A
$GPGGA,094652,4729.2127,N,01904.7789,E,1,04,6.1,112.2,M,41.0,M,,*4B
$GPGSA,A,2,,,,15,16,18,,,22,,,,6.1,6.1,*17
$GPRMC,094653,A,4729.2126,N,01904.7804,E,003.5,094.7,310305,002.9,E*70
$GPGGA,094653,4729.2126,N,01904.7804,E,1,04,6.1,112.2,M,41.0,M,,*41
$GPGSA,A,2,,,,15,16,18,,,22,,,,6.1,6.1,*17
$GPRMC,094654,A,4729.2129,N,01904.7769,E,002.7,093.2,310305,002.9,E*7D
$GPGGA,094654,4729.2129,N,01904.7769,E,1,04,6.1,112.2,M,41.0,M,,*4D
$GPGSA,A,2,,,,15,16,18,,,22,,,,6.1,6.1,*17
$GPRMC,094655,A,4729.2128,N,01904.7780,E,002.7,093.2,310305,002.9,E*7A
$GPGGA,094655,4729.2128,N,01904.7780,E,1,04,6.1,112.2,M,41.0,M,,*4A
$GPGSA,A,2,,,,15,16,18,,,22,,,,6.1,6.1,*17
$GPRMC,094656,A,4729.2120,N,01904.7779,E,001.5,076.6,310305,002.9,E*79
$GPGGA,094656,4729.2120,N,01904.7779,E,1,04,6.1,112.2,M,41.0,M,,*47
$GPGSA,A,2,,,,15,16,18,,,22,,,,6.1,6.1,*17
$GPRMC,094657,A,4729.2119,N,01904.7784,E,002.2,093.8,310305,002.9,E*71
$GPGGA,094657,4729.2119,N,01904.7784,E,1,04,6.1,112.2,M,41.0,M,,*4E
$GPGSA,A,2,,,,15,16,18,,,22,,,,6.1,6.1,*17
$GPRMC,094658,A,4729.2122,N,01904.7795,E,001.6,099.3,310305,002.9,E*70
$GPGGA,094658,4729.2122,N,01904.7795,E,1,04,6.1,112.2,M,41.0,M,,*49
$GPGSA,A,2,,,,15,,18,,,22,,,,6.1,6.1,*10
$GPRMC,094659,A,4729.2121,N,01904.7802,E,001.6,099.3,310305,002.9,E*73
$GPGGA,094659,4729.2121,N,01904.7802,E,1,03,6.1,112.2,M,41.0,M,,*4D
$GPGSA,A,2,,,,15,,18,,,22,,,,6.1,6.1,*10
$GPRMC,094700,A,4729.2127,N,01904.7773,E,001.3,099.3,310305,002.9,E*74
$GPGGA,094700,4729.2127,N,01904.7773,E,1,03,6.1,112.2,M,41.0,M,,*4F
$GPGSA,A,2,,,,15,,18,,,22,,,,6.1,6.1,*10
$GPRMC,094701,A,4729.2128,N,01904.7765,E,001.3,093.7,310305,002.9,E*73
$GPGGA,094701,4729.2128,N,01904.7765,E,1,03,6.1,112.2,M,41.0,M,,*46
$GPGSA,A,2,,,,15,,18,,,22,,,,6.1,6.1,*10
$GPRMC,094702,A,4729.2128,N,01904.7770,E,001.3,093.7,310305,002.9,E*74
$GPGGA,094702,4729.2128,N,01904.7770,E,1,03,6.1,112.2,M,41.0,M,,*41
$GPGSA,A,2,,,,15,,18,,,22,,,,6.1,6.1,*10
$GPRMC,094703,A,4729.2128,N,01904.7776,E,001.3,093.7,310305,002.9,E*73
$GPGGA,094703,4729.2128,N,01904.7776,E,6,03,6.1,112.2,M,41.0,M,,*41
$GPGSA,A,2,,,,15,,18,,,22,,,,6.1,6.1,*10
$GPRMC,094704,A,4729.2128,N,01904.7781,E,001.3,093.7,310305,002.9,E*7C
$GPGGA,094704,4729.2128,N,01904.7781,E,6,03,6.1,112.2,M,41.0,M,,*4E
$GPGSA,A,2,,,,15,,18,,,22,,,,6.1,6.1,*10
$GPRMC,094705,A,4729.2127,N,01904.7786,E,001.3,093.7,310305,002.9,E*75
$GPGGA,094705,4729.2127,N,01904.7786,E,6,03,6.1,112.2,M,41.0,M,,*47
$GPGSA,A,2,,,,15,,18,,,22,,,,6.1,6.1,*10
$GPRMC,094706,A,4729.2127,N,01904.7793,E,001.3,094.1,310305,002.9,E*73
$GPGGA,094706,4729.2127,N,01904.7793,E,1,03,6.1,112.2,M,41.0,M,,*47
$GPGSA,A,2,,,,15,,18,,,22,,,,6.1,6.1,*10
$GPRMC,094707,A,4729.2127,N,01904.7798,E,001.3,094.1,310305,002.9,E*79
$GPGGA,094707,4729.2127,N,01904.7798,E,1,03,6.1,112.2,M,41.0,M,,*4D
$GPGSA,A,2,,,,15,,18,,,22,,,,6.1,6.1,*10
$GPRMC,094708,A,4729.2127,N,01904.7804,E,001.3,094.1,310305,002.9,E*7C
$GPGGA,094708,4729.2127,N,01904.7804,E,6,03,6.1,112.2,M,41.0,M,,*4F
$GPGSA,A,2,,,,15,,18,,,22,,,,6.1,6.1,*10
$GPRMC,094709,A,4729.2130,N,01904.7819,E,001.4,095.1,310305,002.9,E*71
$GPGGA,094709,4729.2130,N,01904.7819,E,1,03,6.1,112.2,M,41.0,M,,*43
$GPGSA,A,2,,,,15,,18,,,22,,,,6.1,6.1,*10
$GPRMC,094710,A,4729.2130,N,01904.7824,E,001.4,095.1,310305,002.9,E*77
$GPGGA,094710,4729.2130,N,01904.7824,E,1,03,6.1,112.2,M,41.0,M,,*45
$GPGSA,A,2,,,,15,,18,,,22,,,,6.1,6.1,*10
$GPRMC,094711,A,4729.2129,N,01904.7830,E,001.4,095.1,310305,002.9,E*7B
$GPGGA,094711,4729.2129,N,01904.7830,E,6,03,6.1,112.2,M,41.0,M,,*4E
$GPGSA,A,2,,,,15,,18,,,22,,,,6.1,6.1,*10
$GPRMC,094712,A,4729.2129,N,01904.7836,E,001.4,095.1,310305,002.9,E*7E
$GPGGA,094712,4729.2129,N,01904.7836,E,6,03,6.1,112.2,M,41.0,M,,*4B
$GPGSA,A,2,,,,15,,18,,,22,,,,6.1,6.1,*10
$GPRMC,094713,A,4729.2129,N,01904.7841,E,001.4,095.1,310305,002.9,E*7F
$GPGGA,094713,4729.2129,N,01904.7841,E,6,03,6.1,112.2,M,41.0,M,,*4A
$GPGSA,A,2,,,,15,,18,,,22,,,,6.1,6.1,*10
$GPRMC,094714,A,4729.2128,N,01904.7847,E,001.4,095.1,310305,002.9,E*7F
$GPGGA,094714,4729.2128,N,01904.7847,E,6,03,6.1,112.2,M,41.0,M,,*4A
$GPGSA,A,2,,,,15,,18,,,22,,,,6.1,6.1,*10
$GPRMC,094715,A,4729.2115,N,01904.7881,E,001.4,096.3,310305,002.9,E*7B
$GPGGA,094715,4729.2115,N,01904.7881,E,1,03,6.1,112.2,M,41.0,M,,*48
$GPGSA,A,2,,,,15,,18,,,22,,,,6.1,6.1,*10
$GPRMC,094716,A,4729.2115,N,01904.7887,E,001.4,096.3,310305,002.9,E*7E
$GPGGA,094716,4729.2115,N,01904.7887,E,1,03,6.1,112.2,M,41.0,M,,*4D
$GPGSA,A,2,,,,15,,18,,,22,,,,6.1,6.1,*10
$GPRMC,094717,A,4729.2114,N,01904.7893,E,001.4,096.3,310305,002.9,E*7B
$GPGGA,094717,4729.2114,N,01904.7893,E,6,03,6.1,112.2,M,41.0,M,,*4F
$GPGSA,A,2,,,,15,,18,,,22,,,,6.1,6.1,*10
$GPRMC,094718,A,4729.2114,N,01904.7898,E,001.4,096.3,310305,002.9,E*7F
$GPGGA,094718,4729.2114,N,01904.7898,E,6,03,6.1,112.2,M,41.0,M,,*4B
$GPGSA,A,2,,,,15,,18,,,22,,,,6.1,6.1,*10
$GPRMC,094719,A,4729.2113,N,01904.7904,E,001.4,096.3,310305,002.9,E*7D
$GPGGA,094719,4729.2113,N,01904.7904,E,6,03,6.1,112.2,M,41.0,M,,*49
$GPGSA,A,2,,,,15,,18,,,22,,,,6.1,6.1,*10
$GPRMC,094720,A,4729.2113,N,01904.7910,E,001.4,096.3,310305,002.9,E*72
$GPGGA,094720,4729.2113,N,01904.7910,E,6,03,6.1,112.2,M,41.0,M,,*46
$GPGSA,A,2,,,,15,,18,,,22,,,,6.1,6.1,*10
$GPRMC,094721,A,4729.2113,N,01904.7916,E,001.4,096.3,310305,002.9,E*75
$GPGGA,094721,4729.2113,N,01904.7916,E,6,03,6.1,112.2,M,41.0,M,,*41
$GPGSA,A,2,,,,15,,18,,,22,,,,6.1,6.1,*10
$GPRMC,094722,A,4729.2112,N,01904.7922,E,001.4,096.3,310305,002.9,E*70
$GPGGA,094722,4729.2112,N,01904.7922,E,6,03,6.1,112.2,M,41.0,M,,*44
$GPGSA,A,2,,,,15,,18,,,22,,,,6.1,6.1,*10
$GPRMC,094723,A,4729.2112,N,01904.7927,E,001.4,096.3,310305,002.9,E*74
$GPGGA,094723,4729.2112,N,01904.7927,E,6,03,6.1,112.2,M,41.0,M,,*40
$GPGSA,A,2,,,,15,,18,,,22,,,,6.1,6.1,*10
$GPRMC,094724,A,4729.2111,N,01904.7933,E,001.4,096.3,310305,002.9,E*75
$GPGGA,094724,4729.2111,N,01904.7933,E,6,03,6.1,112.2,M,41.0,M,,*41
$GPGSA,A,2,,,,15,,18,,,22,,,,6.1,6.1,*10
$GPRMC,094725,A,4729.2111,N,01904.7939,E,001.4,096.3,310305,002.9,E*7E
$GPGGA,094725,4729.2111,N,01904.7939,E,6,03,6.1,112.2,M,41.0,M,,*4A
$GPGSA,A,2,,,,15,,18,,,22,,,,6.1,6.1,*10
$GPRMC,094726,A,4729.2110,N,01904.7945,E,001.4,096.3,310305,002.9,E*77
$GPGGA,094726,4729.2110,N,01904.7945,E,6,03,6.1,112.2,M,41.0,M,,*43
$GPGSA,A,2,,,,,,,,,,,,,6.1,6.1,*1D
$GPRMC,094727,A,4729.2110,N,01904.7951,E,001.4,096.3,310305,002.9,E*73
$GPGGA,094727,4729.2110,N,01904.7951,E,6,00,6.1,112.2,M,41.0,M,,*44
$GPGSA,A,2,,,,,,,,,,,,,6.1,6.1,*1D
$GPRMC,094728,A,4729.2110,N,01904.7956,E,001.4,096.3,310305,002.9,E*7B
$GPGGA,094728,4729.2110,N,01904.7956,E,6,00,6.1,112.2,M,41.0,M,,*4C
$GPGSA,A,2,,,,,,,,,,,,,6.1,6.1,*1D
$GPRMC,094729,A,4729.2109,N,01904.7962,E,001.4,096.3,310305,002.9,E*75
$GPGGA,094729,4729.2109,N,01904.7962,E,6,00,6.1,112.2,M,41.0,M,,*42
$GPGSA,A,2,,,,,,,,,,,,,6.1,6.1,*1D
$GPRMC,094730,A,4729.2109,N,01904.7968,E,001.4,096.3,310305,002.9,E*77
$GPGGA,094730,4729.2109,N,01904.7968,E,6,00,6.1,112.2,M,41.0,M,,*40
$GPGSA,A,2,,,,,,,,,,,,,6.1,6.1,*1D
$GPRMC,094731,A,4729.2108,N,01904.7974,E,001.4,096.3,310305,002.9,E*7A
$GPGGA,094731,4729.2108,N,01904.7974,E,6,00,6.1,112.2,M,41.0,M,,*4D
$GPGSA,A,2,,,,,,,,,,,,,6.1,6.1,*1D
$GPRMC,094732,A,4729.2108,N,01904.7980,E,001.4,096.3,310305,002.9,E*72
$GPGGA,094732,4729.2108,N,01904.7980,E,6,00,6.1,112.2,M,41.0,M,,*45
$GPGSA,A,2,,,,,,,,,,,,,6.1,6.1,*1D
$GPRMC,094733,A,4729.2107,N,01904.7985,E,001.4,096.3,310305,002.9,E*79
$GPGGA,094733,4729.2107,N,01904.7985,E,6,00,6.1,112.2,M,41.0,M,,*4E
$GPGSA,A,2,,,,,,,,,,,,,6.1,6.1,*1D
$GPRMC,094734,A,4729.2107,N,01904.7991,E,001.4,096.3,310305,002.9,E*7B
$GPGGA,094734,4729.2107,N,01904.7991,E,6,00,6.1,112.2,M,41.0,M,,*4C
$GPGSA,A,2,,,,,,,,,,,,,6.1,6.1,*1D
$GPRMC,094735,A,4729.2107,N,01904.7997,E,001.4,096.3,310305,002.9,E*7C
$GPGGA,094735,4729.2107,N,01904.7997,E,6,00,6.1,112.2,M,41.0,M,,*4B
$GPGSA,A,2,,,,,,,,,,,,,6.1,6.1,*1D
$GPRMC,094736,A,4729.2101,N,01904.7987,E,001.3,097.0,310305,002.9,E*7D
$GPGGA,094736,4729.2101,N,01904.7987,E,1,00,3.1,112.2,M,41.0,M,,*4D
$GPGSA,A,2,03,,,,,18,,,22,,,,3.1,3.1,*17
$GPRMC,094737,A,4729.2097,N,01904.7975,E,001.2,097.0,310305,002.9,E*7E
$GPGGA,094737,4729.2097,N,01904.7975,E,1,03,3.1,110.8,M,41.0,M,,*44
$GPGSA,A,3,03,,,15,,18,,,22,,,,3.1,3.1,1.0*3D
$GPRMC,094738,A,4729.2097,N,01904.7967,E,001.2,097.0,310305,002.9,E*72
$GPGGA,094738,4729.2097,N,01904.7967,E,1,04,3.4,110.8,M,41.0,M,,*4A
$GPGSA,A,3,03,,,15,,18,,,22,,,,3.4,3.4,1.0*3D
$GPRMC,094739,A,4729.2099,N,01904.7959,E,001.1,097.0,310305,002.9,E*73
$GPGGA,094739,4729.2099,N,01904.7959,E,1,04,3.4,110.8,M,41.0,M,,*48
$GPGSA,A,3,03,,,15,,18,,,22,,,,3.4,3.4,1.0*3D
$GPRMC,094740,A,4729.2102,N,01904.7946,E,001.1,097.0,310305,002.9,E*70
$GPGGA,094740,4729.2102,N,01904.7946,E,1,04,3.4,109.8,M,41.0,M,,*43
$GPGSA,A,3,03,,,15,,18,,,22,,,,3.4,3.4,1.0*3D
$GPRMC,094741,A,4729.2104,N,01904.7939,E,001.0,097.0,310305,002.9,E*7E
$GPGGA,094741,4729.2104,N,01904.7939,E,1,04,3.4,109.8,M,41.0,M,,*4C
$GPGSA,A,3,03,,,15,,18,,,22,,,,3.4,3.4,1.0*3D
$GPRMC,094742,A,4729.2106,N,01904.7935,E,001.0,097.0,310305,002.9,E*73
$GPGGA,094742,4729.2106,N,01904.7935,E,1,04,3.4,109.8,M,41.0,M,,*41
$GPGSA,A,3,03,,,15,,18,,,22,,,,3.4,3.4,1.0*3D
$GPRMC,094743,A,4729.2107,N,01904.7932,E,000.9,097.0,310305,002.9,E*7C
$GPGGA,094743,4729.2107,N,01904.7932,E,1,04,3.4,109.8,M,41.0,M,,*46
$GPGSA,A,3,03,,,15,,18,,,22,,,,3.4,3.4,1.0*3D
$GPRMC,094744,A,4729.2107,N,01904.7933,E,000.9,097.0,310305,002.9,E*7A
$GPGGA,094744,4729.2107,N,01904.7933,E,1,04,3.5,109.6,M,41.0,M,,*4F
$GPGSA,A,3,03,,,15,,18,,,22,,,,4.7,3.5,2.4*3F
$GPRMC,094745,A,4729.2107,N,01904.7934,E,000.9,097.0,310305,002.9,E*7C
$GPGGA,094745,4729.2107,N,01904.7934,E,1,04,3.1,109.6,M,41.0,M,,*4D
$GPGSA,A,3,03,,,15,,18,,,22,,,,3.1,3.1,1.0*3D
$GPRMC,094746,A,4729.2107,N,01904.7935,E,000.9,097.0,310305,002.9,E*7E
$GPGGA,094746,4729.2107,N,01904.7935,E,1,04,3.1,109.7,M,41.0,M,,*4E
$GPGSA,A,3,03,,,15,,18,,,22,,,,3.1,3.1,1.0*3D
$GPRMC,094747,A,4729.2106,N,01904.7937,E,000.0,097.0,310305,002.9,E*75
$GPGGA,094747,4729.2106,N,01904.7937,E,1,04,3.2,109.7,M,41.0,M,,*4F
$GPGSA,A,3,03,,,15,,18,,,22,,,,4.4,3.2,2.4*3B
$GPRMC,094748,A,4729.2106,N,01904.7938,E,000.0,097.0,310305,002.9,E*75
$GPGGA,094748,4729.2106,N,01904.7938,E,1,04,3.2,109.5,M,41.0,M,,*4D
