Decode(30 bytes): A0A20016FF20526561645F5374617274536563746F723D30786408C1B0B3
-->ASCII(21 bytes):  Read_StartSector=0xd
Decode(31 bytes): A0A20017FF20526561645F53746172744F66667365743D3078343008B8B0B3
-->ASCII(22 bytes):  Read_StartOffset=0x40
Decode(28 bytes): A0A20014FF20526561645F456E64536563746F723D30786607CCB0B3
-->ASCII(19 bytes):  Read_EndSector=0xf
Decode(31 bytes): A0A20017FF20526561645F456E644F66667365743D30786638656308C3B0B3
-->ASCII(22 bytes):  Read_EndOffset=0xf8ec
Decode(16 bytes): A0A20008650007DA000600150161B0B3
-->Binary: UTC Date=2010-06-21
Decode(30 bytes): A0A2001664000008002B2FE412A7831E486115EBFFFFECAB00210863B0B3
-->Binary: UTC Time=08:43:12260 Lat=312967966 Lon=1214322155 AltM=-4949 Sog=33
$GPGGA,084312.260,3117.8078,N,12125.9329,E,1,,,-49.5,M,,M,,*76
$GPRMC,084312.260,A,3117.8078,N,12125.9329,E,0.6,,210610,,,A*4D
Decode(30 bytes): A0A2001664000008002B33CC12A7827C4861165DFFFFED18003B07A7B0B3
-->Binary: UTC Time=08:43:13260 Lat=312967804 Lon=1214322269 AltM=-4840 Sog=59
$GPGGA,084313.260,3117.8068,N,12125.9336,E,1,,,-48.4,M,,M,,*78
$GPRMC,084313.260,A,3117.8068,N,12125.9336,E,1.1,,210610,,,A*45
Decode(30 bytes): A0A2001664000008002B37B412A7820F486116E2FFFFEE8500560834B0B3
-->Binary: UTC Time=08:43:14260 Lat=312967695 Lon=1214322402 AltM=-4475 Sog=86
$GPGGA,084314.260,3117.8062,N,12125.9344,E,1,,,-44.8,M,,M,,*70
$GPRMC,084314.260,A,3117.8062,N,12125.9344,E,1.7,,210610,,,A*4B
Decode(30 bytes): A0A2001664000008002B3B9C12A781E44861178EFFFFEFF200500909B0B3
-->Binary: UTC Time=08:43:15260 Lat=312967652 Lon=1214322574 AltM=-4110 Sog=80
$GPGGA,084315.260,3117.8059,N,12125.9354,E,1,,,-41.1,M,,M,,*74
$GPRMC,084315.260,A,3117.8059,N,12125.9354,E,1.6,,210610,,,A*42
Decode(30 bytes): A0A2001664000008002B3F8412A781B748611833FFFFF14300150786B0B3
-->Binary: UTC Time=08:43:16260 Lat=312967607 Lon=1214322739 AltM=-3773 Sog=21
$GPGGA,084316.260,3117.8056,N,12125.9364,E,1,,,-37.7,M,,M,,*7C
$GPRMC,084316.260,A,3117.8056,N,12125.9364,E,0.4,,210610,,,A*4E
Decode(30 bytes): A0A2001664000008002B436C12A7812C48611895FFFFF195006D07F3B0B3
-->Binary: UTC Time=08:43:17260 Lat=312967468 Lon=1214322837 AltM=-3691 Sog=109
$GPGGA,084317.260,3117.8048,N,12125.9370,E,1,,,-36.9,M,,M,,*78
$GPRMC,084317.260,A,3117.8048,N,12125.9370,E,2.1,,210610,,,A*42
Decode(30 bytes): A0A2001664000008002B475412A780A9486118C9FFFFF1890048085EB0B3
-->Binary: UTC Time=08:43:18260 Lat=312967337 Lon=1214322889 AltM=-3703 Sog=72
$GPGGA,084318.260,3117.8040,N,12125.9373,E,1,,,-37.0,M,,M,,*74
$GPRMC,084318.260,A,3117.8040,N,12125.9373,E,1.4,,210610,,,A*40
Decode(30 bytes): A0A2001664000008002B4B3C12A7805448611933FFFFF1980038075FB0B3
-->Binary: UTC Time=08:43:19260 Lat=312967252 Lon=1214322995 AltM=-3688 Sog=56
$GPGGA,084319.260,3117.8035,N,12125.9380,E,1,,,-36.9,M,,M,,*73
$GPRMC,084319.260,A,3117.8035,N,12125.9380,E,1.1,,210610,,,A*4A
Decode(30 bytes): A0A2001664000008002B4F2412A78034486119A8FFFFF17B003A0785B0B3
-->Binary: UTC Time=08:43:20260 Lat=312967220 Lon=1214323112 AltM=-3717 Sog=58
$GPGGA,084320.260,3117.8033,N,12125.9387,E,1,,,-37.2,M,,M,,*72
$GPRMC,084320.260,A,3117.8033,N,12125.9387,E,1.1,,210610,,,A*41
Decode(30 bytes): A0A2001664000008002B530C12A77FCE48611A50FFFFF188004407CAB0B3
-->Binary: UTC Time=08:43:21260 Lat=312967118 Lon=1214323280 AltM=-3704 Sog=68
$GPGGA,084321.260,3117.8027,N,12125.9397,E,1,,,-37.0,M,,M,,*75
$GPRMC,084321.260,A,3117.8027,N,12125.9397,E,1.3,,210610,,,A*46
Decode(30 bytes): A0A2001664000008002B56F412A77F8C48611AA8FFFFF17C003008ABB0B3
-->Binary: UTC Time=08:43:22260 Lat=312967052 Lon=1214323368 AltM=-3716 Sog=48
$GPGGA,084322.260,3117.8023,N,12125.9402,E,1,,,-37.2,M,,M,,*7B
$GPRMC,084322.260,A,3117.8023,N,12125.9402,E,0.9,,210610,,,A*41
Decode(30 bytes): A0A2001664000008002B5ADC12A77F3B48611AAEFFFFF12100560817B0B3
-->Binary: UTC Time=08:43:23260 Lat=312966971 Lon=1214323374 AltM=-3807 Sog=86
$GPGGA,084323.260,3117.8018,N,12125.9402,E,1,,,-38.1,M,,M,,*7E
$GPRMC,084323.260,A,3117.8018,N,12125.9402,E,1.7,,210610,,,A*47
Decode(30 bytes): A0A2001664000008002B5EC412A77EEF48611AC4FFFFF0A70034092FB0B3
-->Binary: UTC Time=08:43:24260 Lat=312966895 Lon=1214323396 AltM=-3929 Sog=52
$GPGGA,084324.260,3117.8014,N,12125.9404,E,1,,,-39.3,M,,M,,*70
$GPRMC,084324.260,A,3117.8014,N,12125.9404,E,1.0,,210610,,,A*4D
Decode(30 bytes): A0A2001664000008002B62AC12A77EB448611B01FFFFF078000D07C8B0B3
-->Binary: UTC Time=08:43:25260 Lat=312966836 Lon=1214323457 AltM=-3976 Sog=13
$GPGGA,084325.260,3117.8010,N,12125.9407,E,1,,,-39.8,M,,M,,*7D
$GPRMC,084325.260,A,3117.8010,N,12125.9407,E,0.3,,210610,,,A*49
Decode(30 bytes): A0A2001664000008002B669412A77EBA48611B2CFFFFF072001007E2B0B3
-->Binary: UTC Time=08:43:26260 Lat=312966842 Lon=1214323500 AltM=-3982 Sog=16
$GPGGA,084326.260,3117.8011,N,12125.9410,E,1,,,-39.8,M,,M,,*79
$GPRMC,084326.260,A,3117.8011,N,12125.9410,E,0.3,,210610,,,A*4D
Decode(30 bytes): A0A2001664000008002B6A7C12A77ECB48611B4DFFFFF0D500130866B0B3
-->Binary: UTC Time=08:43:27260 Lat=312966859 Lon=1214323533 AltM=-3883 Sog=19
$GPGGA,084327.260,3117.8012,N,12125.9412,E,1,,,-38.8,M,,M,,*78
$GPRMC,084327.260,A,3117.8012,N,12125.9412,E,0.4,,210610,,,A*4A
Decode(30 bytes): A0A2001664000008002B6E6412A77EB148611B9EFFFFF0590044083EB0B3
-->Binary: UTC Time=08:43:28260 Lat=312966833 Lon=1214323614 AltM=-4007 Sog=68
$GPGGA,084328.260,3117.8010,N,12125.9417,E,1,,,-40.1,M,,M,,*76
$GPRMC,084328.260,A,3117.8010,N,12125.9417,E,1.3,,210610,,,A*44
Decode(30 bytes): A0A2001664000008002B724C12A77EB048611BF3FFFFF04700590881B0B3
-->Binary: UTC Time=08:43:29260 Lat=312966832 Lon=1214323699 AltM=-4025 Sog=89
$GPGGA,084329.260,3117.8010,N,12125.9422,E,1,,,-40.3,M,,M,,*73
$GPRMC,084329.260,A,3117.8010,N,12125.9422,E,1.7,,210610,,,A*47
Decode(30 bytes): A0A2001664000008002B763412A77F6C48611C5BFFFFF09C00D30862B0B3
-->Binary: UTC Time=08:43:30260 Lat=312967020 Lon=1214323803 AltM=-3940 Sog=211
$GPGGA,084330.260,3117.8021,N,12125.9428,E,1,,,-39.4,M,,M,,*7A
$GPRMC,084330.260,A,3117.8021,N,12125.9428,E,4.1,,210610,,,A*44
Decode(30 bytes): A0A2001664000008002B7A1C12A77FEF48611C93FFFFF03500FF08CEB0B3
-->Binary: UTC Time=08:43:31260 Lat=312967151 Lon=1214323859 AltM=-4043 Sog=255
$GPGGA,084331.260,3117.8029,N,12125.9432,E,1,,,-40.4,M,,M,,*76
$GPRMC,084331.260,A,3117.8029,N,12125.9432,E,5.0,,210610,,,A*46
Decode(30 bytes): A0A2001664000008002B7E0412A7803C48611CB7FFFFEFEE00D208B7B0B3
-->Binary: UTC Time=08:43:32260 Lat=312967228 Lon=1214323895 AltM=-4114 Sog=210
$GPGGA,084332.260,3117.8034,N,12125.9434,E,1,,,-41.1,M,,M,,*7B
$GPRMC,084332.260,A,3117.8034,N,12125.9434,E,4.1,,210610,,,A*4F
Decode(30 bytes): A0A2001664000008002B81EC12A7809548611CB3FFFFEF0D00C40908B0B3
-->Binary: UTC Time=08:43:33260 Lat=312967317 Lon=1214323891 AltM=-4339 Sog=196
$GPGGA,084333.260,3117.8039,N,12125.9433,E,1,,,-43.4,M,,M,,*77
$GPRMC,084333.260,A,3117.8039,N,12125.9433,E,3.8,,210610,,,A*4A
Decode(30 bytes): A0A2001664000008002B85D412A780BC48611CD0FFFFEE5000AF0965B0B3
-->Binary: UTC Time=08:43:34260 Lat=312967356 Lon=1214323920 AltM=-4528 Sog=175
$GPGGA,084334.260,3117.8041,N,12125.9435,E,1,,,-45.3,M,,M,,*78
$GPRMC,084334.260,A,3117.8041,N,12125.9435,E,3.4,,210610,,,A*48
Decode(30 bytes): A0A2001664000008002B89BC12A7811348611D3DFFFFEDF900A908B9B0B3
-->Binary: UTC Time=08:43:35260 Lat=312967443 Lon=1214324029 AltM=-4615 Sog=169
$GPGGA,084335.260,3117.8047,N,12125.9442,E,1,,,-46.1,M,,M,,*7E
$GPRMC,084335.260,A,3117.8047,N,12125.9442,E,3.3,,210610,,,A*48
Decode(30 bytes): A0A2001664000008002B8DA412A7811B48611DB2FFFFED6800800868B0B3
-->Binary: UTC Time=08:43:36260 Lat=312967451 Lon=1214324146 AltM=-4760 Sog=128
$GPGGA,084336.260,3117.8047,N,12125.9449,E,1,,,-47.6,M,,M,,*70
$GPRMC,084336.260,A,3117.8047,N,12125.9449,E,2.5,,210610,,,A*47
Decode(30 bytes): A0A2001664000008002B918C12A77FFC48611E11FFFFEC7300650882B0B3
-->Binary: UTC Time=08:43:37260 Lat=312967164 Lon=1214324241 AltM=-5005 Sog=101
$GPGGA,084337.260,3117.8030,N,12125.9454,E,1,,,-50.1,M,,M,,*7C
$GPRMC,084337.260,A,3117.8030,N,12125.9454,E,2.0,,210610,,,A*4F
Decode(30 bytes): A0A2001664000008002B957412A77F1B48611E7AFFFFEBDC005C0855B0B3
-->Binary: UTC Time=08:43:38260 Lat=312966939 Lon=1214324346 AltM=-5156 Sog=92
$GPGGA,084338.260,3117.8016,N,12125.9461,E,1,,,-51.6,M,,M,,*77
$GPRMC,084338.260,A,3117.8016,N,12125.9461,E,1.8,,210610,,,A*49
Decode(30 bytes): A0A2001664000008002B995C12A77DA748611F31FFFFEACB009808ADB0B3
-->Binary: UTC Time=08:43:39260 Lat=312966567 Lon=1214324529 AltM=-5429 Sog=152
$GPGGA,084339.260,3117.7994,N,12125.9472,E,1,,,-54.3,M,,M,,*78
$GPRMC,084339.260,A,3117.7994,N,12125.9472,E,3.0,,210610,,,A*4C
Decode(30 bytes): A0A2001664000008002B9D4412A77C3448612040FFFFE9EF00D60896B0B3
-->Binary: UTC Time=08:43:40260 Lat=312966196 Lon=1214324800 AltM=-5649 Sog=214
$GPGGA,084340.260,3117.7972,N,12125.9488,E,1,,,-56.5,M,,M,,*7F
$GPRMC,084340.260,A,3117.7972,N,12125.9488,E,4.2,,210610,,,A*4A
Decode(30 bytes): A0A2001664000008002BA12C12A77B3E48612113FFFFE9DD00A00817B0B3
-->Binary: UTC Time=08:43:41260 Lat=312965950 Lon=1214325011 AltM=-5667 Sog=160
$GPGGA,084341.260,3117.7957,N,12125.9501,E,1,,,-56.7,M,,M,,*7B
$GPRMC,084341.260,A,3117.7957,N,12125.9501,E,3.1,,210610,,,A*48
Decode(30 bytes): A0A2001664000008002BA51412A77A93486121F9FFFFE9AC009A0906B0B3
-->Binary: UTC Time=08:43:42260 Lat=312965779 Lon=1214325241 AltM=-5716 Sog=154
$GPGGA,084342.260,3117.7947,N,12125.9514,E,1,,,-57.2,M,,M,,*79
$GPRMC,084342.260,A,3117.7947,N,12125.9514,E,3.0,,210610,,,A*4F
Decode(30 bytes): A0A2001664000008002BA8FC12A779F048612299FFFFE98900530984B0B3
-->Binary: UTC Time=08:43:43260 Lat=312965616 Lon=1214325401 AltM=-5751 Sog=83
$GPGGA,084343.260,3117.7937,N,12125.9524,E,1,,,-57.5,M,,M,,*7B
$GPRMC,084343.260,A,3117.7937,N,12125.9524,E,1.6,,210610,,,A*4E
Decode(30 bytes): A0A2001664000008002BACE412A7796648612305FFFFE94F001907DFB0B3
-->Binary: UTC Time=08:43:44260 Lat=312965478 Lon=1214325509 AltM=-5809 Sog=25
$GPGGA,084344.260,3117.7929,N,12125.9531,E,1,,,-58.1,M,,M,,*7C
$GPRMC,084344.260,A,3117.7929,N,12125.9531,E,0.5,,210610,,,A*40
Decode(30 bytes): A0A2001664000008002BB0CC12A7792F48612378FFFFE9DD002608A2B0B3
-->Binary: UTC Time=08:43:45260 Lat=312965423 Lon=1214325624 AltM=-5667 Sog=38
$GPGGA,084345.260,3117.7925,N,12125.9537,E,1,,,-56.7,M,,M,,*7F
$GPRMC,084345.260,A,3117.7925,N,12125.9537,E,0.7,,210610,,,A*49
Decode(30 bytes): A0A2001664000008002BB4B412A778DF486123C7FFFFEA410043090EB0B3
-->Binary: UTC Time=08:43:46260 Lat=312965343 Lon=1214325703 AltM=-5567 Sog=67
$GPGGA,084346.260,3117.7921,N,12125.9542,E,1,,,-55.7,M,,M,,*79
$GPRMC,084346.260,A,3117.7921,N,12125.9542,E,1.3,,210610,,,A*49
Decode(30 bytes): A0A2001664000008002BB89C12A778804861241AFFFFEA8B003B0831B0B3
-->Binary: UTC Time=08:43:47260 Lat=312965248 Lon=1214325786 AltM=-5493 Sog=59
$GPGGA,084347.260,3117.7915,N,12125.9547,E,1,,,-54.9,M,,M,,*75
$GPRMC,084347.260,A,3117.7915,N,12125.9547,E,1.1,,210610,,,A*48
Decode(30 bytes): A0A2001664000008002BBC8412A7783148612487FFFFEB69001007EFB0B3
-->Binary: UTC Time=08:43:48260 Lat=312965169 Lon=1214325895 AltM=-5271 Sog=16
$GPGGA,084348.260,3117.7910,N,12125.9554,E,1,,,-52.7,M,,M,,*75
$GPRMC,084348.260,A,3117.7910,N,12125.9554,E,0.3,,210610,,,A*43
Decode(30 bytes): A0A2001664000008002BC06C12A777F04861250DFFFFEC4E000B0801B0B3
-->Binary: UTC Time=08:43:49260 Lat=312965104 Lon=1214326029 AltM=-5042 Sog=11
$GPGGA,084349.260,3117.7906,N,12125.9562,E,1,,,-50.4,M,,M,,*77
$GPRMC,084349.260,A,3117.7906,N,12125.9562,E,0.2,,210610,,,A*41
Decode(30 bytes): A0A2001664000008002BC45412A7771D486125F9FFFFEC5700640868B0B3
-->Binary: UTC Time=08:43:50260 Lat=312964893 Lon=1214326265 AltM=-5033 Sog=100
$GPGGA,084350.260,3117.7894,N,12125.9576,E,1,,,-50.3,M,,M,,*77
$GPRMC,084350.260,A,3117.7894,N,12125.9576,E,1.9,,210610,,,A*4C
Decode(30 bytes): A0A2001664000008002BC83C12A7764548612684FFFFEBEB007208A8B0B3
-->Binary: UTC Time=08:43:51260 Lat=312964677 Lon=1214326404 AltM=-5141 Sog=114
$GPGGA,084351.260,3117.7881,N,12125.9584,E,1,,,-51.4,M,,M,,*79
$GPRMC,084351.260,A,3117.7881,N,12125.9584,E,2.2,,210610,,,A*4C
Decode(30 bytes): A0A2001664000008002BCC2412A7755B48612723FFFFEBD8005F0823B0B3
-->Binary: UTC Time=08:43:52260 Lat=312964443 Lon=1214326563 AltM=-5160 Sog=95
$GPGGA,084352.260,3117.7867,N,12125.9594,E,1,,,-51.6,M,,M,,*71
$GPRMC,084352.260,A,3117.7867,N,12125.9594,E,1.8,,210610,,,A*4F
Decode(30 bytes): A0A2001664000008002BD00C12A77494486127D7FFFFEBE1005F0904B0B3
-->Binary: UTC Time=08:43:53260 Lat=312964244 Lon=1214326743 AltM=-5151 Sog=95
$GPGGA,084353.260,3117.7855,N,12125.9605,E,1,,,-51.5,M,,M,,*79
$GPRMC,084353.260,A,3117.7855,N,12125.9605,E,1.8,,210610,,,A*44
Decode(30 bytes): A0A2001664000008002BD3F412A773FD48612889FFFFEC1400660945B0B3
-->Binary: UTC Time=08:43:54260 Lat=312964093 Lon=1214326921 AltM=-5100 Sog=102
$GPGGA,084354.260,3117.7846,N,12125.9615,E,1,,,-51.0,M,,M,,*78
$GPRMC,084354.260,A,3117.7846,N,12125.9615,E,2.0,,210610,,,A*4B
Decode(30 bytes): A0A2001664000008002BD7DC12A7736148612955FFFFEC01005A0843B0B3
-->Binary: UTC Time=08:43:55260 Lat=312963937 Lon=1214327125 AltM=-5119 Sog=90
$GPGGA,084355.260,3117.7836,N,12125.9628,E,1,,,-51.2,M,,M,,*72
$GPRMC,084355.260,A,3117.7836,N,12125.9628,E,1.7,,210610,,,A*47
Decode(30 bytes): A0A2001664000008002BDBC412A772FB486129FDFFFFECC1004B0A21B0B3
-->Binary: UTC Time=08:43:56260 Lat=312963835 Lon=1214327293 AltM=-4927 Sog=75
$GPGGA,084356.260,3117.7830,N,12125.9638,E,1,,,-49.3,M,,M,,*7E
$GPRMC,084356.260,A,3117.7830,N,12125.9638,E,1.5,,210610,,,A*41
Decode(30 bytes): A0A2001664000008002BDFAC12A7729748612AD7FFFFED9D0055096BB0B3
-->Binary: UTC Time=08:43:57260 Lat=312963735 Lon=1214327511 AltM=-4707 Sog=85
$GPGGA,084357.260,3117.7824,N,12125.9651,E,1,,,-47.1,M,,M,,*79
$GPRMC,084357.260,A,3117.7824,N,12125.9651,E,1.7,,210610,,,A*48
Decode(30 bytes): A0A2001664000008002BE39412A771F148612BBAFFFFEE0B00530901B0B3
-->Binary: UTC Time=08:43:58260 Lat=312963569 Lon=1214327738 AltM=-4597 Sog=83
$GPGGA,084358.260,3117.7814,N,12125.9664,E,1,,,-46.0,M,,M,,*73
$GPRMC,084358.260,A,3117.7814,N,12125.9664,E,1.6,,210610,,,A*43
Decode(30 bytes): A0A2001664000008002BE77C12A7716848612C96FFFFEE080041082CB0B3
-->Binary: UTC Time=08:43:59260 Lat=312963432 Lon=1214327958 AltM=-4600 Sog=65
$GPGGA,084359.260,3117.7806,N,12125.9677,E,1,,,-46.0,M,,M,,*73
$GPRMC,084359.260,A,3117.7806,N,12125.9677,E,1.3,,210610,,,A*46
Decode(30 bytes): A0A2001664000008002C010412A770EF48612D70FFFFEE8B004A07BCB0B3
-->Binary: UTC Time=08:44:260 Lat=312963311 Lon=1214328176 AltM=-4469 Sog=74
$GPGGA,084400.260,3117.7799,N,12125.9691,E,1,,,-44.7,M,,M,,*7C
$GPRMC,084400.260,A,3117.7799,N,12125.9691,E,1.4,,210610,,,A*4B
Decode(30 bytes): A0A2001664000008002C04EC12A770EB48612E47FFFFEF8800560885B0B3
-->Binary: UTC Time=08:44:1260 Lat=312963307 Lon=1214328391 AltM=-4216 Sog=86
$GPGGA,084401.260,3117.7798,N,12125.9703,E,1,,,-42.2,M,,M,,*75
$GPRMC,084401.260,A,3117.7798,N,12125.9703,E,1.7,,210610,,,A*42
Decode(30 bytes): A0A2001664000008002C08D412A7713C48612EA7FFFFEFB2007C0873B0B3
-->Binary: UTC Time=08:44:2260 Lat=312963388 Lon=1214328487 AltM=-4174 Sog=124
$GPGGA,084402.260,3117.7803,N,12125.9709,E,1,,,-41.7,M,,M,,*77
$GPRMC,084402.260,A,3117.7803,N,12125.9709,E,2.4,,210610,,,A*46
Decode(30 bytes): A0A2001664000008002C0CBC12A771BA48612E95FFFFEF390049081FB0B3
-->Binary: UTC Time=08:44:3260 Lat=312963514 Lon=1214328469 AltM=-4295 Sog=73
$GPGGA,084403.260,3117.7811,N,12125.9708,E,1,,,-43.0,M,,M,,*71
$GPRMC,084403.260,A,3117.7811,N,12125.9708,E,1.4,,210610,,,A*46
Decode(30 bytes): A0A2001664000008002C10A412A7724048612E35FFFFEEAB0031078BB0B3
-->Binary: UTC Time=08:44:4260 Lat=312963648 Lon=1214328373 AltM=-4437 Sog=49
$GPGGA,084404.260,3117.7819,N,12125.9702,E,1,,,-44.4,M,,M,,*77
$GPRMC,084404.260,A,3117.7819,N,12125.9702,E,1.0,,210610,,,A*47
Decode(30 bytes): A0A2001664000008002C148C12A7729A48612E22FFFFEE8C00270795B0B3
-->Binary: UTC Time=08:44:5260 Lat=312963738 Lon=1214328354 AltM=-4468 Sog=39
$GPGGA,084405.260,3117.7824,N,12125.9701,E,1,,,-44.7,M,,M,,*78
$GPRMC,084405.260,A,3117.7824,N,12125.9701,E,0.8,,210610,,,A*42
Decode(30 bytes): A0A2001664000008002C187412A772CF48612E12FFFFEE75000F0777B0B3
-->Binary: UTC Time=08:44:6260 Lat=312963791 Lon=1214328338 AltM=-4491 Sog=15
$GPGGA,084406.260,3117.7827,N,12125.9700,E,1,,,-44.9,M,,M,,*77
$GPRMC,084406.260,A,3117.7827,N,12125.9700,E,0.3,,210610,,,A*48
Decode(30 bytes): A0A2001664000008002C1C5C12A772F948612DCEFFFFEDDB004308E1B0B3
-->Binary: UTC Time=08:44:7260 Lat=312963833 Lon=1214328270 AltM=-4645 Sog=67
$GPGGA,084407.260,3117.7830,N,12125.9696,E,1,,,-46.5,M,,M,,*70
$GPRMC,084407.260,A,3117.7830,N,12125.9696,E,1.3,,210610,,,A*40
Decode(30 bytes): A0A2001664000008002C204412A7737148612DB0FFFFEDA00062080CB0B3
-->Binary: UTC Time=08:44:8260 Lat=312963953 Lon=1214328240 AltM=-4704 Sog=98
$GPGGA,084408.260,3117.7837,N,12125.9694,E,1,,,-47.0,M,,M,,*7E
$GPRMC,084408.260,A,3117.7837,N,12125.9694,E,1.9,,210610,,,A*40
Decode(30 bytes): A0A2001664000008002C242C12A7742748612DB6FFFFED6D00600780B0B3
-->Binary: UTC Time=08:44:9260 Lat=312964135 Lon=1214328246 AltM=-4755 Sog=96
$GPGGA,084409.260,3117.7848,N,12125.9695,E,1,,,-47.6,M,,M,,*70
$GPRMC,084409.260,A,3117.7848,N,12125.9695,E,1.9,,210610,,,A*48
Decode(30 bytes): A0A2001664000008002C281412A774C748612D5FFFFFEC85007007DCB0B3
-->Binary: UTC Time=08:44:10260 Lat=312964295 Lon=1214328159 AltM=-4987 Sog=112
$GPGGA,084410.260,3117.7858,N,12125.9690,E,1,,,-49.9,M,,M,,*7D
$GPRMC,084410.260,A,3117.7858,N,12125.9690,E,2.2,,210610,,,A*4C
Decode(30 bytes): A0A2001664000008002C2BFC12A7758248612D06FFFFEBB40072085AB0B3
-->Binary: UTC Time=08:44:11260 Lat=312964482 Lon=1214328070 AltM=-5196 Sog=114
$GPGGA,084411.260,3117.7869,N,12125.9684,E,1,,,-52.0,M,,M,,*78
$GPRMC,084411.260,A,3117.7869,N,12125.9684,E,2.2,,210610,,,A*4A
Decode(30 bytes): A0A2001664000008002C2FE412A7761748612CB6FFFFEAE7006708B2B0B3
-->Binary: UTC Time=08:44:12260 Lat=312964631 Lon=1214327990 AltM=-5401 Sog=103
$GPGGA,084412.260,3117.7878,N,12125.9679,E,1,,,-54.0,M,,M,,*7F
$GPRMC,084412.260,A,3117.7878,N,12125.9679,E,2.0,,210610,,,A*49
Decode(30 bytes): A0A2001664000008002C33CC12A7765448612CB8FFFFEA5100250805B0B3
-->Binary: UTC Time=08:44:13260 Lat=312964692 Lon=1214327992 AltM=-5551 Sog=37
$GPGGA,084413.260,3117.7882,N,12125.9680,E,1,,,-55.5,M,,M,,*79
$GPRMC,084413.260,A,3117.7882,N,12125.9680,E,0.7,,210610,,,A*4E
Decode(30 bytes): A0A2001664000008002C37B412A7767B48612CA6FFFFE9EA006308DCB0B3
-->Binary: UTC Time=08:44:14260 Lat=312964731 Lon=1214327974 AltM=-5654 Sog=99
$GPGGA,084414.260,3117.7884,N,12125.9678,E,1,,,-56.5,M,,M,,*7C
$GPRMC,084414.260,A,3117.7884,N,12125.9678,E,1.9,,210610,,,A*47
Decode(30 bytes): A0A2001664000008002C3B9C12A7763448612CC2FFFFE90300250778B0B3
-->Binary: UTC Time=08:44:15260 Lat=312964660 Lon=1214328002 AltM=-5885 Sog=37
$GPGGA,084415.260,3117.7880,N,12125.9680,E,1,,,-58.9,M,,M,,*7C
$GPRMC,084415.260,A,3117.7880,N,12125.9680,E,0.7,,210610,,,A*4A
Decode(30 bytes): A0A2001664000008002C3F8412A7761E48612D3BFFFFE88A0012073BB0B3
-->Binary: UTC Time=08:44:16260 Lat=312964638 Lon=1214328123 AltM=-6006 Sog=18
$GPGGA,084416.260,3117.7878,N,12125.9687,E,1,,,-60.1,M,,M,,*7C
$GPRMC,084416.260,A,3117.7878,N,12125.9687,E,0.3,,210610,,,A*4D
Decode(30 bytes): A0A2001664000008002C436C12A775EF48612DCCFFFFE84E0031086BB0B3
-->Binary: UTC Time=08:44:17260 Lat=312964591 Lon=1214328268 AltM=-6066 Sog=49
$GPGGA,084417.260,3117.7875,N,12125.9696,E,1,,,-60.7,M,,M,,*76
$GPRMC,084417.260,A,3117.7875,N,12125.9696,E,1.0,,210610,,,A*43
Decode(30 bytes): A0A2001664000008002C475412A7757848612E2BFFFFE862003B075EB0B3
-->Binary: UTC Time=08:44:18260 Lat=312964472 Lon=1214328363 AltM=-6046 Sog=59
$GPGGA,084418.260,3117.7868,N,12125.9702,E,1,,,-60.5,M,,M,,*7B
$GPRMC,084418.260,A,3117.7868,N,12125.9702,E,1.1,,210610,,,A*4D
Decode(30 bytes): A0A2001664000008002C4B3C12A7750148612EA9FFFFE896005907A3B0B3
-->Binary: UTC Time=08:44:19260 Lat=312964353 Lon=1214328489 AltM=-5994 Sog=89
$GPGGA,084419.260,3117.7861,N,12125.9709,E,1,,,-59.9,M,,M,,*7E
$GPRMC,084419.260,A,3117.7861,N,12125.9709,E,1.7,,210610,,,A*48
Decode(30 bytes): A0A2001664000008002C4F2412A774A248612F30FFFFE8C5005C07E9B0B3
-->Binary: UTC Time=08:44:20260 Lat=312964258 Lon=1214328624 AltM=-5947 Sog=92
$GPGGA,084420.260,3117.7855,N,12125.9717,E,1,,,-59.5,M,,M,,*70
$GPRMC,084420.260,A,3117.7855,N,12125.9717,E,1.8,,210610,,,A*45
Decode(30 bytes): A0A2001664000008002C530C12A7746B48612FCFFFFFE91E0032076DB0B3
-->Binary: UTC Time=08:44:21260 Lat=312964203 Lon=1214328783 AltM=-5858 Sog=50
$GPGGA,084421.260,3117.7852,N,12125.9727,E,1,,,-58.6,M,,M,,*77
$GPRMC,084421.260,A,3117.7852,N,12125.9727,E,1.0,,210610,,,A*48
Decode(30 bytes): A0A2001664000008002C56F412A7749348613051FFFFE94E003F0840B0B3
-->Binary: UTC Time=08:44:22260 Lat=312964243 Lon=1214328913 AltM=-5810 Sog=63
$GPGGA,084422.260,3117.7855,N,12125.9735,E,1,,,-58.1,M,,M,,*77
$GPRMC,084422.260,A,3117.7855,N,12125.9735,E,1.2,,210610,,,A*4D
Decode(30 bytes): A0A2001664000008002C5ADC12A774A8486130ECFFFFE95C0062090DB0B3
-->Binary: UTC Time=08:44:23260 Lat=312964264 Lon=1214329068 AltM=-5796 Sog=98
$GPGGA,084423.260,3117.7856,N,12125.9744,E,1,,,-58.0,M,,M,,*72
$GPRMC,084423.260,A,3117.7856,N,12125.9744,E,1.9,,210610,,,A*42
Decode(30 bytes): A0A2001664000008002C5EC412A774DA48613140FFFFE900001907DBB0B3
-->Binary: UTC Time=08:44:24260 Lat=312964314 Lon=1214329152 AltM=-5888 Sog=25
$GPGGA,084424.260,3117.7859,N,12125.9749,E,1,,,-58.9,M,,M,,*7E
$GPRMC,084424.260,A,3117.7859,N,12125.9749,E,0.5,,210610,,,A*4A
Decode(30 bytes): A0A2001664000008002C62AC12A774DB4861313AFFFFE88A002D085FB0B3
-->Binary: UTC Time=08:44:25260 Lat=312964315 Lon=1214329146 AltM=-6006 Sog=45
$GPGGA,084425.260,3117.7859,N,12125.9749,E,1,,,-60.1,M,,M,,*7C
$GPRMC,084425.260,A,3117.7859,N,12125.9749,E,0.9,,210610,,,A*47
Decode(30 bytes): A0A2001664000008002C669412A774C348613143FFFFE8D2001E0875B0B3
-->Binary: UTC Time=08:44:26260 Lat=312964291 Lon=1214329155 AltM=-5934 Sog=30
$GPGGA,084426.260,3117.7857,N,12125.9749,E,1,,,-59.3,M,,M,,*79
$GPRMC,084426.260,A,3117.7857,N,12125.9749,E,0.6,,210610,,,A*45
Decode(30 bytes): A0A2001664000008002C6A7C12A774BA48613132FFFFE92E004A07D0B0B3
-->Binary: UTC Time=08:44:27260 Lat=312964282 Lon=1214329138 AltM=-5842 Sog=74
$GPGGA,084427.260,3117.7857,N,12125.9748,E,1,,,-58.4,M,,M,,*7F
$GPRMC,084427.260,A,3117.7857,N,12125.9748,E,1.4,,210610,,,A*46
Decode(30 bytes): A0A2001664000008002C6E6412A774C648613118FFFFE98B0069082AB0B3
-->Binary: UTC Time=08:44:28260 Lat=312964294 Lon=1214329112 AltM=-5749 Sog=105
$GPGGA,084428.260,3117.7858,N,12125.9747,E,1,,,-57.5,M,,M,,*7E
$GPRMC,084428.260,A,3117.7858,N,12125.9747,E,2.0,,210610,,,A*4E
Decode(30 bytes): A0A2001664000008002C724C12A774B84861310FFFFFEA180056077AB0B3
-->Binary: UTC Time=08:44:29260 Lat=312964280 Lon=1214329103 AltM=-5608 Sog=86
$GPGGA,084429.260,3117.7857,N,12125.9746,E,1,,,-56.1,M,,M,,*74
$GPRMC,084429.260,A,3117.7857,N,12125.9746,E,1.7,,210610,,,A*45
Decode(30 bytes): A0A2001664000008002C763412A774BE486130FEFFFFEACB007C0933B0B3
-->Binary: UTC Time=08:44:30260 Lat=312964286 Lon=1214329086 AltM=-5429 Sog=124
$GPGGA,084430.260,3117.7857,N,12125.9745,E,1,,,-54.3,M,,M,,*7F
$GPRMC,084430.260,A,3117.7857,N,12125.9745,E,2.4,,210610,,,A*4E
Decode(30 bytes): A0A2001664000008002C7A1C12A77511486130D3FFFFEB7B009F081CB0B3
-->Binary: UTC Time=08:44:31260 Lat=312964369 Lon=1214329043 AltM=-5253 Sog=159
$GPGGA,084431.260,3117.7862,N,12125.9743,E,1,,,-52.5,M,,M,,*7E
$GPRMC,084431.260,A,3117.7862,N,12125.9743,E,3.1,,210610,,,A*4B
Decode(30 bytes): A0A2001664000008002C7E0412A7757C486130A6FFFFEBD600940896B0B3
-->Binary: UTC Time=08:44:32260 Lat=312964476 Lon=1214328998 AltM=-5162 Sog=148
$GPGGA,084432.260,3117.7869,N,12125.9740,E,1,,,-51.6,M,,M,,*75
$GPRMC,084432.260,A,3117.7869,N,12125.9740,E,2.9,,210610,,,A*49
Decode(30 bytes): A0A2001664000008002C81EC12A7760748613093FFFFEC420098086BB0B3
-->Binary: UTC Time=08:44:33260 Lat=312964615 Lon=1214328979 AltM=-5054 Sog=152
$GPGGA,084433.260,3117.7877,N,12125.9739,E,1,,,-50.5,M,,M,,*77
$GPRMC,084433.260,A,3117.7877,N,12125.9739,E,3.0,,210610,,,A*41
Decode(30 bytes): A0A2001664000008002C84D012A776584861307AFFFFECAE007808D6B0B3
-->Binary: UTC Time=08:44:34000 Lat=312964696 Lon=1214328954 AltM=-4946 Sog=120
$GPGGA,084434.000,3117.7882,N,12125.9737,E,1,,,-49.5,M,,M,,*78
$GPRMC,084434.000,A,3117.7882,N,12125.9737,E,2.3,,210610,,,A*44
Decode(30 bytes): A0A2001664000008002C88B812A776B248613038FFFFED4D00730875B0B3
-->Binary: UTC Time=08:44:35000 Lat=312964786 Lon=1214328888 AltM=-4787 Sog=115
$GPGGA,084435.000,3117.7887,N,12125.9733,E,1,,,-47.9,M,,M,,*7A
$GPRMC,084435.000,A,3117.7887,N,12125.9733,E,2.2,,210610,,,A*45
Decode(30 bytes): A0A2001664000008002C8CA012A776F54861301BFFFFEDED004B08FFB0B3
-->Binary: UTC Time=08:44:36000 Lat=312964853 Lon=1214328859 AltM=-4627 Sog=75
$GPGGA,084436.000,3117.7891,N,12125.9732,E,1,,,-46.3,M,,M,,*74
$GPRMC,084436.000,A,3117.7891,N,12125.9732,E,1.5,,210610,,,A*44
Decode(30 bytes): A0A2001664000008002C908812A7775148612FF2FFFFEE83006208CCB0B3
-->Binary: UTC Time=08:44:37000 Lat=312964945 Lon=1214328818 AltM=-4477 Sog=98
$GPGGA,084437.000,3117.7897,N,12125.9729,E,1,,,-44.8,M,,M,,*70
$GPRMC,084437.000,A,3117.7897,N,12125.9729,E,1.9,,210610,,,A*45
Decode(30 bytes): A0A2001664000008002C947012A777EB48612FD0FFFFEF1D00970900B0B3
-->Binary: UTC Time=08:44:38000 Lat=312965099 Lon=1214328784 AltM=-4323 Sog=151
$GPGGA,084438.000,3117.7906,N,12125.9727,E,1,,,-43.2,M,,M,,*75
$GPRMC,084438.000,A,3117.7906,N,12125.9727,E,2.9,,210610,,,A*4E
Decode(30 bytes): A0A2001664000008002C985812A7787248612F94FFFFEFA5008A08B3B0B3
-->Binary: UTC Time=08:44:39000 Lat=312965234 Lon=1214328724 AltM=-4187 Sog=138
$GPGGA,084439.000,3117.7914,N,12125.9723,E,1,,,-41.9,M,,M,,*7A
$GPRMC,084439.000,A,3117.7914,N,12125.9723,E,2.7,,210610,,,A*46
Decode(30 bytes): A0A2001664000008002C9C4012A778C748612F4BFFFFF023006A080AB0B3
-->Binary: UTC Time=08:44:40000 Lat=312965319 Lon=1214328651 AltM=-4061 Sog=106
$GPGGA,084440.000,3117.7919,N,12125.9719,E,1,,,-40.6,M,,M,,*7E
$GPRMC,084440.000,A,3117.7919,N,12125.9719,E,2.1,,210610,,,A*4A
Decode(30 bytes): A0A2001664000008002CA02812A7790748612F2AFFFFF09A003B075EB0B3
-->Binary: UTC Time=08:44:41000 Lat=312965383 Lon=1214328618 AltM=-3942 Sog=59
$GPGGA,084441.000,3117.7923,N,12125.9717,E,1,,,-39.4,M,,M,,*74
$GPRMC,084441.000,A,3117.7923,N,12125.9717,E,1.1,,210610,,,A*4F
Decode(30 bytes): A0A2001664000008002CA41012A7795C48612EF7FFFFF10B005707F9B0B3
-->Binary: UTC Time=08:44:42000 Lat=312965468 Lon=1214328567 AltM=-3829 Sog=87
$GPGGA,084442.000,3117.7928,N,12125.9714,E,1,,,-38.3,M,,M,,*79
$GPRMC,084442.000,A,3117.7928,N,12125.9714,E,1.7,,210610,,,A*42
Decode(30 bytes): A0A2001664000008002CA7F812A779FC48612EBDFFFFF176009F09FDB0B3
-->Binary: UTC Time=08:44:43000 Lat=312965628 Lon=1214328509 AltM=-3722 Sog=159
$GPGGA,084443.000,3117.7938,N,12125.9711,E,1,,,-37.2,M,,M,,*72
$GPRMC,084443.000,A,3117.7938,N,12125.9711,E,3.1,,210610,,,A*43
Decode(30 bytes): A0A2001664000008002CABE012A77AD448612E9CFFFFF1DB00D40A3BB0B3
-->Binary: UTC Time=08:44:44000 Lat=312965844 Lon=1214328476 AltM=-3621 Sog=212
$GPGGA,084444.000,3117.7951,N,12125.9709,E,1,,,-36.2,M,,M,,*72
$GPRMC,084444.000,A,3117.7951,N,12125.9709,E,4.1,,210610,,,A*45
Decode(30 bytes): A0A2001664000008002CAFC812A77BBE48612E79FFFFF23600EB0962B0B3
-->Binary: UTC Time=08:44:45000 Lat=312966078 Lon=1214328441 AltM=-3530 Sog=235
$GPGGA,084445.000,3117.7965,N,12125.9706,E,1,,,-35.3,M,,M,,*79
$GPRMC,084445.000,A,3117.7965,N,12125.9706,E,4.6,,210610,,,A*4B
Decode(30 bytes): A0A2001664000008002CB3B012A77CB648612E25FFFFF287010D0867B0B3
-->Binary: UTC Time=08:44:46000 Lat=312966326 Lon=1214328357 AltM=-3449 Sog=269
$GPGGA,084446.000,3117.7980,N,12125.9701,E,1,,,-34.5,M,,M,,*71
$GPRMC,084446.000,A,3117.7980,N,12125.9701,E,5.2,,210610,,,A*41
Decode(30 bytes): A0A2001664000008002CB79812A77DC448612DB3FFFFF2C901310955B0B3
-->Binary: UTC Time=08:44:47000 Lat=312966596 Lon=1214328243 AltM=-3383 Sog=305
$GPGGA,084447.000,3117.7996,N,12125.9695,E,1,,,-33.8,M,,M,,*71
$GPRMC,084447.000,A,3117.7996,N,12125.9695,E,5.9,,210610,,,A*40
Decode(30 bytes): A0A2001664000008002CBB8012A77EC148612D33FFFFF2FD012E08F0B0B3
-->Binary: UTC Time=08:44:48000 Lat=312966849 Lon=1214328115 AltM=-3331 Sog=302
$GPGGA,084448.000,3117.8011,N,12125.9687,E,1,,,-33.3,M,,M,,*7F
$GPRMC,084448.000,A,3117.8011,N,12125.9687,E,5.9,,210610,,,A*45
Decode(30 bytes): A0A2001664000008002CBF6812A77F9848612C54FFFFF3220151081DB0B3
-->Binary: UTC Time=08:44:49000 Lat=312967064 Lon=1214327892 AltM=-3294 Sog=337
$GPGGA,084449.000,3117.8024,N,12125.9674,E,1,,,-32.9,M,,M,,*7F
$GPRMC,084449.000,A,3117.8024,N,12125.9674,E,6.6,,210610,,,A*42
Decode(30 bytes): A0A2001664000008002CC35012A7801748612B7DFFFFF337011F0794B0B3
-->Binary: UTC Time=08:44:50000 Lat=312967191 Lon=1214327677 AltM=-3273 Sog=287
$GPGGA,084450.000,3117.8031,N,12125.9661,E,1,,,-32.7,M,,M,,*79
$GPRMC,084450.000,A,3117.8031,N,12125.9661,E,5.6,,210610,,,A*49
Decode(30 bytes): A0A2001664000008002CC73812A7802248612AEAFFFFF33E00C908A7B0B3
-->Binary: UTC Time=08:44:51000 Lat=312967202 Lon=1214327530 AltM=-3266 Sog=201
$GPGGA,084451.000,3117.8032,N,12125.9652,E,1,,,-32.7,M,,M,,*7B
$GPRMC,084451.000,A,3117.8032,N,12125.9652,E,3.9,,210610,,,A*42
Decode(30 bytes): A0A2001664000008002CCB2012A77FCE48612A98FFFFF34E00A108D4B0B3
-->Binary: UTC Time=08:44:52000 Lat=312967118 Lon=1214327448 AltM=-3250 Sog=161
$GPGGA,084452.000,3117.8027,N,12125.9647,E,1,,,-32.5,M,,M,,*7A
$GPRMC,084452.000,A,3117.8027,N,12125.9647,E,3.1,,210610,,,A*49
Decode(30 bytes): A0A2001664000008002CCF0812A77F7A48612AC2FFFFF34800440833B0B3
-->Binary: UTC Time=08:44:53000 Lat=312967034 Lon=1214327490 AltM=-3256 Sog=68
$GPGGA,084453.000,3117.8022,N,12125.9649,E,1,,,-32.6,M,,M,,*73
$GPRMC,084453.000,A,3117.8022,N,12125.9649,E,1.3,,210610,,,A*43
Decode(30 bytes): A0A2001664000008002CD2F012A77F3448612B26FFFFF332002B080EB0B3
-->Binary: UTC Time=08:44:54000 Lat=312966964 Lon=1214327590 AltM=-3278 Sog=43
$GPGGA,084454.000,3117.8018,N,12125.9655,E,1,,,-32.8,M,,M,,*7E
$GPRMC,084454.000,A,3117.8018,N,12125.9655,E,0.8,,210610,,,A*4A
Decode(30 bytes): A0A2001664000008002CD6D812A77EFD48612B97FFFFF308001E08FCB0B3
-->Binary: UTC Time=08:44:55000 Lat=312966909 Lon=1214327703 AltM=-3320 Sog=30
$GPGGA,084455.000,3117.8015,N,12125.9662,E,1,,,-33.2,M,,M,,*7D
$GPRMC,084455.000,A,3117.8015,N,12125.9662,E,0.6,,210610,,,A*4C
Decode(30 bytes): A0A2001664000008002CDAC012A77EAB48612C28FFFFF2CF003E090EB0B3
-->Binary: UTC Time=08:44:56000 Lat=312966827 Lon=1214327848 AltM=-3377 Sog=62
$GPGGA,084456.000,3117.8010,N,12125.9671,E,1,,,-33.8,M,,M,,*73
$GPRMC,084456.000,A,3117.8010,N,12125.9671,E,1.2,,210610,,,A*4D
Decode(30 bytes): A0A2001664000008002CDEA812A77DDA48612CE3FFFFF28300A509FEB0B3
-->Binary: UTC Time=08:44:57000 Lat=312966618 Lon=1214328035 AltM=-3453 Sog=165
$GPGGA,084457.000,3117.7997,N,12125.9682,E,1,,,-34.5,M,,M,,*7D
$GPRMC,084457.000,A,3117.7997,N,12125.9682,E,3.2,,210610,,,A*4B
Decode(30 bytes): A0A2001664000008002CE29012A77CBA48612DB7FFFFF22B00E50986B0B3
-->Binary: UTC Time=08:44:58000 Lat=312966330 Lon=1214328247 AltM=-3541 Sog=229
$GPGGA,084458.000,3117.7980,N,12125.9695,E,1,,,-35.4,M,,M,,*72
$GPRMC,084458.000,A,3117.7980,N,12125.9695,E,4.5,,210610,,,A*44
Decode(30 bytes): A0A2001664000008002CE67812A77B7348612EABFFFFF1C0010908D8B0B3
-->Binary: UTC Time=08:44:59000 Lat=312966003 Lon=1214328491 AltM=-3648 Sog=265
$GPGGA,084459.000,3117.7960,N,12125.9709,E,1,,,-36.5,M,,M,,*7B
$GPRMC,084459.000,A,3117.7960,N,12125.9709,E,5.2,,210610,,,A*49
Decode(30 bytes): A0A2001664000008002D000012A77A0C48612FA2FFFFF148012306ADB0B3
-->Binary: UTC Time=08:45:00 Lat=312965644 Lon=1214328738 AltM=-3768 Sog=291
$GPGGA,084500.000,3117.7939,N,12125.9724,E,1,,,-37.7,M,,M,,*76
$GPRMC,084500.000,A,3117.7939,N,12125.9724,E,5.7,,210610,,,A*42
Decode(30 bytes): A0A2001664000008002D03E812A778BF48613099FFFFF0E0010E08C3B0B3
-->Binary: UTC Time=08:45:1000 Lat=312965311 Lon=1214328985 AltM=-3872 Sog=270
$GPGGA,084501.000,3117.7919,N,12125.9739,E,1,,,-38.7,M,,M,,*76
$GPRMC,084501.000,A,3117.7919,N,12125.9739,E,5.2,,210610,,,A*48
Decode(30 bytes): A0A2001664000008002D07D012A7779848613187FFFFF09900E80908B0B3
-->Binary: UTC Time=08:45:2000 Lat=312965016 Lon=1214329223 AltM=-3943 Sog=232
$GPGGA,084502.000,3117.7901,N,12125.9753,E,1,,,-39.4,M,,M,,*72
$GPRMC,084502.000,A,3117.7901,N,12125.9753,E,4.5,,210610,,,A*48
Decode(30 bytes): A0A2001664000008002D0BB812A7768F4861327FFFFFF07900D508B0B0B3
-->Binary: UTC Time=08:45:3000 Lat=312964751 Lon=1214329471 AltM=-3975 Sog=213
$GPGGA,084503.000,3117.7885,N,12125.9768,E,1,,,-39.8,M,,M,,*7A
$GPRMC,084503.000,A,3117.7885,N,12125.9768,E,4.1,,210610,,,A*48
Decode(30 bytes): A0A2001664000008002D0FA012A775DD48613345FFFFF0620079083DB0B3
-->Binary: UTC Time=08:45:4000 Lat=312964573 Lon=1214329669 AltM=-3998 Sog=121
$GPGGA,084504.000,3117.7874,N,12125.9780,E,1,,,-40.0,M,,M,,*73
$GPRMC,084504.000,A,3117.7874,N,12125.9780,E,2.4,,210610,,,A*44
Decode(30 bytes): A0A2001664000008002D138812A7754E486133EBFFFFF0560052080DB0B3
-->Binary: UTC Time=08:45:5000 Lat=312964430 Lon=1214329835 AltM=-4010 Sog=82
$GPGGA,084505.000,3117.7866,N,12125.9790,E,1,,,-40.1,M,,M,,*71
$GPRMC,084505.000,A,3117.7866,N,12125.9790,E,1.6,,210610,,,A*46
Decode(30 bytes): A0A2001664000008002D177012A774A6486134A2FFFFF04F00780827B0B3
-->Binary: UTC Time=08:45:6000 Lat=312964262 Lon=1214330018 AltM=-4017 Sog=120
$GPGGA,084506.000,3117.7856,N,12125.9801,E,1,,,-40.2,M,,M,,*75
$GPRMC,084506.000,A,3117.7856,N,12125.9801,E,2.3,,210610,,,A*47
Decode(30 bytes): A0A2001664000008002D1B5812A773CA4861357AFFFFF05C00BC0860B0B3
-->Binary: UTC Time=08:45:7000 Lat=312964042 Lon=1214330234 AltM=-4004 Sog=188
$GPGGA,084507.000,3117.7843,N,12125.9814,E,1,,,-40.0,M,,M,,*76
$GPRMC,084507.000,A,3117.7843,N,12125.9814,E,3.7,,210610,,,A*43
Decode(30 bytes): A0A2001664000008002D1F4012A772F548613650FFFFF08700B60872B0B3
-->Binary: UTC Time=08:45:8000 Lat=312963829 Lon=1214330448 AltM=-3961 Sog=182
$GPGGA,084508.000,3117.7830,N,12125.9827,E,1,,,-39.6,M,,M,,*75
$GPRMC,084508.000,A,3117.7830,N,12125.9827,E,3.5,,210610,,,A*4A
Decode(30 bytes): A0A2001664000008002D232812A7722048613725FFFFF0BB00C2079FB0B3
-->Binary: UTC Time=08:45:9000 Lat=312963616 Lon=1214330661 AltM=-3909 Sog=194
$GPGGA,084509.000,3117.7817,N,12125.9840,E,1,,,-39.1,M,,M,,*77
$GPRMC,084509.000,A,3117.7817,N,12125.9840,E,3.8,,210610,,,A*42
Decode(30 bytes): A0A2001664000008002D271012A77165486137B4FFFFF0E80093085CB0B3
-->Binary: UTC Time=08:45:10000 Lat=312963429 Lon=1214330804 AltM=-3864 Sog=147
$GPGGA,084510.000,3117.7806,N,12125.9848,E,1,,,-38.6,M,,M,,*71
$GPRMC,084510.000,A,3117.7806,N,12125.9848,E,2.9,,210610,,,A*42
Decode(30 bytes): A0A2001664000008002D2AF812A770F04861381DFFFFF1120059082CB0B3
-->Binary: UTC Time=08:45:11000 Lat=312963312 Lon=1214330909 AltM=-3822 Sog=89
$GPGGA,084511.000,3117.7799,N,12125.9855,E,1,,,-38.2,M,,M,,*71
$GPRMC,084511.000,A,3117.7799,N,12125.9855,E,1.7,,210610,,,A*4B
Decode(30 bytes): A0A2001664000008002D2EE012A770BF4861385CFFFFF1470018081AB0B3
-->Binary: UTC Time=08:45:12000 Lat=312963263 Lon=1214330972 AltM=-3769 Sog=24
$GPGGA,084512.000,3117.7796,N,12125.9858,E,1,,,-37.7,M,,M,,*7A
$GPRMC,084512.000,A,3117.7796,N,12125.9858,E,0.5,,210610,,,A*49
Decode(30 bytes): A0A2001664000008002D32C812A770C34861387AFFFFF16F00080840B0B3
-->Binary: UTC Time=08:45:13000 Lat=312963267 Lon=1214331002 AltM=-3729 Sog=8
$GPGGA,084513.000,3117.7796,N,12125.9860,E,1,,,-37.3,M,,M,,*74
$GPRMC,084513.000,A,3117.7796,N,12125.9860,E,0.2,,210610,,,A*44
Decode(30 bytes): A0A2001664000008002D36B012A770EC4861387AFFFFF19B0021089AB0B3
-->Binary: UTC Time=08:45:14000 Lat=312963308 Lon=1214331002 AltM=-3685 Sog=33
$GPGGA,084514.000,3117.7798,N,12125.9860,E,1,,,-36.9,M,,M,,*76
$GPRMC,084514.000,A,3117.7798,N,12125.9860,E,0.6,,210610,,,A*49
Decode(30 bytes): A0A2001664000008002D3A9812A7713A4861386AFFFFF1BA003A07FDB0B3
-->Binary: UTC Time=08:45:15000 Lat=312963386 Lon=1214330986 AltM=-3654 Sog=58
$GPGGA,084515.000,3117.7803,N,12125.9859,E,1,,,-36.5,M,,M,,*7C
$GPRMC,084515.000,A,3117.7803,N,12125.9859,E,1.1,,210610,,,A*49
Decode(30 bytes): A0A2001664000008002D3E8012A771914861385BFFFFF1D4003F0850B0B3
-->Binary: UTC Time=08:45:16000 Lat=312963473 Lon=1214330971 AltM=-3628 Sog=63
$GPGGA,084516.000,3117.7808,N,12125.9858,E,1,,,-36.3,M,,M,,*73
$GPRMC,084516.000,A,3117.7808,N,12125.9858,E,1.2,,210610,,,A*43
Decode(30 bytes): A0A2001664000008002D426812A771FE4861384DFFFFF1F6005708D5B0B3
-->Binary: UTC Time=08:45:17000 Lat=312963582 Lon=1214330957 AltM=-3594 Sog=87
$GPGGA,084517.000,3117.7815,N,12125.9857,E,1,,,-35.9,M,,M,,*78
$GPRMC,084517.000,A,3117.7815,N,12125.9857,E,1.7,,210610,,,A*44
Decode(30 bytes): A0A2001664000008002D465012A7725B4861384EFFFFF21E00450737B0B3
-->Binary: UTC Time=08:45:18000 Lat=312963675 Lon=1214330958 AltM=-3554 Sog=69
$GPGGA,084518.000,3117.7820,N,12125.9857,E,1,,,-35.5,M,,M,,*7D
$GPRMC,084518.000,A,3117.7820,N,12125.9857,E,1.3,,210610,,,A*49
Decode(30 bytes): A0A2001664000008002D4A3812A772C74861383EFFFFF244005C07BCB0B3
-->Binary: UTC Time=08:45:19000 Lat=312963783 Lon=1214330942 AltM=-3516 Sog=92
$GPGGA,084519.000,3117.7827,N,12125.9857,E,1,,,-35.2,M,,M,,*7C
$GPRMC,084519.000,A,3117.7827,N,12125.9857,E,1.8,,210610,,,A*44
Decode(30 bytes): A0A2001664000008002D4E2012A772C74861383EFFFFF2440000074CB0B3
-->Binary: UTC Time=08:45:20000 Lat=312963783 Lon=1214330942 AltM=-3516 Sog=0
$GPGGA,084520.000,3117.7827,N,12125.9857,E,1,,,-35.2,M,,M,,*76
$GPRMC,084520.000,A,3117.7827,N,12125.9857,E,0.0,,210610,,,A*47
Decode(30 bytes): A0A2001664000008002D520812A772C74861383EFFFFF24400000738B0B3
-->Binary: UTC Time=08:45:21000 Lat=312963783 Lon=1214330942 AltM=-3516 Sog=0
$GPGGA,084521.000,3117.7827,N,12125.9857,E,1,,,-35.2,M,,M,,*77
$GPRMC,084521.000,A,3117.7827,N,12125.9857,E,0.0,,210610,,,A*46
Decode(30 bytes): A0A2001664000008002D55F012A77388486137D1FFFFF2AB0061093FB0B3
-->Binary: UTC Time=08:45:22000 Lat=312963976 Lon=1214330833 AltM=-3413 Sog=97
$GPGGA,084522.000,3117.7839,N,12125.9850,E,1,,,-34.1,M,,M,,*7E
$GPRMC,084522.000,A,3117.7839,N,12125.9850,E,1.9,,210610,,,A*45
Decode(30 bytes): A0A2001664000008002D59D812A7732D486137ACFFFFF2C3006B08CDB0B3
-->Binary: UTC Time=08:45:23000 Lat=312963885 Lon=1214330796 AltM=-3389 Sog=107
$GPGGA,084523.000,3117.7833,N,12125.9848,E,1,,,-33.9,M,,M,,*73
$GPRMC,084523.000,A,3117.7833,N,12125.9848,E,2.1,,210610,,,A*4C
Decode(30 bytes): A0A2001664000008002D5DC012A772A1486137ADFFFFF2D6007F0954B0B3
-->Binary: UTC Time=08:45:24000 Lat=312963745 Lon=1214330797 AltM=-3370 Sog=127
$GPGGA,084524.000,3117.7825,N,12125.9848,E,1,,,-33.7,M,,M,,*7D
$GPRMC,084524.000,A,3117.7825,N,12125.9848,E,2.5,,210610,,,A*48
Decode(30 bytes): A0A2001664000008002D61A812A771EE486137C7FFFFF2E1009F09D1B0B3
-->Binary: UTC Time=08:45:25000 Lat=312963566 Lon=1214330823 AltM=-3359 Sog=159
$GPGGA,084525.000,3117.7814,N,12125.9849,E,1,,,-33.6,M,,M,,*7E
$GPRMC,084525.000,A,3117.7814,N,12125.9849,E,3.1,,210610,,,A*4F
Decode(30 bytes): A0A2001664000008002D659012A7719148613816FFFFF2E4004B085FB0B3
-->Binary: UTC Time=08:45:26000 Lat=312963473 Lon=1214330902 AltM=-3356 Sog=75
$GPGGA,084526.000,3117.7808,N,12125.9854,E,1,,,-33.6,M,,M,,*7C
$GPRMC,084526.000,A,3117.7808,N,12125.9854,E,1.5,,210610,,,A*4B
Decode(30 bytes): A0A2001664000008002D697812A7712E48613864FFFFF2DF0058083EB0B3
-->Binary: UTC Time=08:45:27000 Lat=312963374 Lon=1214330980 AltM=-3361 Sog=88
$GPGGA,084527.000,3117.7802,N,12125.9859,E,1,,,-33.6,M,,M,,*7A
$GPRMC,084527.000,A,3117.7802,N,12125.9859,E,1.7,,210610,,,A*4F
Decode(30 bytes): A0A2001664000008002D6D6012A77098486138E2FFFFF2D500A70956B0B3
-->Binary: UTC Time=08:45:28000 Lat=312963224 Lon=1214331106 AltM=-3371 Sog=167
$GPGGA,084528.000,3117.7793,N,12125.9866,E,1,,,-33.7,M,,M,,*7F
$GPRMC,084528.000,A,3117.7793,N,12125.9866,E,3.2,,210610,,,A*4C
Decode(30 bytes): A0A2001664000008002D714812A76FF648613985FFFFF2C700D0095EB0B3
-->Binary: UTC Time=08:45:29000 Lat=312963062 Lon=1214331269 AltM=-3385 Sog=208
$GPGGA,084529.000,3117.7784,N,12125.9876,E,1,,,-33.9,M,,M,,*77
$GPRMC,084529.000,A,3117.7784,N,12125.9876,E,4.0,,210610,,,A*4F
Decode(30 bytes): A0A2001664000008002D753012A76F44486139E1FFFFF2B400DD08EEB0B3
-->Binary: UTC Time=08:45:30000 Lat=312962884 Lon=1214331361 AltM=-3404 Sog=221
$GPGGA,084530.000,3117.7773,N,12125.9882,E,1,,,-34.0,M,,M,,*72
$GPRMC,084530.000,A,3117.7773,N,12125.9882,E,4.3,,210610,,,A*47
Decode(30 bytes): A0A2001664000008002D791812A76EAC48613A41FFFFF29F00C10871B0B3
-->Binary: UTC Time=08:45:31000 Lat=312962732 Lon=1214331457 AltM=-3425 Sog=193
$GPGGA,084531.000,3117.7764,N,12125.9887,E,1,,,-34.3,M,,M,,*73
$GPRMC,084531.000,A,3117.7764,N,12125.9887,E,3.8,,210610,,,A*49
Decode(30 bytes): A0A2001664000008002D7D0012A76E3148613AB6FFFFF28700960814B0B3
-->Binary: UTC Time=08:45:32000 Lat=312962609 Lon=1214331574 AltM=-3449 Sog=150
$GPGGA,084532.000,3117.7757,N,12125.9894,E,1,,,-34.5,M,,M,,*74
$GPRMC,084532.000,A,3117.7757,N,12125.9894,E,2.9,,210610,,,A*48
Decode(30 bytes): A0A2001664000008002D80E812A76DE248613B34FFFFF26A006608E1B0B3
-->Binary: UTC Time=08:45:33000 Lat=312962530 Lon=1214331700 AltM=-3478 Sog=102
$GPGGA,084533.000,3117.7752,N,12125.9902,E,1,,,-34.8,M,,M,,*73
$GPRMC,084533.000,A,3117.7752,N,12125.9902,E,2.0,,210610,,,A*4B
Decode(30 bytes): A0A2001664000008002D84D012A76D7F48613BB0FFFFF24A007008D0B0B3
-->Binary: UTC Time=08:45:34000 Lat=312962431 Lon=1214331824 AltM=-3510 Sog=112
$GPGGA,084534.000,3117.7746,N,12125.9909,E,1,,,-35.1,M,,M,,*72
$GPRMC,084534.000,A,3117.7746,N,12125.9909,E,2.2,,210610,,,A*40
Decode(30 bytes): A0A2001664000008002D88B812A76D5148613C2EFFFFF23D004107D1B0B3
-->Binary: UTC Time=08:45:35000 Lat=312962385 Lon=1214331950 AltM=-3523 Sog=65
$GPGGA,084535.000,3117.7743,N,12125.9917,E,1,,,-35.2,M,,M,,*7A
$GPRMC,084535.000,A,3117.7743,N,12125.9917,E,1.3,,210610,,,A*49
Decode(30 bytes): A0A2001664000008002D8CA012A76D5D48613C8DFFFFF2440031081FB0B3
-->Binary: UTC Time=08:45:36000 Lat=312962397 Lon=1214332045 AltM=-3516 Sog=49
$GPGGA,084536.000,3117.7744,N,12125.9923,E,1,,,-35.2,M,,M,,*79
$GPRMC,084536.000,A,3117.7744,N,12125.9923,E,1.0,,210610,,,A*49
Decode(30 bytes): A0A2001664000008002D908812A76D7548613C99FFFFF261004A0865B0B3
-->Binary: UTC Time=08:45:37000 Lat=312962421 Lon=1214332057 AltM=-3487 Sog=74
$GPGGA,084537.000,3117.7745,N,12125.9923,E,1,,,-34.9,M,,M,,*73
$GPRMC,084537.000,A,3117.7745,N,12125.9923,E,1.4,,210610,,,A*4D
Decode(30 bytes): A0A2001664000008002D947012A76D8F48613C7AFFFFF297006908A1B0B3
-->Binary: UTC Time=08:45:38000 Lat=312962447 Lon=1214332026 AltM=-3433 Sog=105
$GPGGA,084538.000,3117.7747,N,12125.9922,E,1,,,-34.3,M,,M,,*75
$GPRMC,084538.000,A,3117.7747,N,12125.9922,E,2.0,,210610,,,A*46
Decode(30 bytes): A0A2001664000008002D985812A76D8348613C78FFFFF2C1003F087FB0B3
-->Binary: UTC Time=08:45:39000 Lat=312962435 Lon=1214332024 AltM=-3391 Sog=63
$GPGGA,084539.000,3117.7746,N,12125.9921,E,1,,,-33.9,M,,M,,*7B
$GPRMC,084539.000,A,3117.7746,N,12125.9921,E,1.2,,210610,,,A*44
Decode(30 bytes): A0A2001664000008002D9C4012A76D6748613C82FFFFF2D1002D0857B0B3
-->Binary: UTC Time=08:45:40000 Lat=312962407 Lon=1214332034 AltM=-3375 Sog=45
$GPGGA,084540.000,3117.7744,N,12125.9922,E,1,,,-33.8,M,,M,,*75
$GPRMC,084540.000,A,3117.7744,N,12125.9922,E,0.9,,210610,,,A*41
Decode(30 bytes): A0A2001664000008002DA02812A76D5048613CA0FFFFF2DB0017083EB0B3
-->Binary: UTC Time=08:45:41000 Lat=312962384 Lon=1214332064 AltM=-3365 Sog=23
$GPGGA,084541.000,3117.7743,N,12125.9924,E,1,,,-33.6,M,,M,,*7B
$GPRMC,084541.000,A,3117.7743,N,12125.9924,E,0.4,,210610,,,A*4C
Decode(30 bytes): A0A2001664000008002DA41012A76D5E48613CA1FFFFF2D400480863B0B3
-->Binary: UTC Time=08:45:42000 Lat=312962398 Lon=1214332065 AltM=-3372 Sog=72
$GPGGA,084542.000,3117.7744,N,12125.9924,E,1,,,-33.7,M,,M,,*7E
$GPRMC,084542.000,A,3117.7744,N,12125.9924,E,1.4,,210610,,,A*49
Decode(30 bytes): A0A2001664000008002DA7F812A76D7648613CA1FFFFF2DB004E0973B0B3
-->Binary: UTC Time=08:45:43000 Lat=312962422 Lon=1214332065 AltM=-3365 Sog=78
$GPGGA,084543.000,3117.7745,N,12125.9924,E,1,,,-33.6,M,,M,,*7F
$GPRMC,084543.000,A,3117.7745,N,12125.9924,E,1.5,,210610,,,A*48
Decode(30 bytes): A0A2001664000008002DABE012A76D9848613CC3FFFFF2FD004A09C1B0B3
-->Binary: UTC Time=08:45:44000 Lat=312962456 Lon=1214332099 AltM=-3331 Sog=74
$GPGGA,084544.000,3117.7747,N,12125.9926,E,1,,,-33.3,M,,M,,*7D
$GPRMC,084544.000,A,3117.7747,N,12125.9926,E,1.4,,210610,,,A*4E
Decode(30 bytes): A0A2001664000008002DAFC812A76DC848613CF5FFFFF33E00520959B0B3
-->Binary: UTC Time=08:45:45000 Lat=312962504 Lon=1214332149 AltM=-3266 Sog=82
$GPGGA,084545.000,3117.7750,N,12125.9929,E,1,,,-32.7,M,,M,,*70
$GPRMC,084545.000,A,3117.7750,N,12125.9929,E,1.6,,210610,,,A*44
Decode(30 bytes): A0A2001664000008002DB3B012A76DF948613D01FFFFF39C004D08DCB0B3
-->Binary: UTC Time=08:45:46000 Lat=312962553 Lon=1214332161 AltM=-3172 Sog=77
$GPGGA,084546.000,3117.7753,N,12125.9930,E,1,,,-31.7,M,,M,,*7B
$GPRMC,084546.000,A,3117.7753,N,12125.9930,E,1.5,,210610,,,A*4F
Decode(30 bytes): A0A2001664000008002DB79812A76E3148613CEDFFFFF40C005A086AB0B3
-->Binary: UTC Time=08:45:47000 Lat=312962609 Lon=1214332141 AltM=-3060 Sog=90
$GPGGA,084547.000,3117.7757,N,12125.9928,E,1,,,-30.6,M,,M,,*77
$GPRMC,084547.000,A,3117.7757,N,12125.9928,E,1.7,,210610,,,A*41
Decode(30 bytes): A0A2001664000008002DBB8012A76E7E48613CF0FFFFF48E00670935B0B3
-->Binary: UTC Time=08:45:48000 Lat=312962686 Lon=1214332144 AltM=-2930 Sog=103
$GPGGA,084548.000,3117.7761,N,12125.9929,E,1,,,-29.3,M,,M,,*71
$GPRMC,084548.000,A,3117.7761,N,12125.9929,E,2.0,,210610,,,A*4E
Decode(30 bytes): A0A2001664000008002DBF6812A76E9948613CF2FFFFF52F003408ADB0B3
-->Binary: UTC Time=08:45:49000 Lat=312962713 Lon=1214332146 AltM=-2769 Sog=52
$GPGGA,084549.000,3117.7763,N,12125.9929,E,1,,,-27.7,M,,M,,*78
$GPRMC,084549.000,A,3117.7763,N,12125.9929,E,1.0,,210610,,,A*4E
Decode(30 bytes): A0A2001664000008002DC35012A76EC648613CD4FFFFF5D200520969B0B3
-->Binary: UTC Time=08:45:50000 Lat=312962758 Lon=1214332116 AltM=-2606 Sog=82
$GPGGA,084550.000,3117.7765,N,12125.9927,E,1,,,-26.1,M,,M,,*7F
$GPRMC,084550.000,A,3117.7765,N,12125.9927,E,1.6,,210610,,,A*48
Decode(30 bytes): A0A2001664000008002DC73812A76F1F48613CC3FFFFF68400690868B0B3
-->Binary: UTC Time=08:45:51000 Lat=312962847 Lon=1214332099 AltM=-2428 Sog=105
$GPGGA,084551.000,3117.7771,N,12125.9926,E,1,,,-24.3,M,,M,,*7A
$GPRMC,084551.000,A,3117.7771,N,12125.9926,E,2.0,,210610,,,A*48
Decode(30 bytes): A0A2001664000008002DCB2012A76FDF48613CDAFFFFF73F00C70945B0B3
-->Binary: UTC Time=08:45:52000 Lat=312963039 Lon=1214332122 AltM=-2241 Sog=199
$GPGGA,084552.000,3117.7782,N,12125.9927,E,1,,,-22.4,M,,M,,*75
$GPRMC,084552.000,A,3117.7782,N,12125.9927,E,3.9,,210610,,,A*4E
Decode(30 bytes): A0A2001664000008002DCF0812A770EF48613CE6FFFFF7EF01190951B0B3
-->Binary: UTC Time=08:45:53000 Lat=312963311 Lon=1214332134 AltM=-2065 Sog=281
$GPGGA,084553.000,3117.7799,N,12125.9928,E,1,,,-20.7,M,,M,,*70
$GPRMC,084553.000,A,3117.7799,N,12125.9928,E,5.5,,210610,,,A*40
Decode(30 bytes): A0A2001664000008002DD2F012A7723A48613CE3FFFFF8860156095BB0B3
-->Binary: UTC Time=08:45:54000 Lat=312963642 Lon=1214332131 AltM=-1914 Sog=342
$GPGGA,084554.000,3117.7819,N,12125.9928,E,1,,,-19.1,M,,M,,*7C
$GPRMC,084554.000,A,3117.7819,N,12125.9928,E,6.6,,210610,,,A*40
Decode(30 bytes): A0A2001664000008002DD6D812A7734A48613CBCFFFFF912011B0883B0B3
-->Binary: UTC Time=08:45:55000 Lat=312963914 Lon=1214332092 AltM=-1774 Sog=283
$GPGGA,084555.000,3117.7835,N,12125.9926,E,1,,,-17.7,M,,M,,*75
$GPRMC,084555.000,A,3117.7835,N,12125.9926,E,5.5,,210610,,,A*41
Decode(30 bytes): A0A2001664000008002DDAC012A7740548613C5DFFFFF9A600DC0920B0B3
-->Binary: UTC Time=08:45:56000 Lat=312964101 Lon=1214331997 AltM=-1626 Sog=220
$GPGGA,084556.000,3117.7846,N,12125.9920,E,1,,,-16.3,M,,M,,*71
$GPRMC,084556.000,A,3117.7846,N,12125.9920,E,4.3,,210610,,,A*47
Decode(30 bytes): A0A2001664000008002DDEA812A7745C48613C36FFFFFA3B0065085BB0B3
-->Binary: UTC Time=08:45:57000 Lat=312964188 Lon=1214331958 AltM=-1477 Sog=101
$GPGGA,084557.000,3117.7851,N,12125.9917,E,1,,,-14.8,M,,M,,*7B
$GPRMC,084557.000,A,3117.7851,N,12125.9917,E,2.0,,210610,,,A*41
Decode(30 bytes): A0A2001664000008002DE29012A7749448613C56FFFFFAC7003508FBB0B3
-->Binary: UTC Time=08:45:58000 Lat=312964244 Lon=1214331990 AltM=-1337 Sog=53
$GPGGA,084558.000,3117.7855,N,12125.9919,E,1,,,-13.4,M,,M,,*75
$GPRMC,084558.000,A,3117.7855,N,12125.9919,E,1.0,,210610,,,A*47
Decode(30 bytes): A0A2001664000008002DE67812A774F448613C94FFFFFB550060093FB0B3
-->Binary: UTC Time=08:45:59000 Lat=312964340 Lon=1214332052 AltM=-1195 Sog=96
$GPGGA,084559.000,3117.7860,N,12125.9923,E,1,,,-12.0,M,,M,,*7E
$GPRMC,084559.000,A,3117.7860,N,12125.9923,E,1.9,,210610,,,A*40
Decode(30 bytes): A0A2001664000008002E000012A7757D48613CC1FFFFFBF1007B0850B0B3
-->Binary: UTC Time=08:46:00 Lat=312964477 Lon=1214332097 AltM=-1039 Sog=123
$GPGGA,084600.000,3117.7869,N,12125.9926,E,1,,,-10.4,M,,M,,*7B
$GPRMC,084600.000,A,3117.7869,N,12125.9926,E,2.4,,210610,,,A*4D
Decode(30 bytes): A0A2001664000008002E03E812A7760B48613CF8FFFFFC95007F08AAB0B3
-->Binary: UTC Time=08:46:1000 Lat=312964619 Lon=1214332152 AltM=-875 Sog=127
$GPGGA,084601.000,3117.7877,N,12125.9929,E,1,,,-8.8,M,,M,,*4F
$GPRMC,084601.000,A,3117.7877,N,12125.9929,E,2.5,,210610,,,A*4D
Decode(30 bytes): A0A2001664000008002E07D012A7768948613D3AFFFFFD34006F07E7B0B3
-->Binary: UTC Time=08:46:2000 Lat=312964745 Lon=1214332218 AltM=-716 Sog=111
$GPGGA,084602.000,3117.7885,N,12125.9933,E,1,,,-7.2,M,,M,,*4F
$GPRMC,084602.000,A,3117.7885,N,12125.9933,E,2.2,,210610,,,A*4F
Decode(30 bytes): A0A2001664000008002E0BB812A776EE48613D7CFFFFFDD900540904B0B3
-->Binary: UTC Time=08:46:3000 Lat=312964846 Lon=1214332284 AltM=-551 Sog=84
$GPGGA,084603.000,3117.7891,N,12125.9937,E,1,,,-5.5,M,,M,,*4A
$GPRMC,084603.000,A,3117.7891,N,12125.9937,E,1.6,,210610,,,A*48
Decode(30 bytes): A0A2001664000008002E0FA012A7774B48613D9FFFFFFE7C003507F6B0B3
-->Binary: UTC Time=08:46:4000 Lat=312964939 Lon=1214332319 AltM=-388 Sog=53
$GPGGA,084604.000,3117.7896,N,12125.9939,E,1,,,-3.9,M,,M,,*4E
$GPRMC,084604.000,A,3117.7896,N,12125.9939,E,1.0,,210610,,,A*40
Decode(30 bytes): A0A2001664000008002E138812A777E448613DADFFFFFF26006A0869B0B3
-->Binary: UTC Time=08:46:5000 Lat=312965092 Lon=1214332333 AltM=-218 Sog=106
$GPGGA,084605.000,3117.7906,N,12125.9940,E,1,,,-2.2,M,,M,,*43
$GPRMC,084605.000,A,3117.7906,N,12125.9940,E,2.1,,210610,,,A*45
Decode(30 bytes): A0A2001664000008002E177012A778B348613DA9FFFFFFB100B208F4B0B3
-->Binary: UTC Time=08:46:6000 Lat=312965299 Lon=1214332329 AltM=-79 Sog=178
$GPGGA,084606.000,3117.7918,N,12125.9940,E,1,,,-0.8,M,,M,,*47
$GPRMC,084606.000,A,3117.7918,N,12125.9940,E,3.5,,210610,,,A*4C
Decode(30 bytes): A0A2001664000008002E1B5812A779B148613DA50000004600E005A1B0B3
-->Binary: UTC Time=08:46:7000 Lat=312965553 Lon=1214332325 AltM=70 Sog=224
$GPGGA,084607.000,3117.7933,N,12125.9939,E,1,,,0.7,M,,M,,*63
$GPRMC,084607.000,A,3117.7933,N,12125.9939,E,4.4,,210610,,,A*4C
Decode(30 bytes): A0A2001664000008002E1F4012A77AC948613DB6000000E600F6066DB0B3
-->Binary: UTC Time=08:46:8000 Lat=312965833 Lon=1214332342 AltM=230 Sog=246
$GPGGA,084608.000,3117.7950,N,12125.9941,E,1,,,2.3,M,,M,,*60
$GPRMC,084608.000,A,3117.7950,N,12125.9941,E,4.8,,210610,,,A*45
Decode(30 bytes): A0A2001664000008002E232812A77BD948613DC80000018600E7060EB0B3
-->Binary: UTC Time=08:46:9000 Lat=312966105 Lon=1214332360 AltM=390 Sog=231
$GPGGA,084609.000,3117.7966,N,12125.9942,E,1,,,3.9,M,,M,,*6C
$GPRMC,084609.000,A,3117.7966,N,12125.9942,E,4.5,,210610,,,A*4F
Decode(30 bytes): A0A2001664000008002E271012A77CCC48613DEA0000022700BA0585B0B3
-->Binary: UTC Time=08:46:10000 Lat=312966348 Lon=1214332394 AltM=551 Sog=186
$GPGGA,084610.000,3117.7981,N,12125.9944,E,1,,,5.5,M,,M,,*61
$GPRMC,084610.000,A,3117.7981,N,12125.9944,E,3.6,,210610,,,A*4C
Decode(30 bytes): A0A2001664000008002E2AF812A77D9A48613E1E000002CE008805E9B0B3
-->Binary: UTC Time=08:46:11000 Lat=312966554 Lon=1214332446 AltM=718 Sog=136
$GPGGA,084611.000,3117.7993,N,12125.9947,E,1,,,7.2,M,,M,,*65
$GPRMC,084611.000,A,3117.7993,N,12125.9947,E,2.6,,210610,,,A*4C
Decode(30 bytes): A0A2001664000008002E2EE012A77E6D48613E750000037D009005B8B0B3
-->Binary: UTC Time=08:46:12000 Lat=312966765 Lon=1214332533 AltM=893 Sog=144
$GPGGA,084612.000,3117.8006,N,12125.9952,E,1,,,8.9,M,,M,,*6C
$GPRMC,084612.000,A,3117.8006,N,12125.9952,E,2.8,,210610,,,A*4F
Decode(30 bytes): A0A2001664000008002E32C812A77F3A48613EB80000042B0079054DB0B3
-->Binary: UTC Time=08:46:13000 Lat=312966970 Lon=1214332600 AltM=1067 Sog=121
$GPGGA,084613.000,3117.8018,N,12125.9956,E,1,,,10.7,M,,M,,*51
$GPRMC,084613.000,A,3117.8018,N,12125.9956,E,2.4,,210610,,,A*49
Decode(30 bytes): A0A2001664000008002E36B012A77FF248613EEE000004EB005406C2B0B3
-->Binary: UTC Time=08:46:14000 Lat=312967154 Lon=1214332654 AltM=1259 Sog=84
$GPGGA,084614.000,3117.8029,N,12125.9959,E,1,,,12.6,M,,M,,*58
$GPRMC,084614.000,A,3117.8029,N,12125.9959,E,1.6,,210610,,,A*42
Decode(30 bytes): A0A2001664000008002E3A9812A7809B48613F1B000005CD00320547B0B3
-->Binary: UTC Time=08:46:15000 Lat=312967323 Lon=1214332699 AltM=1485 Sog=50
$GPGGA,084615.000,3117.8039,N,12125.9962,E,1,,,14.9,M,,M,,*59
$GPRMC,084615.000,A,3117.8039,N,12125.9962,E,1.0,,210610,,,A*4C
Decode(30 bytes): A0A2001664000008002E3E8012A7815648613F32000006BD003704FCB0B3
-->Binary: UTC Time=08:46:16000 Lat=312967510 Lon=1214332722 AltM=1725 Sog=55
$GPGGA,084616.000,3117.8051,N,12125.9963,E,1,,,17.3,M,,M,,*5C
$GPRMC,084616.000,A,3117.8051,N,12125.9963,E,1.1,,210610,,,A*41
Decode(30 bytes): A0A2001664000008002E426812A7824E48613F3A000007B500760521B0B3
-->Binary: UTC Time=08:46:17000 Lat=312967758 Lon=1214332730 AltM=1973 Sog=118
$GPGGA,084617.000,3117.8065,N,12125.9964,E,1,,,19.7,M,,M,,*57
$GPRMC,084617.000,A,3117.8065,N,12125.9964,E,2.3,,210610,,,A*41
Decode(30 bytes): A0A2001664000008002E465012A7835848613F6C000008C40079055DB0B3
-->Binary: UTC Time=08:46:18000 Lat=312968024 Lon=1214332780 AltM=2244 Sog=121
$GPGGA,084618.000,3117.8081,N,12125.9967,E,1,,,22.4,M,,M,,*5A
$GPRMC,084618.000,A,3117.8081,N,12125.9967,E,2.4,,210610,,,A*40
Decode(30 bytes): A0A2001664000008002E4A3812A7847748613FA9000009F6007B05DBB0B3
-->Binary: UTC Time=08:46:19000 Lat=312968311 Lon=1214332841 AltM=2550 Sog=123
$GPGGA,084619.000,3117.8099,N,12125.9970,E,1,,,25.5,M,,M,,*52
$GPRMC,084619.000,A,3117.8099,N,12125.9970,E,2.4,,210610,,,A*4E
Decode(30 bytes): A0A2001664000008002E4E2012A785B148613FD300000B2D0091057BB0B3
-->Binary: UTC Time=08:46:20000 Lat=312968625 Lon=1214332883 AltM=2861 Sog=145
$GPGGA,084620.000,3117.8118,N,12125.9973,E,1,,,28.6,M,,M,,*5D
$GPRMC,084620.000,A,3117.8118,N,12125.9973,E,2.8,,210610,,,A*43
Decode(30 bytes): A0A2001664000008002E520812A786A54861400500000C430057046CB0B3
-->Binary: UTC Time=08:46:21000 Lat=312968869 Lon=1214332933 AltM=3139 Sog=87
$GPGGA,084621.000,3117.8132,N,12125.9976,E,1,,,31.4,M,,M,,*5B
$GPRMC,084621.000,A,3117.8132,N,12125.9976,E,1.7,,210610,,,A*43
Decode(30 bytes): A0A2001664000008002E55F012A787624861402200000D32002F04FAB0B3
-->Binary: UTC Time=08:46:22000 Lat=312969058 Lon=1214332962 AltM=3378 Sog=47
$GPGGA,084622.000,3117.8143,N,12125.9978,E,1,,,33.8,M,,M,,*5E
$GPRMC,084622.000,A,3117.8143,N,12125.9978,E,0.9,,210610,,,A*47
Decode(30 bytes): A0A2001664000008002E59D812A7880E4861403600000E1800240483B0B3
-->Binary: UTC Time=08:46:23000 Lat=312969230 Lon=1214332982 AltM=3608 Sog=36
$GPGGA,084623.000,3117.8154,N,12125.9979,E,1,,,36.1,M,,M,,*54
$GPRMC,084623.000,A,3117.8154,N,12125.9979,E,0.7,,210610,,,A*4F
Decode(30 bytes): A0A2001664000008002E5DC012A788C64861402500000EFE004C0624B0B3
-->Binary: UTC Time=08:46:24000 Lat=312969414 Lon=1214332965 AltM=3838 Sog=76
$GPGGA,084624.000,3117.8165,N,12125.9978,E,1,,,38.4,M,,M,,*5B
$GPRMC,084624.000,A,3117.8165,N,12125.9978,E,1.5,,210610,,,A*48
Decode(30 bytes): A0A2001664000008002E61A812A7893C4861404A00000FD300110547B0B3
-->Binary: UTC Time=08:46:25000 Lat=312969532 Lon=1214333002 AltM=4051 Sog=17
$GPGGA,084625.000,3117.8172,N,12125.9980,E,1,,,40.5,M,,M,,*55
$GPRMC,084625.000,A,3117.8172,N,12125.9980,E,0.3,,210610,,,A*4F
Decode(30 bytes): A0A2001664000008002E659012A789A84861405D0000107E001A0567B0B3
-->Binary: UTC Time=08:46:26000 Lat=312969640 Lon=1214333021 AltM=4222 Sog=26
$GPGGA,084626.000,3117.8178,N,12125.9981,E,1,,,42.2,M,,M,,*58
$GPRMC,084626.000,A,3117.8178,N,12125.9981,E,0.5,,210610,,,A*41
Decode(30 bytes): A0A2001664000008002E697812A78A194861406A000010FE00200558B0B3
-->Binary: UTC Time=08:46:27000 Lat=312969753 Lon=1214333034 AltM=4350 Sog=32
$GPGGA,084627.000,3117.8185,N,12125.9982,E,1,,,43.5,M,,M,,*5E
$GPRMC,084627.000,A,3117.8185,N,12125.9982,E,0.6,,210610,,,A*42
Decode(30 bytes): A0A2001664000008002E6D6012A78A92486140650000116800430546B0B3
-->Binary: UTC Time=08:46:28000 Lat=312969874 Lon=1214333029 AltM=4456 Sog=67
$GPGGA,084628.000,3117.8192,N,12125.9982,E,1,,,44.6,M,,M,,*53
$GPRMC,084628.000,A,3117.8192,N,12125.9982,E,1.3,,210610,,,A*4F
Decode(30 bytes): A0A2001664000008002E714812A78AE34861406D000011BF001C05BBB0B3
-->Binary: UTC Time=08:46:29000 Lat=312969955 Lon=1214333037 AltM=4543 Sog=28
$GPGGA,084629.000,3117.8197,N,12125.9982,E,1,,,45.4,M,,M,,*54
$GPRMC,084629.000,A,3117.8197,N,12125.9982,E,0.5,,210610,,,A*4C
Decode(30 bytes): A0A2001664000008002E753012A78AED4861406A000011EE003905FAB0B3
-->Binary: UTC Time=08:46:30000 Lat=312969965 Lon=1214333034 AltM=4590 Sog=57
$GPGGA,084630.000,3117.8198,N,12125.9982,E,1,,,45.9,M,,M,,*5E
$GPRMC,084630.000,A,3117.8198,N,12125.9982,E,1.1,,210610,,,A*4E
Decode(30 bytes): A0A2001664000008002E791812A78B0C48614066000011F0001C04E7B0B3
-->Binary: UTC Time=08:46:31000 Lat=312969996 Lon=1214333030 AltM=4592 Sog=28
$GPGGA,084631.000,3117.8200,N,12125.9982,E,1,,,45.9,M,,M,,*5D
$GPRMC,084631.000,A,3117.8200,N,12125.9982,E,0.5,,210610,,,A*48
Decode(30 bytes): A0A2001664000008002E7D0012A78AFF48614062000011CA0020059FB0B3
-->Binary: UTC Time=08:46:32000 Lat=312969983 Lon=1214333026 AltM=4554 Sog=32
$GPGGA,084632.000,3117.8199,N,12125.9982,E,1,,,45.5,M,,M,,*51
$GPRMC,084632.000,A,3117.8199,N,12125.9982,E,0.6,,210610,,,A*4B
Decode(30 bytes): A0A2001664000008002E80E812A78AC34861407700001162002F060AB0B3
-->Binary: UTC Time=08:46:33000 Lat=312969923 Lon=1214333047 AltM=4450 Sog=47
$GPGGA,084633.000,3117.8195,N,12125.9983,E,1,,,44.5,M,,M,,*5C
$GPRMC,084633.000,A,3117.8195,N,12125.9983,E,0.9,,210610,,,A*48
Decode(30 bytes): A0A2001664000008002E84D012A78A6D486140A3000010C800360638B0B3
-->Binary: UTC Time=08:46:34000 Lat=312969837 Lon=1214333091 AltM=4296 Sog=54
$GPGGA,084634.000,3117.8190,N,12125.9985,E,1,,,43.0,M,,M,,*5A
$GPRMC,084634.000,A,3117.8190,N,12125.9985,E,1.0,,210610,,,A*44
Decode(30 bytes): A0A2001664000008002E88B812A78A04486140E1000010010042053EB0B3
-->Binary: UTC Time=08:46:35000 Lat=312969732 Lon=1214333153 AltM=4097 Sog=66
$GPGGA,084635.000,3117.8184,N,12125.9989,E,1,,,41.0,M,,M,,*50
$GPRMC,084635.000,A,3117.8184,N,12125.9989,E,1.3,,210610,,,A*4F
Decode(30 bytes): A0A2001664000008002E8CA012A7898A4861413D00000F38005E055EB0B3
-->Binary: UTC Time=08:46:36000 Lat=312969610 Lon=1214333245 AltM=3896 Sog=94
$GPGGA,084636.000,3117.8177,N,12125.9995,E,1,,,39.0,M,,M,,*5D
$GPRMC,084636.000,A,3117.8177,N,12125.9995,E,1.8,,210610,,,A*46
Decode(30 bytes): A0A2001664000008002E908812A7891D4861416900000E66002E0506B0B3
-->Binary: UTC Time=08:46:37000 Lat=312969501 Lon=1214333289 AltM=3686 Sog=46
